%time,field.header.seq,field.header.stamp,field.header.frame_id,field.pose.header.seq,field.pose.header.stamp,field.pose.header.frame_id,field.pose.pose.position.x,field.pose.pose.position.y,field.pose.pose.position.z,field.pose.pose.orientation.x,field.pose.pose.orientation.y,field.pose.pose.orientation.z,field.pose.pose.orientation.w,field.label,field.main_output,field.scan_score,field.pose_score,field.cov_score,field.lhood_map_score,field.lhood_robot_score,field.lhood_map_score_all,field.lhood_robot_score_all,field.point_angle_diff,field.average_orientation,field.map_average_orientation,field.sensor_div,field.odom_div_x,field.odom_div_w,field.imu_div_w,field.kdtree_div,field.kdtree_div_p,field.cov_div,field.cov_div_p,field.likelihood_div,field.likelihood_div_p,field.normal_diff_div,field.normal_diff_div_p,field.kdtree_average,field.cov_average,field.likelihood_average,field.normal_diff_average,field.map_update_count
1.63084390713E+018,0,1.63084390713E+018,base_footprint,0,1.63084390713E+018,map,-6.95644243995,-0.70951420669,0,0,0,-0.999948399949,0.0101586140681,0,64.0729064941,19.6354598999,100,97.6934204102,44.7112693787,44.7112693787,64.0729064941,64.0729064941,41.265750885,0.0782747790217,0,0.0178288016468,0.162060469389,0.0174398981035,0.000388904474676,-10.3751049042,-1.12037873268,-1.61474609375,-0.0168064981699,1.7036819458,0.0367054566741,-4.57880020142,-0.124807327986,9.26035499573,96.0786743164,46.4149513245,36.6869506836,257
1.63084390722944E+018,1,1.63084390722944E+018,base_footprint,0,1.63084390722944E+018,map,-7.11292060453,-0.710198194873,0,0,0,-0.999951268746,0.00987218990304,0,64.082572937,13.3126935959,48.1304130554,97.9942398071,44.9679603577,44.9679603577,64.082572937,64.082572937,44.946975708,0.465799570084,0,0.0155499381945,0.16895519197,0.0113846519962,0.00416528619826,-3.89751148224,-0.413960278034,-1.83226013184,-0.0190538931638,1.44959640503,0.0312294848263,-8.04089736938,-0.217874601483,9.41518211365,96.1619796753,46.4175567627,36.9060783386,258
1.63084390732862E+018,2,1.63084390732862E+018,base_footprint,0,1.63084390732862E+018,map,-7.19453827087,-0.709597118964,0,0,0,-0.999936803686,0.0112422700191,0,64.7600631714,14.0271492004,48.4108428955,98.1790008545,45.1611633301,45.1611633301,64.7600631714,64.7600631714,35.5038719177,0.430387347937,0,0.0119099263102,0.173669219017,0.00710319681093,0.00480672996491,-4.2360200882,-0.432638555765,-2.0491104126,-0.0213160589337,1.30710983276,0.0281290821731,1.28604507446,0.0349564552307,9.79112911224,96.1298904419,46.4682731628,36.7899169922,264
1.63084390742862E+018,3,1.63084390742862E+018,base_footprint,0,1.63084390742862E+018,map,-7.42337905661,-0.709204988808,0,0,0,-0.999957251413,0.00924636941645,0,64.6728057861,15.3297681808,48.5732040405,98.1236572266,45.5715637207,45.5715637207,64.6728057861,64.6728057861,41.3075942993,0.600385546684,0,0.0135900303721,0.191580057144,0.00270998827182,0.0108800418675,-5.42631340027,-0.54792124033,-1.93474578857,-0.0201140213758,0.995914459229,0.0213864799589,-4.3390083313,-0.117370143533,9.90345478058,96.188911438,46.5674781799,36.968585968,253
1.63084390752869E+018,4,1.63084390752869E+018,base_footprint,0,1.63084390752869E+018,map,-7.70472555158,-0.718965296482,0,0,0,-0.999946196775,0.0103732133364,0,65.2764968872,11.764705658,48.8568305969,97.9853820801,45.8835258484,45.8835258484,65.2764968872,65.2764968872,33.3124542236,0.549859106541,0,0.00778729561716,0.204569146037,0.00593712506816,0.013724421151,-1.09923934937,-0.103065289557,-2.03660583496,-0.0212259702384,1.09507369995,0.0233100540936,4.42351531982,0.117222778499,10.6654663086,95.9487762451,46.9785995483,37.7359695435,212
1.63084390762926E+018,5,1.63084390762926E+018,base_footprint,0,1.63084390762926E+018,map,-7.80795997773,-0.717345382304,0,0,0,-0.999941815166,0.0107873204205,0,65.6892700195,12.6297578812,48.8568305969,97.8542251587,46.420173645,46.420173645,65.6892700195,65.6892700195,31.2062454224,0.786121428013,0,0.00790584180504,0.203968733549,0.00725032947958,0.0151561712846,-0.166469573975,-0.0133567936718,-2.50026702881,-0.0262209046632,1.71445465088,0.0356179066002,6.35664367676,0.169226691127,12.4632883072,95.3539581299,48.1346282959,37.5628890991,158
1.63084390772938E+018,6,1.63084390772938E+018,base_footprint,0,1.63084390772939E+018,map,-7.90194870048,-0.724226085993,0,0,0,-0.99994042807,0.0109151413688,0,66.2185058594,6.9359087944,48.7932701111,97.781211853,46.9109916687,46.9109916687,66.2185058594,66.2185058594,26.717912674,0.929964184761,0,0.00141209759749,0.21746173501,0.0144732613117,0.0158853586763,7.26012468338,0.51141923666,-2.66242218018,-0.0279904976487,1.74955749512,0.0359543301165,9.8940372467,0.270240664482,14.1960334778,95.1187896729,48.6605491638,36.6119499207,130
1.63084390782926E+018,7,1.63084390782926E+018,base_footprint,0,1.63084390782927E+018,map,-8.19037587164,-0.731389963846,0,0,0,-0.999962228482,0.00869146766772,0,65.8146057129,8.88987159729,48.9115715027,97.3975601196,47.3950805664,47.3950805664,65.8146057129,65.8146057129,37.8351745605,0.592705368996,0,0.00474555650726,0.242733433843,0.0132584292442,0.0180039852858,6.75041866302,0.431604444981,-1.77275085449,-0.0185386072844,0.590831756592,0.012312608771,-2.19931030273,-0.0617162063718,15.6402902603,95.6248092651,47.985912323,35.6358642578,160
1.63084390792915E+018,8,1.63084390792915E+018,base_footprint,0,1.63084390792915E+018,map,-8.43103616875,-0.742357489277,0,0,0,-0.999988301783,0.0048369719074,0,66.2933502197,6.23617887497,48.9224205017,97.4076156616,47.6555709839,47.6555709839,66.2933502197,66.2933502197,32.0673103333,0.714473605156,0,0.00204572291113,0.23863992095,0.0206550583243,0.0227007810026,6.77057790756,0.520543158054,-1.30892944336,-0.0136206801981,-0.7614402771,-0.0162374321371,4.82698059082,0.130832716823,13.0067567825,96.0986862183,46.8941307068,36.8942909241,236
1.63084390802926E+018,9,1.63084390802926E+018,base_footprint,0,1.63084390802926E+018,map,-8.62062745108,-0.742034388174,0,0,0,-0.999989545109,0.00457270959558,0,65.4842147827,5.88235282898,48.8455543518,97.3667526245,47.767616272,47.767616272,65.4842147827,65.4842147827,47.6946601868,0.927297234535,0,0.000806149677373,0.254098296165,0.0206742864102,0.0214804373682,7.42950820923,0.558111906052,-1.28729248047,-0.0133982067928,-0.844169616699,-0.0179903581738,-11.2695426941,-0.309389322996,13.3118610382,96.079460144,46.9234466553,36.4251174927,248
1.63084390812842E+018,10,1.63084390812842E+018,base_footprint,0,1.63084390812842E+018,map,-8.88919754144,-0.734952921133,0,0,0,0.999999999016,4.4354302783E-05,0,65.4179153442,4.76190471649,48.7540512085,97.0689544678,48.0606956482,48.0606956482,65.4179153442,65.4179153442,50.9813308716,0.00315219862387,0,0.00220902403817,0.264373898506,0.0172098334879,0.0194188561291,9.28643989563,0.661034464836,-0.919410705566,-0.00956229958683,-1.03440475464,-0.0219963081181,-14.2868309021,-0.389345288277,14.0483446121,96.1495437622,47.0262908936,36.6944999695,248
1.63084390822834E+018,11,1.63084390822834E+018,base_footprint,0,1.63084390822834E+018,map,-9.06877397769,-0.733415839354,0,0,0,0.999999828644,0.000585415969395,0,65.827835083,0.452488690615,48.8438262939,97.446144104,48.3469314575,48.3469314575,65.827835083,65.827835083,48.0519866943,0.198485910892,0,0.00251471390948,0.280957937241,0.0132343443111,0.0157490577549,13.5615596771,0.967711746693,-1.35662078857,-0.0141183007509,-1.13006210327,-0.0239334404469,-11.3431282043,-0.309002488852,14.0140485764,96.0895233154,47.2168693542,36.70885849,234
1.63084390832851E+018,12,1.63084390832851E+018,base_footprint,0,1.63084390832851E+018,map,-9.16031984637,-0.736421738929,0,0,0,-0.999998770813,0.00156791991419,0,66.2139892578,8.80072975159,48.7378997803,97.5853881836,48.5727043152,48.5727043152,66.2139892578,66.2139892578,44.0407867432,0.591724693775,0,0.00665266579017,0.283689469099,0.00605713808909,0.0127098038793,5.98446464539,0.404760628939,-1.65089416504,-0.0172085557133,-1.04357147217,-0.0219564586878,-7.60622024536,-0.208763852715,14.785194397,95.9344940186,47.529132843,36.4345664978,223
1.63084390842956E+018,13,1.63084390842956E+018,base_footprint,0,1.63084390842957E+018,map,-9.37475018245,-0.737236155638,0,0,0,-0.999998810486,0.00154240908029,0,66.5465316772,14.3598613739,48.7987518311,97.6510925293,48.8352851868,48.8352851868,66.5465316772,66.5465316772,41.1274528503,0.799358308315,0,0.009262137115,0.29800260067,0.000587818678468,0.00984995625913,6.11471366882,0.298649102449,-2.24837493896,-0.023567199707,0.307163238525,0.00625046668574,-6.88484191895,-0.201060652733,20.4745750427,95.4027175903,49.1424484253,34.2426109314,145
1.63084390852879E+018,14,1.63084390852879E+018,base_footprint,0,1.63084390852879E+018,map,-9.53955163246,-0.738322368299,0,0,0,0.999999928889,0.000377124481799,0,66.3632278442,13.2674970627,48.5354003906,97.2939071655,49.0291290283,49.0291290283,66.3632278442,66.3632278442,45.23462677,0.797985315323,0,0.00879155192524,0.31294593215,0.00165751203895,0.0104490630329,7.68131351471,0.366670638323,-1.83745574951,-0.0192491523921,0.196678161621,0.00399542786181,-10.9338417053,-0.318763613701,20.9488105774,95.456451416,49.2258071899,34.3007850647,137
1.63084390862921E+018,15,1.63084390862921E+018,base_footprint,0,1.63084390862921E+018,map,-9.85292358605,-0.734889050082,0,0,0,0.999972859997,0.00736744656501,0,66.3456344604,11.5500211716,48.2629699707,97.1854324341,49.2692832947,49.2692832947,66.3456344604,66.3456344604,47.7544517517,0.740461468697,0,0.0103021571413,0.319425165653,0.00712636625394,0.0174285229295,7.11318683624,0.381134212017,-1.1968460083,-0.0124686285853,-1.51922988892,-0.0318162962794,-13.9205474854,-0.411437809467,18.6632080078,95.9885864258,47.7500534058,33.8339042664,203
1.63084390872921E+018,16,1.63084390872921E+018,base_footprint,0,1.63084390872921E+018,map,-9.94207001766,-0.728607403782,0,0,0,0.999949421398,0.0100575665629,0,66.7839660645,9.98217487335,47.99609375,96.8545074463,49.4347801208,49.4347801208,66.7839660645,66.7839660645,40.46043396,0.857210099697,0,0.0115097993985,0.333129584789,0.0112081766129,0.0227179769427,9.02667140961,0.474866867065,-0.824127197266,-0.00858194287866,-1.67758560181,-0.0351273901761,-6.80518341064,-0.20220272243,19.008846283,96.030380249,47.757194519,33.6552505493,202
1.63084390882915E+018,17,1.63084390882915E+018,base_footprint,0,1.63084390882915E+018,map,-10.1798866133,-0.723184637454,0,0,0,0.999929711214,0.0118563330085,0,66.4812011719,10.8734407425,47.8116607666,96.7641677856,49.4231185913,49.4231185913,66.4812011719,66.4812011719,45.4590988159,0.574059128761,0,0.00781981926411,0.335252612829,0.0148016279563,0.0226214472204,8.92906665802,0.45090585947,-0.637756347656,-0.00663455901667,-1.55054473877,-0.0323890000582,-11.9759597778,-0.357671350241,19.8025074005,96.126411438,47.8725738525,33.4831390381,192
1.63084390892915E+018,18,1.63084390892915E+018,base_footprint,0,1.63084390892915E+018,map,-10.3555794404,-0.733003632076,0,0,0,0.999973864364,0.00722984016155,0,65.9627532959,6.41711235046,47.6980781555,96.6479492188,49.4898986816,49.4898986816,65.9627532959,65.9627532959,55.0939292908,0.38005310297,0,0.0025431397371,0.336595714092,0.0165919326246,0.0191350728273,13.0105991364,0.66969281435,-0.552940368652,-0.00575410062447,-1.54161834717,-0.0321516916156,-21.2559242249,-0.628167152405,19.4277114868,96.0950088501,47.9482803345,33.8380050659,189
1.63084390912838E+018,19,1.63084390912838E+018,base_footprint,0,1.63084390912838E+018,map,-10.7596295233,-0.721973217563,0,0,0,0.999985529525,0.00537965988125,0,67.0693206787,0,47.6280899048,96.7314071655,49.6795463562,49.6795463562,67.0693206787,67.0693206787,37.5244102478,1.33102035522,0,0.00811203662306,0.367297440767,0.00477834930643,0.0128903854638,23.7460441589,1,-1.32716369629,-0.0139109501615,0.4928855896,0.00982383266091,-3.9492149353,-0.117622993886,23.7460441589,95.4042434692,50.1724319458,33.5751953125,119
1.63084390922865E+018,20,1.63084390922865E+018,base_footprint,0,1.63084390922865E+018,map,-10.855931768,-0.710330079164,0,0,0,0.999980893704,0.00618160384426,0,66.7690048218,0,47.651599884,96.6341629028,49.9295005798,49.9295005798,66.7690048218,66.7690048218,45.2795600891,1.36563718319,0,0.00160968967248,0.378765702248,0.00727309985086,0.00888278987259,22.8644943237,1,-1.2241973877,-0.0128309177235,0.160305023193,0.00320035219193,-11.4036712646,-0.336630910635,22.8644943237,95.4099655151,50.089805603,33.8758888245,114
1.63084390932927E+018,21,1.63084390932927E+018,base_footprint,0,1.63084390932927E+018,map,-11.1930748169,-0.707992100854,0,0,0,0.999971092609,0.00760354832544,0,66.9130249023,0,47.596206665,96.0777053833,50.1098823547,50.1098823547,66.9130249023,66.9130249023,42.6320304871,1.12838625908,0,0.00156051851809,0.390192180872,0.00601932080463,0.00757983932272,15.8254432678,1,0.497573852539,0.00515218637884,-2.14015579224,-0.0446147173643,-8.27241516113,-0.240759834647,15.8254432678,96.5752792358,47.9697265625,34.3596153259,336
1.63084390942944E+018,22,1.63084390942944E+018,base_footprint,0,1.63084390942945E+018,map,-11.3691795967,-0.709134918341,0,0,0,0.999970023819,0.00774283305819,0,66.6589355469,5.53885793686,47.4809532166,96.0603942871,50.2660484314,50.2660484314,66.6589355469,66.6589355469,48.8299331665,1.15301120281,0,0.0126886954531,0.397885113955,0.00753380684182,0.00515488907695,10.442861557,0.653425395489,0.619415283203,0.00640687299892,-2.42953491211,-0.050788294524,-14.9187049866,-0.439934074879,15.9817199707,96.6798095703,47.8365135193,33.9112281799,345
1.63084390952915E+018,23,1.63084390952915E+018,base_footprint,0,1.63084390952916E+018,map,-11.5668122773,-0.704045889921,0,0,0,0.999961601847,0.00876326604456,0,66.6802062988,4.30201911926,47.3568572998,96.1128616333,50.1916847229,50.1916847229,66.6802062988,66.6802062988,47.8327827454,1.00712823868,0,0.0122342640534,0.407372832298,0.00657971017063,0.00565455341712,11.8179264069,0.733124434948,0.742813110352,0.00766927795485,-2.376121521,-0.0496934764087,-14.3086547852,-0.426816612482,16.1199455261,96.8556747437,47.8155632019,33.5241279602,339
1.63084390962915E+018,24,1.63084390962915E+018,base_footprint,0,1.63084390962915E+018,map,-11.7589019467,-0.683779073385,0,0,0,0.999921975676,0.0124916996187,0,66.2472610474,7.8138718605,47.3208770752,95.9315414429,50.0113220215,50.0113220215,66.2472610474,66.2472610474,53.025188446,0.133815824986,0,0.0123035339639,0.423089265823,0.00173000618815,0.0105735277757,8.07347106934,0.508170008659,0.960975646973,0.00991795491427,-2.34893417358,-0.0492827631533,-19.5848731995,-0.585666537285,15.8873434067,96.8925170898,47.6623878479,33.4403152466,329
1.63084390972944E+018,25,1.63084390972944E+018,base_footprint,0,1.63084390972944E+018,map,-11.9848588213,-0.686545183896,0,0,0,0.999962757879,0.00863034500322,0,66.6335372925,2.54609298706,47.3400611877,95.7125854492,49.8467559814,49.8467559814,66.6335372925,66.6335372925,43.5066070557,0.270462334156,0,0.023115824908,0.434041053057,0.00717403739691,0.0159417875111,11.8883838654,0.823610305786,1.10350036621,0.0113979028538,-2.38778686523,-0.0503126569092,-9.29814910889,-0.271808475256,14.4344768524,96.8160858154,47.4589691162,34.2084579468,281
1.63084390982894E+018,26,1.63084390982894E+018,base_footprint,0,1.63084390982894E+018,map,-12.2281244875,-0.677146297334,0,0,0,0.999935593952,0.0113493589276,0,66.6496887207,6.57439422607,47.6262397766,95.8493652344,49.6959037781,49.6959037781,66.6496887207,66.6496887207,42.0790061951,-0.0684000626206,0,0.0150008415803,0.443819254637,0.0044989772141,0.0194998178631,11.1901454926,0.62991476059,-1.08502197266,-0.0114496862516,0.60179901123,0.011964741163,-6.76517105103,-0.19157281518,17.7645397186,94.7643432617,50.2977027893,35.313835144,40
1.63084390992859E+018,27,1.63084390992859E+018,base_footprint,0,1.63084390992859E+018,map,-12.5068394812,-0.667670755199,0,0,0,0.99994662047,0.0103322897199,0,66.6235275269,6.72268915176,47.9446525574,96.1864013672,49.7420272827,49.7420272827,66.6235275269,66.6235275269,44.2614479065,0.213999718428,0,0.00393700832501,0.429249346256,0.0208285525441,0.0247655604035,12.3589286804,0.647687673569,-1.2907333374,-0.0136016048491,0.725452423096,0.0143746510148,-10.1340751648,-0.296948581934,19.0816173553,94.8956680298,50.4674797058,34.1273727417,49
1.63084391002865E+018,28,1.63084391002865E+018,base_footprint,0,1.63084391002865E+018,map,-12.7390384135,-0.693724710231,0,0,0,0.99999684752,0.00251096582003,0,66.5095748901,3.26797389984,48.0858383179,96.0309371948,49.8633804321,49.8633804321,66.5095748901,66.5095748901,47.0634880066,1.37039577961,0,0.00857798010111,0.437906563282,0.0164952352643,0.0250732153654,14.7679796219,0.818807840347,0.0530624389648,0.000552250538021,-0.532707214355,-0.0107987010852,-12.0413246155,-0.343820124865,18.0359535217,96.0839996338,49.3306732178,35.0221633911,77
1.63084391012906E+018,29,1.63084391012906E+018,base_footprint,0,1.63084391012906E+018,map,-12.9202326632,-0.644927264808,0,0,0,0.999985119637,0.00545531887941,0,66.672958374,6.39759540558,48.2013893127,95.9269180298,49.977771759,49.977771759,66.672958374,66.672958374,44.983543396,0.938449144363,0,0.00784733332694,0.455859065056,0.00657529104501,0.0144226243719,12.3760671616,0.65922498703,0.240219116211,0.00249793357216,-0.615447998047,-0.0124679701403,-10.4824333191,-0.30382886529,18.7736625671,96.167137146,49.362323761,34.5011100769,80
1.63084391022941E+018,30,1.63084391022941E+018,base_footprint,0,1.63084391022941E+018,map,-13.1536072089,-0.681532500931,0,0,0,-0.999999956925,0.000293512096602,0,66.9266052246,0,48.225605011,95.8330154419,50.024772644,50.024772644,66.9266052246,66.9266052246,40.5874252319,1.43010342121,0,0.00771850207821,0.46873319149,0.00531495222822,0.0130334543064,20.0547847748,1,0.617904663086,0.00640641525388,-0.715858459473,-0.0145178306848,-6.87060165405,-0.20377369225,20.0547847748,96.450920105,49.3089141846,33.7168235779,82
1.63084391032917E+018,31,1.63084391032917E+018,base_footprint,0,1.63084391032918E+018,map,-13.3694200787,-0.679830539493,0,0,0,0.999998754167,0.00157850057205,0,66.3258972168,0.178253114223,48.4015541077,94.9194793701,50.0397186279,50.0397186279,66.3258972168,66.3258972168,48.2729988098,0.340315550566,0,0.00232301210053,0.490226179361,0.0123486919329,0.0146717047319,20.6871318817,0.991456985474,1.44372558594,0.0149821247905,-0.730770111084,-0.0148202329874,-14.5828437805,-0.432851791382,20.8653850555,96.3632049561,49.3089485168,33.6901550293,81
1.6308439104289E+018,32,1.6308439104289E+018,base_footprint,0,1.6308439104289E+018,map,-13.6534226544,-0.661889669119,0,0,0,0.999928940746,0.0119211349439,0,66.7009735107,10.6590003967,48.3720207214,94.608253479,49.9936408997,49.9936408997,66.7009735107,66.7009735107,39.9035415649,0.186423242092,0,0.00520411552861,0.489365726709,0.0210990551859,0.0263031702489,13.1803417206,0.5528819561,1.04835510254,0.0109595675021,-0.313564300537,-0.00631167087704,-7.18102264404,-0.219452008605,23.8393421173,95.6566085815,49.6800765991,32.7225189209,56
1.63084391052851E+018,33,1.63084391052851E+018,base_footprint,0,1.63084391052851E+018,map,-13.7701766498,-0.650604689734,0,0,0,0.999852922674,0.0171503066951,0,66.5949020386,2.10390734673,48.489074707,94.276550293,50.2570495605,50.2570495605,66.5949020386,66.5949020386,43.4634590149,1.28812396526,0,0.00297497818246,0.491551041603,0.0250747222453,0.0280497018248,24.9494876862,0.922231316566,0.632606506348,0.00666538951918,-0.371593475342,-0.00744893401861,-13.2138156891,-0.43682551384,27.0533943176,94.9091567993,49.8854560852,30.2496433258,39
1.6308439106287E+018,34,1.6308439106287E+018,base_footprint,0,1.6308439106287E+018,map,-14.207560193,-0.60541054966,0,0,0,0.999852495769,0.017175176962,0,66.3443756104,7.62527227402,48.4774780273,93.4782180786,50.3839378357,50.3839378357,66.3443756104,66.3443756104,46.4693145752,0.457166463137,0,0.00259512942284,0.514971256256,0.029236221686,0.0318313501775,7.93200540543,0.509858191013,3.30540466309,0.0341525189579,-1.90436172485,-0.0392817333341,-14.0343360901,-0.432691395283,15.5572776794,96.7836227417,48.4795761108,32.4349784851,161
1.63084391072856E+018,35,1.63084391072856E+018,base_footprint,0,1.63084391072856E+018,map,-14.2816900675,-0.597939521591,0,0,0,0.999876541899,0.0157130824625,0,66.4404678345,10.4072399139,48.1894035339,93.7094726562,50.5901603699,50.5901603699,66.4404678345,66.4404678345,47.7994689941,0.0797881633043,0,0.00147709820885,0.522446215153,0.0311689116061,0.0296918135136,5.73350906372,0.355219513178,3.10123443604,0.0320340022445,-2.07006835938,-0.0426641479135,-15.5865631104,-0.483860820532,16.1407489777,96.8107070923,48.5200920105,32.2129058838,164
1.63084391082861E+018,36,1.63084391082861E+018,base_footprint,0,1.63084391082861E+018,map,-14.6534613828,-0.588040998038,0,0,0,0.999980442913,0.00625410201366,0,66.4641418457,2.41678071022,48.0130195618,92.5354385376,50.8621520996,50.8621520996,66.4641418457,66.4641418457,46.084312439,0.748543262482,0,0.00247927475721,0.565838515759,0.0287357866764,0.0262565109879,14.0772018433,0.853475034237,4.61569976807,0.0475105047226,-2.24467849731,-0.0461702011526,-14.4176120758,-0.455292522907,16.4939823151,97.1511383057,48.6174736023,31.6667003632,159
1.63084391092979E+018,37,1.63084391092979E+018,base_footprint,0,1.63084391092979E+018,map,-14.818657113,-0.592984170948,0,0,0,0.999999990417,0.000138439867734,0,66.7610015869,0,47.6114654541,93.4592132568,50.99168396,50.99168396,66.7610015869,66.7610015869,45.4653091431,0.220034584403,0,0.00115004368126,0.610628128052,0.0219643171877,0.0231143590063,16.0198936462,1,3.75216674805,0.0385980196297,-2.38069915771,-0.0489745102823,-13.5614089966,-0.42507058382,16.0198936462,97.2113800049,48.6109848022,31.9039001465,152
1.63084391102913E+018,38,1.63084391102913E+018,base_footprint,0,1.63084391102913E+018,map,-15.081848374,-0.591343863193,0,0,0,-0.999988054397,0.00488784861963,0,66.7962188721,0,47.0426712036,93.1917190552,51.0993347168,51.0993347168,66.7962188721,66.7962188721,45.0310096741,0.65091240406,0,0.00107055471744,0.696027159691,0.0209928825498,0.0220634359866,20.1706790924,1,3.35771179199,0.0347771272063,-1.4338722229,-0.0288706105202,-14.1018791199,-0.455941647291,20.1706790924,96.5494308472,49.6654624939,30.9291305542,41
1.63084391112902E+018,39,1.63084391112902E+018,base_footprint,0,1.63084391112902E+018,map,-15.1967836376,-0.584285987357,0,0,0,-0.999975389128,0.00701577780321,0,67.4532318115,0,46.437664032,92.7665176392,51.4279174805,51.4279174805,67.4532318115,67.4532318115,35.2227630615,0.744860768318,0,0.00284699932672,0.784184813499,0.0207357853651,0.0178887862712,24.5670146942,1,4.19760131836,0.0432902537286,0.309673309326,0.00598546070978,-5.32047462463,-0.177928671241,24.5670146942,96.9641189575,51.7375907898,29.9022884369,21
1.63084391122938E+018,40,1.63084391122938E+018,base_footprint,0,1.63084391122939E+018,map,-15.4465050672,-0.580430163108,0,0,0,-0.999921081618,0.0125630623826,0,67.9324798584,33.391002655,45.8204650879,93.6364364624,51.675567627,51.675567627,67.9324798584,67.9324798584,32.4026298523,0.153135836124,0,0.00195574946702,0.949121415615,0.00989163015038,0.00793588068336,-16.1553401947,-0.937320530415,3.34616088867,0.0345026925206,-0.178649902344,-0.00346913770773,-2.30177307129,-0.0764686912298,17.2356624603,96.9825973511,51.4969177246,30.100856781,31
1.63084391132955E+018,41,1.63084391132955E+018,base_footprint,0,1.63084391132955E+018,map,-15.5721143528,-0.583041627971,0,0,0,-0.99982290109,0.0188193107181,0,68.983757019,42.4460449219,45.369808197,93.9565505981,51.932472229,51.932472229,68.983757019,68.983757019,17.4066295624,0.0824896991253,0,0.000999377807602,1.03646278381,0.00328632257879,0.00428570015356,-24.915019989,-1.42119586468,3.43669891357,0.0352868288755,-1.78929901123,-0.035683799535,14.7916316986,0.459392249584,17.5310249329,97.3932495117,50.1431732178,32.198261261,67
1.63084391142879E+018,42,1.63084391142879E+018,base_footprint,0,1.63084391142879E+018,map,-15.6905754929,-0.586835276216,0,0,0,-0.999675133045,0.025487808303,0,69.2615661621,44.6366767883,44.814540863,94.3999557495,52.1561355591,52.1561355591,69.2615661621,69.2615661621,16.41796875,0.196228012443,0,0.00440361071378,1.14389812946,0.00254623685032,0.0069498475641,-28.4489326477,-1.7574365139,2.99281311035,0.030729316175,-1.93951034546,-0.0386228747666,15.5568008423,0.486533641815,16.1877441406,97.3927688599,50.2166252136,31.9747695923,88
1.63084391152867E+018,43,1.63084391152867E+018,base_footprint,0,1.63084391152867E+018,map,-15.8764662174,-0.593895075983,0,0,0,-0.999285165371,0.0378042096861,0,68.0653839111,42.8815002441,44.3923721313,94.5274276733,52.2883491516,52.2883491516,68.0653839111,68.0653839111,39.8360404968,0.253253012896,0,0.00108603190165,1.22489356995,0.0156712532043,0.0167572852224,-26.338060379,-1.59205460548,2.84953308105,0.0292629078031,-2.12836456299,-0.0424315221608,-8.16698646545,-0.257885396481,16.5434398651,97.3769607544,50.1599845886,31.6690540314,90
1.63084391162845E+018,44,1.63084391162845E+018,base_footprint,0,1.63084391162845E+018,map,-15.9610739698,-0.598240605526,0,0,0,-0.999008178425,0.0445270641262,0,68.2231826782,17.5611858368,44.1203575134,94.2011566162,52.3522148132,52.3522148132,68.2231826782,68.2231826782,36.5108032227,0.844980835915,0,0.00972313061357,1.36244320869,0.0796126872301,0.0698895528913,-1.17505264282,-0.0717101842165,3.28500366211,0.0336971282959,-2.19986343384,-0.0438636168838,-5.07061958313,-0.161278307438,16.386133194,97.4861602783,50.1523513794,31.4401836395,86
1.63084391172966E+018,45,1.63084391172966E+018,base_footprint,0,1.63084391172966E+018,map,-16.021461401,-0.603823638718,0,0,0,-0.998618832968,0.0525397605701,0,68.3162918091,5.35161447525,44.0482177734,94.0313491821,52.0801506042,52.0801506042,68.3162918091,68.3162918091,31.2851753235,1.40096259117,0,0.0140764992684,1.43094134331,0.134844839573,0.120768330991,10.9711532593,0.672138094902,3.4259262085,0.0351531095803,-1.94564437866,-0.0388084873557,0.224580764771,0.00712734041736,16.3227672577,97.4572753906,50.1345062256,31.5097560883,87
1.63084391192923E+018,46,1.63084391192923E+018,base_footprint,0,1.63084391192923E+018,map,-16.0146731721,-0.656777602234,0,0,0,-0.989879834963,0.141908112287,0,67.3888168335,0,43.9928741455,92.6281433105,51.7336158752,51.7336158752,67.3888168335,67.3888168335,39.1856117249,1.53333771229,0,0.0346169397235,1.42654538155,0.140848428011,0.106231488287,17.0620155334,1,4.86520385742,0.0499029308558,-1.36859893799,-0.0271736029536,-7.94812965393,-0.254442065954,17.0620155334,97.493347168,50.3650169373,31.2374820709,91
1.63084391202911E+018,47,1.63084391202911E+018,base_footprint,0,1.63084391202911E+018,map,-16.0112601442,-0.659927448429,0,0,0,-0.988897996495,0.148595937117,0,67.2640838623,0,44.046836853,92.5122909546,51.4633827209,51.4633827209,67.2640838623,67.2640838623,38.095199585,1.50585579872,0,0.0170967169106,1.42164599895,0.109417296946,0.0923205837607,17.4928684235,1,5.00912475586,0.0513643547893,-1.13933181763,-0.0226399060339,-6.793384552,-0.217028453946,17.4928684235,97.5214157104,50.3240509033,31.301815033,94
1.63084391212928E+018,48,1.63084391212928E+018,base_footprint,0,1.63084391212928E+018,map,-16.0111845111,-0.657064875638,0,0,0,-0.983144485511,0.182830305501,0,66.8101730347,0,43.994720459,92.0998916626,51.0307846069,51.0307846069,66.8101730347,66.8101730347,40.108921051,1.31568741798,0,0.0151668442413,1.41033089161,0.104614600539,0.0894477590919,17.0620155334,1,5.39345550537,0.0553212687373,-0.665767669678,-0.01321885176,-8.8714389801,-0.283999800682,17.0620155334,97.493347168,50.3650169373,31.2374820709,91
1.63084391222843E+018,49,1.63084391222843E+018,base_footprint,0,1.63084391222843E+018,map,-16.0050206432,-0.662392854724,0,0,0,-0.969914806703,0.243444588639,0,66.1918869019,0,44.1931381226,91.6217651367,51.1214561462,51.1214561462,66.1918869019,66.1918869019,50.4961090088,1.37265813351,0,0.0194933544844,1.38053429127,0.103672727942,0.084179379046,17.4928684235,1,5.89965057373,0.0604959502816,-0.79740524292,-0.0158454105258,-19.1942939758,-0.61320066452,17.4928684235,97.5214157104,50.3240509033,31.301815033,94
1.6308439123287E+018,50,1.6308439123287E+018,base_footprint,0,1.6308439123287E+018,map,-15.9980425775,-0.66425858577,0,0,0,-0.958760449167,0.284215413222,0,66.3122329712,0,44.4526100159,91.7867736816,51.3744239807,51.3744239807,66.3122329712,66.3122329712,51.65599823,0.28449228406,0,0.0188206620514,1.35865211487,0.0953624472022,0.0765417814255,17.4928684235,1,5.73464202881,0.0588039234281,-1.05037307739,-0.020872188732,-20.354183197,-0.650255680084,17.4928684235,97.5214157104,50.3240509033,31.301815033,94
1.63084391242857E+018,51,1.63084391242857E+018,base_footprint,0,1.63084391242857E+018,map,-15.995715195,-0.659330238565,0,0,0,-0.948883090371,0.315627756713,0,66.5608520508,0,45.1562652588,91.994178772,51.5663490295,51.5663490295,66.5608520508,66.5608520508,50.0002861023,1.20613980293,0,0.0243878290057,1.32101881504,0.086631976068,0.0622441507876,17.4928684235,1,5.52723693848,0.056677158922,-1.24229812622,-0.0246859714389,-18.6984710693,-0.597360610962,17.4928684235,97.5214157104,50.3240509033,31.301815033,94
1.6308439125294E+018,52,1.6308439125294E+018,base_footprint,0,1.6308439125294E+018,map,-15.9936795383,-0.656287269455,0,0,0,-0.937376020196,0.34831910192,0,66.6027450562,0,46.0232620239,92.0695648193,51.8044509888,51.8044509888,66.6027450562,66.6027450562,52.0890960693,0.147230789065,0,0.0276114288718,1.31715846062,0.0878924950957,0.0602810643613,17.0620155334,1,5.42378234863,0.0556323342025,-1.43943405151,-0.028580037877,-20.8516139984,-0.667519032955,17.0620155334,97.493347168,50.3650169373,31.2374820709,91
1.63084391262909E+018,53,1.63084391262909E+018,base_footprint,0,1.63084391262909E+018,map,-15.9926591731,-0.652748473483,0,0,0,-0.924976408015,0.380024531598,0,66.7781219482,0,46.9343605042,92.1806945801,52.0134773254,52.0134773254,66.7781219482,66.7781219482,51.5898666382,0.8678150177,0,0.0148178422824,1.29341375828,0.0675211846828,0.0527033433318,17.0620155334,1,5.31265258789,0.0544924624264,-1.64846038818,-0.0327302664518,-20.3523845673,-0.651537299156,17.0620155334,97.493347168,50.3650169373,31.2374820709,91
1.63084391272913E+018,54,1.63084391272913E+018,base_footprint,0,1.63084391272913E+018,map,-15.9922681003,-0.651442116348,0,0,0,-0.911247331774,0.41185956385,0,66.8468704224,0,47.7838439941,92.7003097534,51.9651756287,51.9651756287,66.8468704224,66.8468704224,51.7012939453,0.0608162619174,0,0.0180619675666,1.27149581909,0.0632134303451,0.0451514646411,17.0620155334,1,4.79303741455,0.0491627119482,-1.60015869141,-0.0317712314427,-20.4638118744,-0.655104398727,17.0620155334,97.493347168,50.3650169373,31.2374820709,91
1.63084391282899E+018,55,1.63084391282899E+018,base_footprint,0,1.63084391282899E+018,map,-15.9906532984,-0.654004029595,0,0,0,-0.881413190482,0.472346046501,0,67.0558242798,0,47.7838439941,93.3238601685,51.9703979492,51.9703979492,67.0558242798,67.0558242798,50.2414283752,0.0348061956465,0,0.00989949610084,1.24442899227,0.0367611125112,0.0268616173416,17.0620155334,1,4.16948699951,0.0427668876946,-1.60538101196,-0.0318749211729,-19.0039463043,-0.608370006084,17.0620155334,97.493347168,50.3650169373,31.2374820709,91
1.63084391292907E+018,56,1.63084391292907E+018,base_footprint,0,1.63084391292907E+018,map,-15.9918298993,-0.651598154014,0,0,0,-0.865724199433,0.500521338722,0,67.5783843994,6.95187187195,48.0207824707,94.9294586182,51.9260826111,51.9260826111,67.5783843994,67.5783843994,46.1367835999,0.244965717196,0,0.00659090932459,1.24264419079,0.0265761967748,0.0199852865189,10.1101436615,0.5925527215,2.5638885498,0.0262980870903,-1.56106567383,-0.0309950392693,-14.8993015289,-0.476968705654,17.0620155334,97.493347168,50.3650169373,31.2374820709,91
1.63084391302853E+018,57,1.63084391302853E+018,base_footprint,0,1.63084391302853E+018,map,-15.9921919976,-0.650551241213,0,0,0,-0.84658545128,0.532252828721,0,67.3724822998,0,48.4355506897,95.196105957,51.8580207825,51.8580207825,67.3724822998,67.3724822998,50.067855835,-0.022950289771,0,0.0119142057374,1.20101845264,0.0229460354894,0.0110318288207,17.0620155334,1,2.29724121094,0.0235630553216,-1.49300384521,-0.0296436678618,-18.830373764,-0.60281342268,17.0620155334,97.493347168,50.3650169373,31.2374820709,91
1.63084391312856E+018,58,1.63084391312856E+018,base_footprint,0,1.63084391312856E+018,map,-15.9799138617,-0.651782329491,0,0,0,-0.82451933976,0.56583377273,0,67.9095153809,0.210084035993,48.5296325684,97.2234039307,51.6436462402,51.6436462402,67.9095153809,67.9095153809,45.3843002319,0.206436559558,0,0.0100322021171,1.18263268471,0.0186618305743,0.00862962845713,16.8519306183,0.987686991692,0.269943237305,0.00276883761398,-1.27862930298,-0.025387249887,-14.146818161,-0.452879607677,17.0620155334,97.493347168,50.3650169373,31.2374820709,91
1.63084391322845E+018,59,1.63084391322845E+018,base_footprint,0,1.63084391322845E+018,map,-15.9758084678,-0.651534815489,0,0,0,-0.803344320058,0.595514822176,0,67.7120361328,0,48.3175582886,98.1947097778,51.2341499329,51.2341499329,67.7120361328,67.7120361328,48.0130958557,0.0567931830883,0,0.00865756906569,1.14909398556,0.0083306832239,0.000326885987306,17.0620155334,1,-0.701362609863,-0.00719395373017,-0.869132995605,-0.017256680876,-16.7756137848,-0.537034749985,17.0620155334,97.493347168,50.3650169373,31.2374820709,91
1.63084391332922E+018,60,1.63084391332922E+018,base_footprint,0,1.63084391332922E+018,map,-15.9752463139,-0.651473223223,0,0,0,-0.788037895048,0.615626734287,0,67.547416687,0,47.8892021179,98.2963638306,50.8081703186,50.8081703186,67.547416687,67.547416687,46.7416038513,0.175942897797,0,0.000382214755518,1.12875509262,0.0195727087557,0.0191904939711,17.0620155334,1,-0.803016662598,-0.00823662988842,-0.443153381348,-0.00879883300513,-15.5041217804,-0.496330708265,17.0620155334,97.493347168,50.3650169373,31.2374820709,91
1.63084391342908E+018,61,1.63084391342908E+018,base_footprint,0,1.63084391342909E+018,map,-15.9700389849,-0.648675352424,0,0,0,-0.766326248856,0.6424516171,0,67.7099533081,0,46.2907180786,98.4667358398,50.5725708008,50.5725708008,67.7099533081,67.7099533081,41.8848724365,0.294254034758,0,0.00489680515602,1.10790264606,0.0412579514086,0.0363611467183,17.0620155334,1,-0.973388671875,-0.00998415518552,-0.207553863525,-0.00412099249661,-10.6473903656,-0.34085303545,17.0620155334,97.493347168,50.3650169373,31.2374820709,91
1.63084391352901E+018,62,1.63084391352901E+018,base_footprint,0,1.63084391352901E+018,map,-15.970279969,-0.648719365859,0,0,0,-0.746418665241,0.66547665337,0,67.8469848633,14.7058820724,44.5585365295,98.6219100952,50.5994796753,50.5994796753,67.8469848633,67.8469848633,40.2675170898,0.119120322168,0,0.00570863764733,1.08030414581,0.0509454794228,0.0452368408442,2.356133461,0.138092324138,-1.12856292725,-0.0115757938474,-0.234462738037,-0.00465526990592,-9.03003501892,-0.289076924324,17.0620155334,97.493347168,50.3650169373,31.2374820709,91
1.63084391442918E+018,63,1.63084391442918E+018,base_footprint,0,1.63084391442919E+018,map,-15.967615335,-0.647438575305,0,0,0,-0.703042299841,0.711148032856,0,68.0158081055,18.117647171,42.746219635,98.986618042,50.6219329834,50.6219329834,68.0158081055,68.0158081055,38.7842102051,0.160613432527,0,0.0616976842284,0.031562384218,0.299806565046,0.238108888268,-1.05563163757,-0.0618702769279,-1.49327087402,-0.0153166437522,-0.256916046143,-0.00510108144954,-7.54672813416,-0.241592079401,17.0620155334,97.493347168,50.3650169373,31.2374820709,91
1.63084391452937E+018,64,1.63084391452937E+018,base_footprint,0,1.63084391452937E+018,map,-15.967615335,-0.647438575305,0,0,0,-0.703042299841,0.711148032856,0,68.2162704468,13.5472373962,41.3763847351,98.986618042,50.604434967,50.604434967,68.2162704468,68.2162704468,34.986831665,0.0670069605112,0,0.0562336817384,0.0675120949745,0.369599074125,0.313365399837,3.51477813721,0.206000179052,-1.49327087402,-0.0153166437522,-0.239418029785,-0.00475365715101,-3.74934959412,-0.120027266443,17.0620155334,97.493347168,50.3650169373,31.2374820709,91
1.63084391462848E+018,65,1.63084391462848E+018,base_footprint,0,1.63084391462848E+018,map,-15.9668227294,-0.671172394698,0,0,0,-0.726346720222,0.687328481894,0,68.2568511963,10.0346021652,41.3763847351,98.861579895,50.4697265625,50.4697265625,68.2568511963,68.2568511963,32.3514328003,0.248618006706,0,0.08836915344,0.108120530844,0.399509519339,0.311140358448,7.26024723053,0.419792443514,-1.34264373779,-0.0137680312619,-0.141620635986,-0.00281394715421,-1.06178474426,-0.0339340567589,17.2948493958,97.5189361572,50.3281059265,31.289648056,93
1.63084391472862E+018,66,1.63084391472862E+018,base_footprint,0,1.63084391472862E+018,map,-15.9735330344,-0.73498782167,0,0,0,-0.769959073174,0.638093273462,0,67.4388504028,2.85204982758,41.3763847351,98.53565979,49.7530593872,49.7530593872,67.4388504028,67.4388504028,38.1620788574,0.61256223917,0,0.0863947495818,0.122201889753,0.332462131977,0.246067374945,15.1250944138,0.84135133028,-0.998466491699,-0.0102367773652,0.799713134766,0.0158193726093,-7.37689781189,-0.239624962211,17.9771442413,97.5371932983,50.552772522,30.7851810455,99
1.63084391482844E+018,67,1.63084391482844E+018,base_footprint,0,1.63084391482844E+018,map,-15.9715787707,-0.764350668583,0,0,0,-0.780487205395,0.625171754173,0,67.2433013916,7.76470565796,40.4194793701,98.3403701782,49.1777534485,49.1777534485,67.2433013916,67.2433013916,34.7656097412,0.608450591564,0,0.081074334681,0.120325878263,0.288993924856,0.207919582725,10.4382247925,0.573436498642,-0.795768737793,-0.00815799832344,1.4626121521,0.0288823377341,-4.18765830994,-0.13695025444,18.2029304504,97.5446014404,50.6403656006,30.5779514313,100
1.63084391492968E+018,68,1.63084391492968E+018,base_footprint,0,1.63084391492968E+018,map,-15.9818403371,-0.825333224524,0,0,0,-0.797818821811,0.602897277787,0,67.1950073242,9.21722984314,39.7045669556,98.3443527222,48.9513168335,48.9513168335,67.1950073242,67.1950073242,33.203754425,0.556701481342,0,0.055894061923,0.111859083176,0.21884830296,0.162954226136,9.39399528503,0.504748880863,-0.769927978516,-0.00789067428559,1.61740112305,0.0319842211902,-2.74662780762,-0.0901801362634,18.6112251282,97.5744247437,50.5687179565,30.4571266174,102
1.63084391502943E+018,69,1.63084391502943E+018,base_footprint,0,1.63084391502943E+018,map,-15.999162711,-0.89128618402,0,0,0,-0.797472507943,0.603355284285,0,67.2101821899,14.4385023117,39.3037719727,98.1786727905,49.4167900085,49.4167900085,67.2101821899,67.2101821899,37.3612594604,0.424350202084,0,0.0413000099361,0.107310622931,0.189698696136,0.148398682475,4.66288852692,0.244112506509,-0.52685546875,-0.005395244807,1.25364303589,0.0247411150485,-7.53610610962,-0.252676188946,19.1013908386,97.6518173218,50.6704330444,29.8251533508,103
1.63084391512973E+018,70,1.63084391512973E+018,base_footprint,0,1.63084391512973E+018,map,-16.0175000572,-0.958942677789,0,0,0,-0.787656634067,0.616114459179,0,67.9752883911,31.0039806366,39.3668022156,98.2886886597,50.2375183105,50.2375183105,67.9752883911,67.9752883911,32.8493270874,0.252400130033,0,0.0387714095414,0.10074236989,0.182235509157,0.143464103341,-11.4424610138,-0.58494746685,-0.63606262207,-0.00651352293789,0.359489440918,0.00710495468229,-2.8782081604,-0.0960327237844,19.5615196228,97.6526260376,50.5970077515,29.971118927,101
1.63084391522909E+018,71,1.63084391522909E+018,base_footprint,0,1.63084391522909E+018,map,-16.0323311571,-1.02278668508,0,0,0,-0.774910511388,0.632070960685,0,68.3530807495,32.6448135376,39.3275604248,98.2721710205,50.6404838562,50.6404838562,68.3530807495,68.3530807495,30.3416385651,0.314785897732,0,0.0333238579333,0.0935049057007,0.170260578394,0.136936724186,-10.7472820282,-0.490798801184,-0.603378295898,-0.00617780024186,0.0883560180664,0.00174173153937,-0.907747268677,-0.0308402050287,21.8975315094,97.6687927246,50.7288398743,29.4338912964,102
1.63084391532947E+018,72,1.63084391532947E+018,base_footprint,0,1.63084391532947E+018,map,-16.0453579458,-1.08404860891,0,0,0,-0.762569613816,0.646906163276,0,68.5144042969,31.372549057,39.3432006836,98.3379516602,50.9521942139,50.9521942139,68.5144042969,68.5144042969,31.041015625,0.325742274523,0,0.0319765694439,0.0888157784939,0.165227457881,0.133250877261,-6.12865066528,-0.242777511477,-0.588836669922,-0.00602395925671,0.0590057373047,0.00115672126412,-2.11713409424,-0.0731967464089,25.2438983917,97.7491149902,51.0111999512,28.9238815308,94
1.63084391542867E+018,73,1.63084391542867E+018,base_footprint,0,1.63084391542867E+018,map,-16.0560213988,-1.15101237144,0,0,0,-0.748798465713,0.662797750257,0,68.5422668457,29.2412624359,39.424446106,97.9741973877,51.2134933472,51.2134933472,68.5422668457,68.5422668457,32.0519714355,0.347892075777,0,0.0273656696081,0.0799431800842,0.163204357028,0.13583868742,-0.952421188354,-0.0336677357554,-0.0941467285156,-0.000961858197115,0.698196411133,0.0134496949613,-5.28021621704,-0.197230860591,28.2888412476,97.8800506592,51.9116897583,26.7717552185,69
1.63084391552861E+018,74,1.63084391552861E+018,base_footprint,0,1.63084391552861E+018,map,-16.06053076,-1.21727642198,0,0,0,-0.735751884493,0.677251182697,0,68.9605178833,24.1261730194,39.5451202393,98.036491394,51.5827255249,51.5827255249,68.9605178833,68.9605178833,28.7354660034,0.419913440943,0,0.0199736561626,0.0699300244451,0.156835913658,0.136862263083,5.98197555542,0.198682948947,-0.161155700684,-0.00164654047694,1.28933334351,0.0243859104812,-3.28198814392,-0.128940656781,30.1081485748,97.8753356934,52.8720588684,25.4534778595,63
1.6308439156287E+018,75,1.6308439156287E+018,base_footprint,0,1.6308439156287E+018,map,-16.0629930198,-1.28285690484,0,0,0,-0.725167549751,0.688572454276,0,68.891746521,39.4958000183,39.8546333313,98.3677139282,52.1508827209,52.1508827209,68.891746521,68.891746521,37.3019218445,0.338160425425,0,0.0176908392459,0.0553237088025,0.171598538756,0.153907701373,-8.9122543335,-0.291406840086,-0.490104675293,-0.00500732148066,0.805023193359,0.0152017641813,-11.5109119415,-0.446314901114,30.5835456848,97.8776092529,52.9559059143,25.791009903,64
1.63084391762949E+018,76,1.63084391762949E+018,base_footprint,0,1.63084391762949E+018,map,-16.0772486836,-2.1691580338,0,0,0,-0.716199647691,0.697895453953,0,69.5172653198,42.810459137,40.2498207092,98.8492050171,52.6684303284,52.6684303284,69.5172653198,69.5172653198,33.3653564453,0.325582385063,0,0.000765351869632,0.020138496533,0.00237653777003,0.00161118595861,-4.64853668213,-0.121810860932,-0.739379882812,-0.00753624690697,0.331836700439,0.00626103812829,-8.39707946777,-0.336309939623,38.1619224548,98.1098251343,53.0002670288,24.9682769775,54
1.63084391922868E+018,77,1.63084391922868E+018,base_footprint,0,1.63084391922868E+018,map,-16.0827095947,-2.35656712457,0,0,0,-0.713439355616,0.700716979856,0,70.5193634033,57.8577690125,40.2407417297,98.8494338989,53.2672615051,53.2672615051,70.5193634033,70.5193634033,21.7958431244,0.801149308681,0,0.00108260358684,0.127240464091,0.00844396464527,0.0073613608256,-19.2174415588,-0.497341573238,-0.726684570312,-0.00740587245673,-0.528224945068,-0.0100158248097,2.72691726685,0.111199438572,38.6403274536,98.1227493286,52.7390365601,24.5227603912,46
1.63084391932915E+018,78,1.63084391932915E+018,base_footprint,0,1.63084391932916E+018,map,-16.0827095947,-2.35656712457,0,0,0,-0.713439355616,0.700716979856,0,70.7404708862,47.1044235229,40.2245674133,98.8494338989,53.6994476318,53.6994476318,70.7404708862,70.7404708862,22.4835739136,0.545068860054,0,0.000494286592584,0.179521560669,0.0122906006873,0.0117963142693,-8.46409606934,-0.219048246741,-0.726684570312,-0.00740587245673,-0.960411071777,-0.0182106290013,2.03918647766,0.0831548497081,38.6403274536,98.1227493286,52.7390365601,24.5227603912,46
1.63084391942865E+018,79,1.63084391942865E+018,base_footprint,0,1.63084391942865E+018,map,-16.0827095947,-2.35656712457,0,0,0,-0.713439355616,0.700716979856,0,70.9391403198,50.2262458801,40.2245674133,98.8494338989,54.0495033264,54.0495033264,70.9391403198,70.9391403198,22.6880836487,0.565122127533,0,0.00146657892037,0.219654247165,0.0125981215388,0.0111315418035,-11.5859184265,-0.299840062857,-0.726684570312,-0.00740587245673,-1.31046676636,-0.0248481370509,1.83467674255,0.0748152583838,38.6403274536,98.1227493286,52.7390365601,24.5227603912,46
1.63084391952874E+018,80,1.63084391952874E+018,base_footprint,0,1.63084391952874E+018,map,-16.0827095947,-2.35656712457,0,0,0,-0.713439355616,0.700716979856,0,70.8863754272,43.3878822327,40.2245674133,98.8494338989,54.341545105,54.341545105,70.8863754272,70.8863754272,26.7919502258,0.509911239147,0,0.00274118199013,0.250681698322,0.0076014418155,0.00486026005819,-4.74755477905,-0.122865281999,-0.726684570312,-0.00740587245673,-1.60250854492,-0.0303856246173,-2.26918983459,-0.0925340279937,38.6403274536,98.1227493286,52.7390365601,24.5227603912,46
1.6308439196285E+018,81,1.6308439196285E+018,base_footprint,0,1.6308439196285E+018,map,-16.0827095947,-2.35656712457,0,0,0,-0.713439355616,0.700716979856,0,71.3501358032,32.2638130188,40.2245674133,98.8494338989,54.5778465271,54.5778465271,71.3501358032,71.3501358032,20.9962387085,0.405825018883,0,0.0043528098613,0.26603770256,0.00362170580775,0.000731104169972,6.37651443481,0.165022268891,-0.726684570312,-0.00740587245673,-1.83880996704,-0.0348662026227,3.52652168274,0.143806070089,38.6403274536,98.1227493286,52.7390365601,24.5227603912,46
1.63084391972878E+018,82,1.63084391972878E+018,base_footprint,0,1.63084391972878E+018,map,-16.0827095947,-2.35656712457,0,0,0,-0.713439355616,0.700716979856,0,71.5730438232,24.4310855865,40.2245674133,98.8494338989,54.6718864441,54.6718864441,71.5730438232,71.5730438232,17.9994983673,0.31992611289,0,0.00329111004248,0.270424246788,0.000410678010667,0.00288043217734,14.2092418671,0.367730885744,-0.726684570312,-0.00740587245673,-1.93284988403,-0.0366493202746,6.52326202393,0.266008466482,38.6403274536,98.1227493286,52.7390365601,24.5227603912,46
1.63084391982919E+018,83,1.63084391982919E+018,base_footprint,0,1.63084391982919E+018,map,-16.0814485382,-2.28424940134,0,0,0,-0.719591930012,0.694397187682,0,71.4982757568,27.3356399536,40.2245674133,98.7438278198,54.7274932861,54.7274932861,71.4982757568,71.4982757568,19.5656776428,0.152223393321,0,0.00431382842362,0.266699403524,0.00155466911383,0.00586849777028,11.2548408508,0.291648119688,-0.657646179199,-0.00670477887616,-1.84451293945,-0.0348791405559,5.16860580444,0.20896525681,38.5904808044,98.0861816406,52.8829803467,24.7342834473,49
1.6308439199291E+018,84,1.6308439199291E+018,base_footprint,0,1.6308439199291E+018,map,-16.0785429176,-2.22542828544,0,0,0,-0.720166069855,0.693801723715,0,71.9160461426,17.2113285065,40.2245674133,98.5499267578,54.8569641113,54.8569641113,71.9160461426,71.9160461426,12.7461576462,0.0489277243614,0,0.00369779323228,0.253065854311,0.000614132615738,0.0043119257316,21.2309818268,0.552281618118,-0.446884155273,-0.00455525284633,-1.95698547363,-0.0369940698147,12.437579155,0.49387344718,38.4423103333,98.1030426025,52.8999786377,25.1837368011,51
1.63084392003118E+018,85,1.63084392003118E+018,base_footprint,0,1.63084392003118E+018,map,-16.0762064993,-2.15911706983,0,0,0,-0.71980405672,0.694177297187,0,71.306060791,25.9259262085,40.2245674133,98.7307815552,54.918674469,54.918674469,71.306060791,71.306060791,25.0434608459,0.133790135384,0,0.0010954196332,0.236483544111,0.00274045299739,0.00383587251417,11.5636138916,0.308449059725,-0.632965087891,-0.00645238719881,-1.83853149414,-0.0346368961036,-0.0693092346191,-0.00277523882687,37.4895401001,98.0978164673,53.0801429749,24.9741516113,57
1.63084392012917E+018,86,1.63084392012917E+018,base_footprint,0,1.63084392012917E+018,map,-16.0726287232,-2.10243515883,0,0,0,-0.719794862293,0.694186830916,0,71.0920944214,26.4705886841,40.209487915,98.6835327148,54.9231300354,54.9231300354,71.0920944214,71.0920944214,28.772857666,0.1772031039,0,0.000606918241829,0.226621493697,0.00413586618379,0.00352894794196,11.1593513489,0.296555131674,-0.596961975098,-0.00608607241884,-1.76829910278,-0.0332669503987,-3.58565711975,-0.142360284925,37.629940033,98.0865707397,53.1548309326,25.1872005463,58
1.63084392022849E+018,87,1.63084392022849E+018,base_footprint,0,1.63084392022849E+018,map,-16.0735656571,-2.10710935025,0,0,0,-0.719281302335,0.694718941811,0,71.5645675659,29.7629508972,40.1318359375,98.635307312,54.9427604675,54.9427604675,71.5645675659,71.5645675659,20.3067054749,0.195284873247,0,0.000472737214295,0.220959246159,0.000928086345084,0.00140082358848,7.86698913574,0.209061965346,-0.548736572266,-0.00559441093355,-1.78792953491,-0.0336362570524,4.88049507141,0.19376885891,37.629940033,98.0865707397,53.1548309326,25.1872005463,58
1.63084392032872E+018,88,1.63084392032872E+018,base_footprint,0,1.63084392032872E+018,map,-16.0752988906,-2.03520207643,0,0,0,-0.719454512134,0.694539563286,0,71.393661499,25.6055355072,39.8953132629,98.7404708862,54.9837760925,54.9837760925,71.393661499,71.393661499,24.2045955658,-0.00946913752705,0,0.00428911251947,0.204652681947,0.00154045491945,0.00582956755534,11.7978725433,0.315422385931,-0.673934936523,-0.00687222136185,-1.91491317749,-0.0360835529864,1.28346061707,0.0503553748131,37.4034080505,98.0665359497,53.068862915,25.4880561829,65
1.63084392042876E+018,89,1.63084392042876E+018,base_footprint,0,1.63084392042876E+018,map,-16.0698262179,-1.98569716668,0,0,0,-0.717840396509,0.696207702586,0,71.5029220581,25.373134613,39.6170768738,98.8321762085,55.0324134827,55.0324134827,71.5029220581,71.5029220581,23.0932693481,0.0024978518486,0,0.00691570900381,0.193055570126,0.00635072216392,0.0132664311677,11.7348251343,0.316234707832,-0.763328552246,-0.0077835987322,-1.86149978638,-0.0350097380579,2.06651496887,0.0821356400847,37.1079597473,98.0688476562,53.1709136963,25.159784317,69
1.6308439205296E+018,90,1.6308439205296E+018,base_footprint,0,1.6308439205296E+018,map,-16.0680129721,-1.92171166994,0,0,0,-0.719585155906,0.694404207505,0,71.1822433472,23.3115463257,40.3309555054,98.8360748291,55.0032463074,55.0032463074,71.1822433472,71.1822433472,28.5645008087,-0.00584578653798,0,0.00256655435078,0.155755847692,0.0132880145684,0.015854569152,13.8946418762,0.373449742794,-0.806999206543,-0.00823224335909,-1.76874160767,-0.0332254730165,-3.38828659058,-0.134582847357,37.2061882019,98.0290756226,53.2345046997,25.1762142181,74
1.63084392062939E+018,91,1.63084392062939E+018,base_footprint,0,1.6308439206294E+018,map,-16.0672933166,-1.86228434757,0,0,0,-0.718762712232,0.695255466361,0,71.1200561523,28.8849868774,41.3675498962,98.7581329346,55.1506843567,55.1506843567,71.1200561523,71.1200561523,30.995595932,-0.0445336923003,0,0.00238931854255,0.133147582412,0.0133247310296,0.0157140493393,8.92429733276,0.236034542322,-0.754867553711,-0.00770247355103,-2.09268188477,-0.0394413992763,-5.72825813293,-0.226706042886,37.8092842102,98.0032653809,53.0580024719,25.2673377991,72
1.63084392072934E+018,92,1.63084392072934E+018,base_footprint,0,1.63084392072934E+018,map,-16.0662092521,-1.79023039695,0,0,0,-0.718183192173,0.695854081314,0,71.0051803589,27.3356399536,42.656578064,98.7048873901,55.2804679871,55.2804679871,71.0051803589,71.0051803589,34.2733955383,-0.118376329541,0,0.00431467499584,0.110606022179,0.0117531903088,0.0160678643733,8.85914230347,0.244762971997,-0.731941223145,-0.0074708503671,-1.98852920532,-0.0373138822615,-8.83837127686,-0.347488224506,36.1947822571,97.972946167,53.2919387817,25.4350242615,71
1.63084392082939E+018,93,1.63084392082939E+018,base_footprint,0,1.6308439208294E+018,map,-16.065190477,-1.72086325454,0,0,0,-0.718076371742,0.695964312552,0,71.0602645874,27.5362319946,44.060585022,98.6189956665,55.3408279419,55.3408279419,71.0602645874,71.0602645874,33.6245079041,-0.0567609071732,0,0.00470234407112,0.100585721433,0.0113655207679,0.0160678643733,6.99995803833,0.20268471539,-0.630996704102,-0.00643953029066,-1.86075210571,-0.034793369472,-8.31501960754,-0.328533679247,34.536190033,97.9879989624,53.4800758362,25.3094882965,70
1.63084392092972E+018,94,1.63084392092972E+018,base_footprint,0,1.63084392092973E+018,map,-16.0657041121,-1.72756805807,0,0,0,-0.718323176247,0.695709576236,0,71.0220870972,27.5362319946,45.4846115112,98.5430831909,55.4321060181,55.4321060181,71.0220870972,71.0220870972,35.0242004395,-0.0714195668697,0,0.00361823802814,0.093511544168,0.0124496268108,0.0160678643733,6.99995803833,0.20268471539,-0.555084228516,-0.00566481845453,-1.95203018188,-0.0365001372993,-9.71471214294,-0.383836776018,34.536190033,97.9879989624,53.4800758362,25.3094882965,70
1.63084392112843E+018,95,1.63084392112843E+018,base_footprint,0,1.63084392112843E+018,map,-16.0589148792,-1.59566630316,0,0,0,-0.717436902193,0.696623493267,0,71.008605957,27.0072994232,47.010093689,98.4837646484,55.4137153625,55.4137153625,71.008605957,71.008605957,34.8547401428,-0.0565469488502,0,0.00321628479287,0.0767919495702,0.0128515800461,0.0160678643733,6.51209831238,0.194278493524,-0.487266540527,-0.0049722851254,-1.76552200317,-0.0329092554748,-9.46873092651,-0.372990131378,33.5193977356,97.9964981079,53.6481933594,25.3860092163,72
1.63084392122864E+018,96,1.63084392122864E+018,base_footprint,0,1.63084392122864E+018,map,-16.0557851986,-1.53767414995,0,0,0,-0.717495599715,0.696563036911,0,70.8629379272,30.0937767029,48.2068939209,98.3680877686,55.3658218384,55.3658218384,70.8629379272,70.8629379272,36.5430793762,-0.0530789233744,0,0.00548823736608,0.0727250799537,0.0105796279386,0.0160678643733,2.79796981812,0.0850660130382,-0.422096252441,-0.00430947961286,-1.79086303711,-0.0334272421896,-11.3715686798,-0.451763451099,32.891746521,97.9459915161,53.5749588013,25.1715106964,72
1.63084392132957E+018,97,1.63084392132957E+018,base_footprint,0,1.63084392132957E+018,map,-16.052378471,-1.47028716709,0,0,0,-0.71858935563,0.695434639614,0,70.8282241821,33.8772010803,48.1059265137,98.274559021,55.3343467712,55.3343467712,70.8282241821,70.8282241821,36.4913330078,-0.0518411509693,0,0.00458573410287,0.0683795437217,0.0114821307361,0.0160678643733,-1.18019485474,-0.0360948890448,-0.351539611816,-0.00358995888382,-1.77088546753,-0.0330614447594,-11.0555934906,-0.434648007154,32.6970062256,97.9230194092,53.5634613037,25.4357395172,68
1.63084392142954E+018,98,1.63084392142954E+018,base_footprint,0,1.63084392142954E+018,map,-16.0513944627,-1.40945580325,0,0,0,-0.718184659729,0.695852566662,0,70.7370452881,29.5835113525,48.0036735535,98.2551574707,55.2031021118,55.2031021118,70.7370452881,70.7370452881,36.6452636719,-0.0651182383299,0,0.00315390736796,0.0618106983602,0.0129139581695,0.0160678643733,2.60035324097,0.0807968005538,-0.365173339844,-0.00373044633307,-1.78886795044,-0.0334904715419,-11.1870918274,-0.439430296421,32.1838645935,97.8899841309,53.4142341614,25.4581718445,71
1.6308439215295E+018,99,1.6308439215295E+018,base_footprint,0,1.6308439215295E+018,map,-16.0502453862,-1.40819833785,0,0,0,-0.71900523164,0.695004659606,0,70.68724823,32.1597251892,47.9498214722,98.1726150513,55.1280479431,55.1280479431,70.68724823,70.68724823,36.4338417053,-0.0846303626895,0,0.00447221612558,0.0556488223374,0.0115956496447,0.0160678643733,-0.230222702026,-0.00721034407616,-0.291122436523,-0.0029742338229,-1.77158355713,-0.0332027897239,-11.1876239777,-0.443140596151,31.9295024872,97.8814926147,53.356464386,25.2462177277,68
1.63084392162906E+018,100,1.63084392162906E+018,base_footprint,0,1.63084392162906E+018,map,-16.0487550311,-1.33198349986,0,0,0,-0.717862359572,0.696185056367,0,70.6360626221,29.4117641449,47.9498214722,98.1059036255,54.955242157,54.955242157,70.6360626221,70.6360626221,35.2487754822,-0.0815705657005,0,0.00502880802378,0.048717238009,0.0110390568152,0.0160678643733,2.11525917053,0.0670935288072,-0.22119140625,-0.0022597135976,-1.73857879639,-0.0326698198915,-9.68896484375,-0.379070281982,31.5270233154,97.8847122192,53.2166633606,25.5598106384,65
1.63084392172897E+018,101,1.63084392172897E+018,base_footprint,0,1.63084392172897E+018,map,-16.0446976215,-1.28446104378,0,0,0,-0.716802101015,0.697276665307,0,70.7848434448,29.7503166199,47.8521080017,98.2656402588,54.8402938843,54.8402938843,70.7848434448,70.7848434448,31.9043064117,-0.0560358166695,0,0.00192531652283,0.0431083329022,0.0136379944161,0.0155633110553,0.833229064941,0.0272443573922,-0.388031005859,-0.00396445114166,-1.88438796997,-0.0355840958655,-6.11329650879,-0.237032070756,30.5835456848,97.8776092529,52.9559059143,25.791009903,64
1.63084392182857E+018,102,1.63084392182857E+018,base_footprint,0,1.63084392182857E+018,map,-16.0446976215,-1.28446104378,0,0,0,-0.716802101015,0.697276665307,0,71.112411499,30.0937767029,47.924041748,98.2656402588,54.7229309082,54.7229309082,71.112411499,71.112411499,24.7405910492,-0.0949911773205,0,0.00385243794881,0.0346861258149,0.011710873805,0.0155633110553,0.489768981934,0.0160141326487,-0.388031005859,-0.00396445114166,-1.7670249939,-0.0333678536117,1.05041885376,0.0407280996442,30.5835456848,97.8776092529,52.9559059143,25.791009903,64
1.63084392192846E+018,103,1.63084392192846E+018,base_footprint,0,1.63084392192846E+018,map,-16.0424729744,-1.22666874133,0,0,0,-0.716936082036,0.697138906011,0,70.6551513672,33.7690620422,48.1982955933,98.0968704224,54.6469345093,54.6469345093,70.6551513672,70.6551513672,31.5428295135,-0.114805601537,0,0.00357594969682,0.0230255704373,0.011987362057,0.0155633110553,-3.66091346741,-0.121592111886,-0.221534729004,-0.00226343772374,-1.77487564087,-0.0335692539811,-6.08935165405,-0.239234566689,30.1081485748,97.8753356934,52.8720588684,25.4534778595,63
1.63084392202868E+018,104,1.63084392202868E+018,base_footprint,0,1.63084392202868E+018,map,-16.0432193088,-1.15280771972,0,0,0,-0.716768362173,0.697311347239,0,70.6576461792,33.5038375854,48.6385383606,97.8491287231,54.6945610046,54.6945610046,70.6576461792,70.6576461792,31.1204395294,-0.0783034786582,0,0.00347616104409,0.0765982344747,0.0110746156424,0.0145507762209,-5.21499633789,-0.18434818089,0.0309219360352,0.000315916637192,-2.78287124634,-0.0536077953875,-4.34868431091,-0.162435531616,28.2888412476,97.8800506592,51.9116897583,26.7717552185,69
1.63084392212992E+018,105,1.63084392212992E+018,base_footprint,0,1.63084392212993E+018,map,-16.0381482587,-1.0811228535,0,0,0,-0.717956693686,0.696087771758,0,70.4904785156,34.7359390259,48.5436592102,97.7390213013,54.6287536621,54.6287536621,70.4904785156,70.4904785156,33.0223770142,-0.0605518557131,0,0.00334432953969,0.108860224485,0.0087464004755,0.0120907295495,-9.49204063416,-0.376013278961,0.0100936889648,0.00010326118354,-3.61755371094,-0.0709168538451,-4.0984954834,-0.141699358821,25.2438983917,97.7491149902,51.0111999512,28.9238815308,94
1.63084392222909E+018,106,1.63084392222909E+018,base_footprint,0,1.6308439222291E+018,map,-16.0381482587,-1.0811228535,0,0,0,-0.717956693686,0.696087771758,0,70.3795776367,35.2088661194,48.6029701233,97.7390213013,54.4347190857,54.4347190857,70.3795776367,70.3795776367,32.9230575562,-0.0609712228179,0,0.000997144379653,0.126724734902,0.00661414442584,0.00761128868908,-9.96496772766,-0.394747585058,0.0100936889648,0.00010326118354,-3.42351913452,-0.0671130865812,-3.99917602539,-0.138265535235,25.2438983917,97.7491149902,51.0111999512,28.9238815308,94
1.63084392232913E+018,107,1.63084392232913E+018,base_footprint,0,1.63084392232913E+018,map,-16.0375739785,-1.01749312377,0,0,0,-0.717035490917,0.697036659556,0,70.3244934082,32.2894630432,48.6628379822,97.6153106689,54.3257789612,54.3257789612,70.3244934082,70.3244934082,32.2926368713,-0.0716970488429,0,0.00108348706271,0.150933817029,0.0033525666222,0.00226907944307,-9.82239341736,-0.437190681696,0.10668182373,0.00109168689232,-3.57250213623,-0.0703895837069,-2.8465385437,-0.0966694653034,22.4670696259,97.7219924927,50.753276825,29.4460983276,100
