%time,field.header.seq,field.header.stamp,field.header.frame_id,field.pose.header.seq,field.pose.header.stamp,field.pose.header.frame_id,field.pose.pose.position.x,field.pose.pose.position.y,field.pose.pose.position.z,field.pose.pose.orientation.x,field.pose.pose.orientation.y,field.pose.pose.orientation.z,field.pose.pose.orientation.w,field.label,field.main_output,field.scan_score,field.pose_score,field.cov_score,field.lhood_map_score,field.lhood_robot_score,field.lhood_map_score_all,field.lhood_robot_score_all,field.point_angle_diff,field.average_orientation,field.map_average_orientation,field.sensor_div,field.odom_div_x,field.odom_div_w,field.imu_div_w,field.kdtree_div,field.kdtree_div_p,field.cov_div,field.cov_div_p,field.likelihood_div,field.likelihood_div_p,field.normal_diff_div,field.normal_diff_div_p,field.kdtree_average,field.cov_average,field.likelihood_average,field.normal_diff_average,field.map_update_count
1.63086119830481E+018,0,1.63086119830481E+018,base_footprint,0,1.63086119830481E+018,map,0.760585702525,-53.5410126176,0,0,0,0.00766655641361,0.999970611525,0,62.3730125427,16.7024478912,100,96.1785354614,41.8175201416,41.8175201416,62.3730125427,62.3730125427,35.1577186584,1.56285464764,0,0.000464733835543,0.124232001603,0.00298053212464,0.00251579843462,-0.576763153076,-0.0357667393982,0.862716674805,0.00889020506293,2.85176467896,0.0638417378068,-0.726089477539,-0.0210878625512,16.1256847382,97.0412521362,44.6692848206,34.4316291809,257
1.63086119840457E+018,1,1.63086119840457E+018,base_footprint,0,1.63086119840457E+018,map,0.760585702525,-53.5410126176,0,0,0,0.00766655641361,0.999970611525,0,62.7079238892,35.0061721802,45.5940933228,96.1785354614,42.335067749,42.335067749,62.7079238892,62.7079238892,34.7188529968,1.74019265175,0,0.000949696928728,0.10260027647,0.00684526097029,0.00589556386694,-18.880487442,-1.17083323002,0.862716674805,0.00889020506293,2.33421707153,0.0522555299103,-0.287223815918,-0.00834186002612,16.1256847382,97.0412521362,44.6692848206,34.4316291809,257
1.63086119850448E+018,2,1.63086119850448E+018,base_footprint,0,1.63086119850448E+018,map,0.813843524029,-53.5371496305,0,0,0,0.00677913866296,0.999977021375,0,62.8947410583,35.0061721802,46.0836410522,96.0958938599,42.7875747681,42.7875747681,62.8947410583,62.8947410583,35.9457054138,1.7301697731,0,0.00093544786796,0.094988450408,0.00834473967552,0.0074092913419,-18.1499443054,-1.07675004005,0.949562072754,0.00978471431881,1.89570236206,0.0424253195524,-1.51047515869,-0.0438642390072,16.8562278748,97.0454559326,44.6832771301,34.4352302551,254
1.63086119860377E+018,3,1.63086119860377E+018,base_footprint,0,1.63086119860377E+018,map,0.878067303656,-53.5366635696,0,0,0,0.00490287891376,0.999987980817,0,63.2546348572,35.4575157166,46.7299308777,95.8976516724,43.1706237793,43.1706237793,63.2546348572,63.2546348572,32.8908729553,1.89302051067,0,0.00121373846196,0.0764879435301,0.0152602465823,0.0140465078875,-18.1836490631,-1.05266809464,1.16723632812,0.0120253199711,1.70003509521,0.0378874540329,1.1455116272,0.0336555019021,17.2738666534,97.0648880005,44.8706588745,34.0363845825,233
1.63086119870395E+018,4,1.63086119870395E+018,base_footprint,0,1.63086119870395E+018,map,0.873935759507,-53.534233263,0,0,0,0.00646517497489,0.999979100538,0,63.5470504761,33.1184539795,47.2242012024,96.118812561,43.5063018799,43.5063018799,63.5470504761,63.5470504761,32.0488700867,1.75243389606,0,0.00161876191851,0.0684486106038,0.0166112631559,0.0149925006554,-15.844587326,-0.917257726192,0.946075439453,0.00974683463573,1.36435699463,0.0304064396769,1.98751449585,0.0583938211203,17.2738666534,97.0648880005,44.8706588745,34.0363845825,233
1.63086119880425E+018,5,1.63086119880425E+018,base_footprint,0,1.63086119880425E+018,map,0.930727957337,-53.5327920004,0,0,0,0.00548183007262,0.999984974657,0,63.5923576355,31.7153434753,47.6020698547,96.0038223267,43.8661613464,43.8661613464,63.5923576355,63.5923576355,34.7058639526,1.72489869595,0,0.00126600486692,0.0427867434919,0.0151002816856,0.0138342771679,-13.7614078522,-0.766484200954,1.0850982666,0.011176334694,1.10220718384,0.0245107226074,-0.592426300049,-0.017366360873,17.9539356232,97.0889205933,44.9683685303,34.1134376526,236
1.63086119890457E+018,6,1.63086119890457E+018,base_footprint,0,1.63086119890457E+018,map,0.996460948769,-53.5333685988,0,0,0,0.00298853588469,0.999995534317,0,63.9271202087,30.0699291229,47.9254226685,96.1110076904,44.2145080566,44.2145080566,63.9271202087,63.9271202087,32.8281440735,1.97529995441,0,0.00179923023097,0.0364758893847,0.0154647966847,0.0136655671522,-12.0842609406,-0.671882808208,1.00882720947,0.0103874476627,0.745716094971,0.0165861286223,1.34397888184,0.0393296852708,17.9856681824,97.1198348999,44.9602241516,34.1721229553,238
1.63086119900498E+018,7,1.63086119900498E+018,base_footprint,0,1.63086119900499E+018,map,1.05973634921,-53.53331937,0,0,0,0.000747018131195,0.999999720982,0,64.1181030273,27.2875823975,48.1721382141,95.9356002808,44.6118087769,44.6118087769,64.1181030273,64.1181030273,33.0498962402,1.79848229885,0,0.00239506433718,0.0290887244046,0.0163711514324,0.0139760877937,-8.91346359253,-0.485109716654,1.21949768066,0.0125520713627,0.44229888916,0.00981706008315,0.846729278564,0.0249797515571,18.3741188049,97.1550979614,45.054107666,33.8966255188,237
1.63086119910469E+018,8,1.63086119910469E+018,base_footprint,0,1.63086119910469E+018,map,1.14551601356,-53.5330210707,0,0,0,-0.00141912171909,0.999998993046,0,63.9300918579,22.3856201172,48.3683700562,96.2808837891,44.6596565247,44.6596565247,63.9300918579,63.9300918579,38.1938171387,1.63741981983,0,0.00103376212064,1.15104503493E-05,0.0140500376001,0.0130162751302,-4.07595443726,-0.222612172365,0.927146911621,0.00953776016831,0.396961212158,0.00881027523428,-3.94665145874,-0.115240238607,18.3096656799,97.2080307007,45.0566177368,34.2471656799,229
1.63086119920437E+018,9,1.63086119920437E+018,base_footprint,0,1.63086119920437E+018,map,1.20229716016,-53.5380822228,0,0,0,-0.00290528980622,0.999995779637,0,64.0402908325,26.4705886841,48.5186004639,96.3033828735,44.6263275146,44.6263275146,64.0402908325,64.0402908325,35.9313163757,1.89287018776,0,0.000292825308861,0.0858420729637,0.00928142014891,0.00898859463632,-7.77324676514,-0.415740728378,0.9560546875,0.009829942137,0.435321807861,0.00966058298945,-1.73323059082,-0.0506820939481,18.6973419189,97.259437561,45.0616493225,34.1980857849,226
1.63086119930443E+018,10,1.63086119930443E+018,base_footprint,0,1.63086119930443E+018,map,1.27833863953,-53.5388523235,0,0,0,-0.00377164812143,0.99999288731,0,64.5897979736,23.1692676544,52.1978263855,96.2771224976,44.6766204834,44.6766204834,64.5897979736,64.5897979736,26.4887332916,1.59221363068,0,0.00128653435968,0.140695691109,0.00725275371224,0.00853928830475,-4.12347412109,-0.216503143311,0.997314453125,0.0102525856346,0.365489959717,0.00811440590769,7.93834495544,0.230584338307,19.0457935333,97.2744369507,45.0421104431,34.4270782471,228
1.63086119940388E+018,11,1.63086119940388E+018,base_footprint,0,1.63086119940388E+018,map,1.34531962081,-53.5334298123,0,0,0,-0.00243120943451,0.999997044606,0,64.0076446533,21.837228775,54.6180915833,96.0461959839,44.7480010986,44.7480010986,64.0076446533,64.0076446533,36.907119751,1.72947561741,0,0.00133032631129,0.150089994073,0.00647372519597,0.00780405150726,-2.64634895325,-0.137896180153,1.21757507324,0.0125182792544,0.255268096924,0.00567221222445,-2.6238822937,-0.0765354260802,19.1908798218,97.2637710571,45.0032691956,34.2832374573,233
1.63086119950383E+018,12,1.63086119950383E+018,base_footprint,0,1.63086119950383E+018,map,1.40904536341,-53.5332718165,0,0,0,-0.00203128462579,0.999997936939,0,63.8341941833,21.837228775,55.1747932434,95.9253158569,44.9033355713,44.9033355713,63.8341941833,63.8341941833,41.2716636658,2.13606572151,0,0.00079389999155,0.157326385379,0.00483421608806,0.00404031621292,-2.80527687073,-0.147398278117,1.35140991211,0.0138924280182,0.151069641113,0.00335304928012,-6.79554367065,-0.197108715773,19.0319519043,97.276725769,45.0544052124,34.4761199951,238
1.63086119960441E+018,13,1.63086119960441E+018,base_footprint,0,1.63086119960441E+018,map,1.54715137366,-53.5326809786,0,0,0,-0.00253988458552,0.999996774488,0,63.9848861694,21.2981739044,55.0969238281,95.4949111938,44.9261054993,44.9261054993,63.9848861694,63.9848861694,37.2556762695,1.91643953323,0,0.00118755968288,0.150605618954,0.00599954323843,0.00481198355556,-2.51212692261,-0.133723020554,1.79764556885,0.0184767022729,0.205677032471,0.0045572547242,-2.32823944092,-0.0666593238711,18.7860469818,97.2925567627,45.1317825317,34.9274368286,220
1.63086119970465E+018,14,1.63086119970465E+018,base_footprint,0,1.63086119970465E+018,map,1.61788124639,-53.5442604704,0,0,0,-0.00316840055774,0.999994980606,0,64.0409851074,22.9494609833,57.0879898071,96.065612793,45.1616630554,45.1616630554,64.0409851074,64.0409851074,40.8444480896,1.89389908314,0,0.00232237856835,0.150024443865,0.00831688567996,0.00599450711161,-4.79301834106,-0.263984441757,1.26904296875,0.0130379358307,0.0299072265625,0.000661787751596,-5.39445877075,-0.152170956135,18.1564426422,97.3346557617,45.191570282,35.4499893188,199
1.63086119980425E+018,15,1.63086119980425E+018,base_footprint,0,1.63086119980425E+018,map,1.68371457488,-53.544115402,0,0,0,-0.00121775426332,0.999999258537,0,63.9024887085,23.2373809814,59.0851898193,95.8801040649,45.21641922,45.21641922,63.9024887085,63.9024887085,43.2609138489,2.01056790352,0,0.00097297760658,0.170554563403,0.00458976905793,0.00361679145135,-5.13944816589,-0.283979833126,1.41691589355,0.0145627884194,0.0278129577637,0.000614729360677,-7.76892471313,-0.218892350793,18.0979328156,97.2970199585,45.2442321777,35.4919891357,200
1.63086119990407E+018,16,1.63086119990407E+018,base_footprint,0,1.63086119990407E+018,map,1.85243123818,-53.5445468896,0,0,0,-0.000896621621055,0.999999598035,0,63.6855545044,18.7473545074,60.6086196899,95.0449752808,45.2242736816,45.2242736816,63.6855545044,63.6855545044,44.2440719604,2.14394617081,0,0.000311182899168,0.20229165256,0.00497206300497,0.00528324581683,-2.10806274414,-0.12669184804,2.30471038818,0.0236745532602,0.13500213623,0.00297628506087,-8.28126907349,-0.23027318716,16.6392917633,97.3496856689,45.3592758179,35.962802887,190
1.63086120000411E+018,17,1.63086120000411E+018,base_footprint,0,1.63086120000412E+018,map,1.85243123818,-53.5445468896,0,0,0,-0.000896621621055,0.999999598035,0,63.7177619934,18.419921875,60.9575233459,95.0449752808,45.2945480347,45.2945480347,63.7177619934,63.7177619934,44.4233283997,2.07876181602,0,0.000606142391916,0.219072386622,0.00454280292615,0.00393666047603,-1.78063011169,-0.107013575733,2.30471038818,0.0236745532602,0.0647277832031,0.00142700213473,-8.4605255127,-0.235257685184,16.6392917633,97.3496856689,45.3592758179,35.962802887,190
1.63086120010405E+018,18,1.63086120010405E+018,base_footprint,0,1.63086120010405E+018,map,1.93365395964,-53.5469556982,0,0,0,-0.00202445240306,0.999997950794,0,63.7299499512,23.8256454468,61.491153717,95.449256897,45.3212089539,45.3212089539,63.7299499512,63.7299499512,45.9472808838,2.10632824898,0,0.00199013575912,0.233490288258,0.000405579659855,0.00239571533166,-8.05166435242,-0.510439574718,1.8410949707,0.0189237166196,0.0407371520996,0.000898046826478,-9.96704483032,-0.277014434338,15.7739810944,97.2903518677,45.361946106,35.9802360535,189
1.630861200204E+018,19,1.630861200204E+018,base_footprint,0,1.630861200204E+018,map,2.09971840471,-53.5477853683,0,0,0,0.000591225761541,0.999999825226,0,63.9624710083,22.1453285217,61.2972259521,94.7654800415,45.4126167297,45.4126167297,63.9624710083,63.9624710083,40.2874717712,2.14004206657,0,0.000536448846105,0.246261417866,0.0016187367728,0.00215518567711,-7.18046188354,-0.479821294546,2.19815826416,0.0226699244231,-0.21614074707,-0.00478224782273,-4.19250488281,-0.116152063012,14.9648666382,96.9636383057,45.1964759827,36.0949668884,192
1.63086120030399E+018,20,1.63086120030399E+018,base_footprint,0,1.63086120030399E+018,map,2.18592384174,-53.5446931591,0,0,0,0.00247491897729,0.999996937383,0,64.0913162231,26.4705886841,76.6237869263,95.0288391113,45.5941505432,45.5941505432,64.0913162231,64.0913162231,40.876953125,1.8235527277,0,0.000154587076395,0.257670164108,0.00564165366814,0.0054870666936,-12.2088813782,-0.856060266495,1.55073547363,0.0160565581173,-0.549365997314,-0.0121959960088,-4.49249649048,-0.123472958803,14.2617073059,96.579574585,45.0447845459,36.3844566345,186
1.6308612012044E+018,21,1.6308612012044E+018,base_footprint,0,1.6308612012044E+018,map,3.26046193844,-53.5554745676,0,0,0,-0.00439489067145,0.999990342421,0,63.9854812622,14.7753591537,63.730922699,94.7727203369,45.5472259521,45.5472259521,63.9854812622,63.9854812622,41.3531455994,2.03886795044,0,0.00331896240823,0.203784421086,0.00264311535284,0.0059620779939,1.17577457428,0.0737110376358,2.12802886963,0.0219609122723,0.820495605469,0.0176954045892,-4.26991271973,-0.11514402926,15.951133728,96.9007492065,46.3677215576,37.0832328796,147
1.63086120130379E+018,22,1.63086120130379E+018,base_footprint,0,1.63086120130379E+018,map,3.38519935413,-53.5569057358,0,0,0,-0.00490033563741,0.999987993283,0,63.8921546936,24.0389060974,61.7278709412,93.7934112549,45.5736045837,45.5736045837,63.8921546936,63.8921546936,39.7924194336,2.11004066467,0,0.00113227718975,0.201726734638,0.00923556834459,0.00810329150409,-7.85090065002,-0.484982579947,3.18955230713,0.0328877605498,0.991180419922,0.0212860517204,-2.13098526001,-0.0565826892853,16.1880054474,96.982963562,46.5647850037,37.6614341736,154
1.63086120140441E+018,23,1.63086120140441E+018,base_footprint,0,1.63086120140441E+018,map,3.5886665071,-53.5587498862,0,0,0,-0.00108691530164,0.999999409307,0,63.8252906799,25.9962043762,60.8415756226,93.5708847046,45.5751152039,45.5751152039,63.8252906799,63.8252906799,40.2112159729,2.20811080933,0,1.21908478832E-05,0.214060768485,0.00733706587926,0.00732487486675,-8.75082588196,-0.507430195808,3.41440582275,0.0352053977549,1.21926498413,0.0260557997972,-1.62987518311,-0.0422451682389,17.2453784943,96.9852905273,46.794380188,38.5813407898,150
1.63086120150452E+018,24,1.63086120150452E+018,base_footprint,0,1.63086120150452E+018,map,3.76739873202,-53.5667204901,0,0,0,-0.000427290318235,0.999999908711,0,63.9081268311,29.7765617371,58.9851951599,94.1850967407,45.7850456238,45.7850456238,63.9081268311,63.9081268311,43.1985359192,2.30496573448,0,0.000904741638806,0.228742867708,0.00825178902596,0.00734704732895,-12.2288131714,-0.696887850761,2.83583831787,0.0292291380465,1.16174697876,0.0247460342944,-3.53705978394,-0.0891812443733,17.5477485657,97.0209350586,46.9467926025,39.6614761353,157
1.63086120160435E+018,25,1.63086120160435E+018,base_footprint,0,1.63086120160435E+018,map,3.83612792442,-53.5708165003,0,0,0,-0.000307093704146,0.999999952847,0,64.2948303223,33.0316734314,56.632850647,94.9686050415,45.936542511,45.936542511,64.2948303223,64.2948303223,40.6947593689,2.14645338058,0,0.00190485478379,0.241255179048,0.00819174572825,0.00628689071164,-15.4162483215,-0.875156164169,2.09593963623,0.0215932559222,1.11574172974,0.0237128064036,-1.09717941284,-0.0277082435787,17.6154251099,97.0645446777,47.0522842407,39.5975799561,160
1.63086120170419E+018,26,1.63086120170419E+018,base_footprint,0,1.63086120170419E+018,map,3.99425246011,-53.5703367194,0,0,0,-0.000824914954393,0.999999659758,0,64.3826751709,36.3113670349,53.4691848755,95.0962982178,46.1293525696,46.1293525696,64.3826751709,64.3826751709,41.6554489136,2.12140917778,0,0.000363495870261,0.265831053257,0.00965667515993,0.00929317995906,-18.8472824097,-1.07920241356,2.07926940918,0.0213970392942,1.07633972168,0.0228010583669,-1.48268508911,-0.0369077175856,17.4640846252,97.175567627,47.2056922913,40.1727638245,168
1.63086120180387E+018,27,1.63086120180387E+018,base_footprint,0,1.63086120180387E+018,map,4.1992597789,-53.5676294494,0,0,0,0.00154191874747,0.999998811243,0,64.4329147339,25.7918548584,48.5850601196,95.4763870239,46.464881897,46.464881897,64.4329147339,64.4329147339,45.7432441711,2.1135725975,0,0.000236684660194,0.27618303895,0.00831242930144,0.00854911375791,-8.24040603638,-0.469500035048,1.66576385498,0.017147693783,0.88871383667,0.0187676101923,-5.59455108643,-0.139345780015,17.551448822,97.1421508789,47.3535957336,40.1486930847,178
1.63086120190381E+018,28,1.63086120190381E+018,base_footprint,0,1.63086120190381E+018,map,4.46207798194,-53.5687801051,0,0,0,0.00300903246481,0.999995472852,0,64.6713104248,24.304605484,48.4266014099,95.3379211426,46.6276931763,46.6276931763,64.6713104248,64.6713104248,42.7120628357,2.0252931118,0,0.00219741137698,0.279913961887,0.00582997826859,0.00802738964558,-7.21792221069,-0.422429680824,1.94621276855,0.0200054496527,0.867218017578,0.0182591769844,-3.37930679321,-0.0859158411622,17.0866832733,97.2841339111,47.4949111938,39.3327560425,207
1.63086120200408E+018,29,1.63086120200408E+018,base_footprint,0,1.63086120200408E+018,map,4.69012105428,-53.5683042965,0,0,0,0.00325626977521,0.99999469834,0,64.8278121948,23.764705658,48.2612876892,95.0216445923,46.7905235291,46.7905235291,64.8278121948,64.8278121948,40.5149803162,2.02620244026,0,0.00356215215288,0.270623594522,0.0054371682927,0.00899932067841,-7.50364494324,-0.461448669434,2.34545898438,0.0240888241678,1.03663253784,0.021674560383,-0.677112579346,-0.0169967077672,16.2610607147,97.3671035767,47.8271560669,39.8378677368,237
1.63086120210472E+018,30,1.63086120210472E+018,base_footprint,0,1.63086120210472E+018,map,4.85090431739,-53.5643302685,0,0,0,0.00308546578604,0.999995239939,0,65.1864242554,23.764705658,48.1056518555,95.0159378052,47.0826721191,47.0826721191,65.1864242554,65.1864242554,37.1946258545,2.16443109512,0,0.00274660997093,0.273212105036,0.00889223255217,0.0116388425231,-6.70013999939,-0.392634660006,1.7077255249,0.0176557153463,2.55160903931,0.0514082014561,4.49319458008,0.107781946659,17.0645656586,96.7236633301,49.6342811584,41.6878204346,483
1.63086120220434E+018,31,1.63086120220434E+018,base_footprint,0,1.63086120220434E+018,map,5.01523161102,-53.5626454354,0,0,0,0.00670355835369,0.9999775309,0,65.0957641602,27.7443256378,47.9941062927,95.5892410278,47.2515716553,47.2515716553,65.0957641602,65.0957641602,42.7144355774,2.06199669838,0,0.00277851964347,0.271874368191,0.0289649497718,0.0317434705794,-7.45985984802,-0.367762207985,0.444046020508,0.00462387595326,2.74180984497,0.0548434555531,-2.39657592773,-0.0594420433044,20.2844657898,96.0332870483,49.9933815002,40.3178596497,527
1.6308612023047E+018,32,1.6308612023047E+018,base_footprint,0,1.6308612023047E+018,map,5.14664374382,-53.5594586701,0,0,0,0.0126901725505,0.999919476518,0,65.4516906738,32.235294342,47.8264808655,95.4313278198,47.6344146729,47.6344146729,65.4516906738,65.4516906738,39.8740501404,2.03967452049,0,0.00641158781946,0.276056617498,0.0658067911863,0.0593952015042,-11.2781009674,-0.538149416447,0.45043182373,0.00469778431579,2.44704437256,0.0488612838089,0.272304534912,0.00678279623389,20.9571933746,95.8817596436,50.0814590454,40.1463546753,525
1.63086120240466E+018,33,1.63086120240466E+018,base_footprint,0,1.63086120240466E+018,map,5.3738623879,-53.5574258908,0,0,0,0.0367383888832,0.999324917523,0,65.3057556152,31.1334285736,47.7029380798,95.0992660522,47.7904853821,47.7904853821,65.3057556152,65.3057556152,42.9910583496,2.34926152229,0,0.00415013590828,0.274624228477,0.0675342604518,0.0633841305971,-9.36333656311,-0.430100917816,0.534774780273,0.00559188751504,2.41519546509,0.0481060184538,-2.86164093018,-0.0713103041053,21.7700920105,95.6340408325,50.2056808472,40.1294174194,489
1.63086120250399E+018,34,1.63086120250399E+018,base_footprint,0,1.63086120250399E+018,map,5.63381293092,-53.5277971141,0,0,0,0.071606727991,0.997432943363,0,65.5411529541,35.9158287048,47.6600875854,94.4972000122,48.0610313416,48.0610313416,65.5411529541,65.5411529541,39.5083656311,2.40717291832,0,0.0117460079491,0.268835097551,0.0759071484208,0.0641611367464,-9.60747337341,-0.365187138319,0.340965270996,0.00359523273073,1.72093200684,0.0345693863928,-1.05459594727,-0.0274250339717,26.3083553314,94.8381652832,49.7819633484,38.4537696838,222
1.63086120260402E+018,35,1.63086120260402E+018,base_footprint,0,1.63086120260402E+018,map,5.78071451941,-53.5012814159,0,0,0,0.095717935359,0.995408497478,0,65.7938995361,41.1764717102,47.7570343018,95.0719146729,48.32213974,48.32213974,65.7938995361,65.7938995361,39.847820282,2.36336970329,0,0.0157142132521,0.261150330305,0.0850970298052,0.0693828165531,-13.7614498138,-0.501967489719,-0.416893005371,-0.00440434133634,0.284008026123,0.00584304751828,-2.3385887146,-0.0623470172286,27.4150218964,94.6550216675,48.6061477661,37.5092315674,97
1.63086120270401E+018,36,1.63086120270401E+018,base_footprint,0,1.63086120270401E+018,map,6.00739381151,-53.4473370299,0,0,0,0.134016993473,0.990979033815,0,66.1400756836,36.432636261,47.8428039551,95.8299026489,48.3383140564,48.3383140564,66.1400756836,66.1400756836,36.5201377869,2.38009190559,0,0.0191997140646,0.249858081341,0.107319407165,0.0881196931005,-21.684135437,-1.47026026249,0.56672668457,0.00587911298499,-2.61714553833,-0.0572414398193,7.50904464722,0.170546993613,14.7485017776,96.3966293335,45.7211685181,44.0291824341,53
1.6308612028043E+018,37,1.6308612028043E+018,base_footprint,0,1.6308612028043E+018,map,6.17522907453,-53.3950731845,0,0,0,0.174301249784,0.984692375478,0,66.080039978,35.48387146,48.1075935364,95.8016281128,48.4706115723,48.4706115723,66.080039978,66.080039978,38.9278030396,2.4322412014,0,0.026145266369,0.240971043706,0.125832721591,0.0996874570847,-21.7579536438,-1.58517289162,0.700874328613,0.00726275797933,-2.58662796021,-0.0563732199371,4.76953125,0.109149247408,13.7259187698,96.5025024414,45.8839836121,43.6973342896,53
1.63086120290383E+018,38,1.63086120290383E+018,base_footprint,0,1.63086120290383E+018,map,6.45315721163,-53.2615220282,0,0,0,0.259318218061,0.965791935036,0,66.0471801758,42.1252365112,48.2938537598,96.2974395752,48.5485496521,48.5485496521,66.0471801758,66.0471801758,42.1458435059,2.37115454674,0,0.0342913344502,0.199107438326,0.155016601086,0.120725274086,-25.0249099731,-1.46341705322,-0.0615921020508,-0.000640012032818,-2.76134872437,-0.0603083111346,-0.296474456787,-0.0070843230933,17.1003265381,96.2358474731,45.7872009277,41.8493690491,49
1.63086120300477E+018,39,1.63086120300477E+018,base_footprint,0,1.63086120300477E+018,map,6.52325005641,-53.2210532562,0,0,0,0.289956423508,0.957039848944,0,66.6647033691,43.5294113159,48.420589447,95.7944259644,48.9616928101,48.9616928101,66.6647033691,66.6647033691,33.681602478,2.5750887394,0,0.0389541611075,0.158476084471,0.149480432272,0.110526271164,-24.9431381226,-1.34201931953,0.483245849609,0.0050192931667,-3.11936569214,-0.0680455341935,6.45716094971,0.160870954394,18.5862731934,96.277671814,45.8423271179,40.1387634277,55
1.63086120310444E+018,40,1.63086120310444E+018,base_footprint,0,1.63086120310444E+018,map,6.72098420737,-53.062014398,0,0,0,0.381744565488,0.924267865243,0,66.6163406372,41.6396484375,48.366153717,95.5084838867,49.3757629395,49.3757629395,66.6163406372,66.6163406372,37.9946479797,2.72483968735,0,0.0397150889039,0.135629341006,0.135859265924,0.096144169569,-18.6610088348,-0.812102437019,-0.00523376464844,-5.48019525013E-05,-2.75661849976,-0.0591306127608,-2.42009735107,-0.068028897047,22.9786396027,95.5032501221,46.6191444397,35.5745506287,77
1.6308612032045E+018,41,1.6308612032045E+018,base_footprint,0,1.63086120320451E+018,map,6.84735063414,-52.9152288794,0,0,0,0.445857968171,0.895103721486,0,67.0086212158,46.7787132263,48.0700035095,95.040802002,49.7604064941,49.7604064941,67.0086212158,67.0086212158,33.4040870667,2.60160207748,0,0.0303798094392,0.108935713768,0.0974856764078,0.0671058669686,-23.0009899139,-0.967333555222,-0.433616638184,-0.00458333734423,-2.16080474854,-0.045395437628,-0.181301116943,-0.00545713165775,23.7777233124,94.6071853638,47.5996017456,33.2227859497,107
1.63086120330406E+018,42,1.63086120330406E+018,base_footprint,0,1.63086120330406E+018,map,6.93285664549,-52.7868846763,0,0,0,0.484984111711,0.874522962184,0,67.5966339111,45.4117660522,47.5501747131,94.5334014893,50.34116745,50.34116745,67.5966339111,67.5966339111,27.265378952,2.70299386978,0,0.0234656818211,0.113306045532,0.0953496992588,0.0718840137124,-20.48046875,-0.821476280689,-0.444198608398,-0.00472103711218,-2.33674240112,-0.0486776456237,4.57736206055,0.143748998642,24.9312973022,94.0892028809,48.0044250488,31.8427410126,141
1.63086120340433E+018,43,1.63086120340433E+018,base_footprint,0,1.63086120340433E+018,map,7.04273524127,-52.5914120653,0,0,0,0.528384332015,0.849005298971,0,67.548286438,46.2714233398,46.9898414612,94.6644973755,50.7046890259,50.7046890259,67.548286438,67.548286438,32.5336990356,2.87771391869,0,0.0227265935391,0.106220401824,0.095358915627,0.0726323202252,-19.9357967377,-0.756989657879,-0.887199401855,-0.00946070533246,-2.41092300415,-0.0499220341444,-0.840538024902,-0.0265211164951,26.3356266022,93.7772979736,48.2937660217,31.6931610107,157
1.63086120350419E+018,44,1.63086120350419E+018,base_footprint,0,1.6308612035042E+018,map,7.11968276223,-52.4215044278,0,0,0,0.5657729253,0.824561093551,0,67.3722229004,42.1101760864,46.4327201843,94.9245147705,51.0413627625,51.0413627625,67.3722229004,67.3722229004,40.2750320435,2.82294511795,0,0.0248821340501,0.0915917381644,0.0985133722425,0.0736312419176,-15.6755523682,-0.592993199825,-1.56596374512,-0.0167736504227,-2.56335830688,-0.0528767295182,-8.71069526672,-0.275966376066,26.4346237183,93.3585510254,48.4780044556,31.5643367767,167
1.63086120360443E+018,45,1.63086120360443E+018,base_footprint,0,1.63086120360444E+018,map,7.18672081267,-52.2267940965,0,0,0,0.60382761283,0.797114931477,0,67.8701782227,43.4923591614,46.0108337402,95.4719696045,51.3616333008,51.3616333008,67.8701782227,67.8701782227,36.7414970398,2.80172300339,0,0.0179970022291,0.0831241756678,0.0890854150057,0.0710884109139,-16.048456192,-0.584773123264,-2.25416564941,-0.0241817068309,-2.73505020142,-0.0562459863722,-5.02066802979,-0.158276692033,27.4439029694,93.2178039551,48.6265830994,31.72082901,168
1.63086120370437E+018,46,1.63086120370437E+018,base_footprint,0,1.63086120370437E+018,map,7.2175405277,-52.1077624701,0,0,0,0.625612507388,0.78013395683,0,68.0612487793,46.3529396057,45.5659828186,95.5992889404,51.6318702698,51.6318702698,68.0612487793,68.0612487793,36.6791687012,2.89337277412,0,0.0207961667329,0.0702182501554,0.0781353786588,0.0573392137885,-18.3825378418,-0.657213926315,-2.30407714844,-0.0246966276318,-2.89490890503,-0.0593986324966,-4.75691413879,-0.14901560545,27.9704017639,93.295211792,48.7369613647,31.9222545624,173
1.63086120380454E+018,47,1.63086120380454E+018,base_footprint,0,1.63086120380454E+018,map,7.24284542669,-51.9763159554,0,0,0,0.649335551044,0.760502032969,0,67.9345245361,39.3382339478,45.0887908936,95.1623687744,51.6921234131,51.6921234131,67.9345245361,67.9345245361,38.0380134583,2.75395917892,0,0.0195507053286,0.0694500282407,0.071467295289,0.0519165918231,-10.8264045715,-0.37971624732,-1.84713745117,-0.0197945982218,-2.91650772095,-0.0597943812609,-6.23671722412,-0.196115195751,28.5118293762,93.3152313232,48.7756156921,31.8012962341,170
1.63086120390428E+018,48,1.63086120390428E+018,base_footprint,0,1.63086120390428E+018,map,7.2687862079,-51.7796312699,0,0,0,0.673276856223,0.739390475239,0,68.6063766479,38.4191169739,44.8177375793,96.2167282104,51.76978302,51.76978302,68.6063766479,68.6063766479,30.5791072845,2.7904291153,0,0.0121317617595,0.0594596937299,0.0566216744483,0.0444899126887,-8.98860740662,-0.305418014526,-3.2078704834,-0.0344899445772,-2.74979019165,-0.0560952797532,1.6352519989,0.0507615879178,29.4305095673,93.0088577271,49.0199928284,32.2143592834,165
1.63086120410446E+018,49,1.63086120410446E+018,base_footprint,0,1.63086120410446E+018,map,7.28537731622,-51.3931392617,0,0,0,0.701431631288,0.712736744268,0,67.7334289551,43.4216423035,44.8714828491,94.3221206665,51.8317375183,51.8317375183,67.7334289551,67.7334289551,40.1407318115,2.77019691467,0,0.00446581887081,0.018895894289,0.0286041740328,0.024138353765,-13.8680057526,-0.469248712063,-1.58695220947,-0.0171127337962,-2.68952178955,-0.0547293536365,-7.58338165283,-0.232923790812,29.5536365509,92.735168457,49.1422157288,32.5573501587,152
1.63086120420387E+018,50,1.63086120420387E+018,base_footprint,0,1.63086120420387E+018,map,7.29029529285,-51.300360906,0,0,0,0.704100537313,0.710100298096,0,67.946975708,41.1764717102,44.9666900635,94.1968231201,51.9068984985,51.9068984985,67.946975708,67.946975708,36.6574859619,2.7194480896,0,0.00406251754612,0.0210613757372,0.0262641645968,0.0222016461194,-11.4347610474,-0.384468853474,-1.44751739502,-0.0156067730859,-2.76560211182,-0.0562785752118,-4.29746627808,-0.13280172646,29.7417106628,92.7493057251,49.1412963867,32.3600196838,159
1.63086120430399E+018,51,1.63086120430399E+018,base_footprint,0,1.63086120430399E+018,map,7.28850706266,-50.9948650705,0,0,0,0.71076371956,0.703430831679,0,67.8471374512,45.6327972412,45.2019386292,93.1903762817,52.1828727722,52.1828727722,67.8471374512,67.8471374512,37.8118553162,2.77064681053,0,0.00552013702691,0.010489567183,0.0257747173309,0.020254580304,-16.1489562988,-0.547722280025,-0.863433837891,-0.00935191661119,-3.0429649353,-0.0619245134294,-5.37274169922,-0.165625423193,29.4838409424,92.3269424438,49.1399078369,32.4391136169,147
1.63086120440455E+018,52,1.63086120440455E+018,base_footprint,0,1.63086120440455E+018,map,7.288477374,-50.9785672402,0,0,0,0.711539496989,0.702646101693,0,67.798248291,45.1570091248,45.6284599304,92.5996627808,52.4269943237,52.4269943237,67.798248291,67.798248291,39.2018318176,2.72074770927,0,0.00495709152892,0.00536282081157,0.023980345577,0.0190232545137,-15.6731681824,-0.531585037708,-0.272720336914,-0.00295385438949,-3.28708648682,-0.0668924003839,-6.76271820068,-0.208474203944,29.4838409424,92.3269424438,49.1399078369,32.4391136169,147
1.63086120450422E+018,53,1.63086120450422E+018,base_footprint,0,1.63086120450422E+018,map,7.28333196277,-50.6962268286,0,0,0,0.71344296378,0.700713306162,0,67.601776123,46.5240631104,46.0759048462,90.9975128174,52.5721740723,52.5721740723,67.601776123,67.601776123,38.5385360718,2.75357651711,0,0.00264329090714,0.0175542086363,7.03349141986E-05,0.00271362578496,-17.1770915985,-0.585310518742,1.055809021,0.0114695373923,-3.17008972168,-0.0641691461205,-6.65011024475,-0.208543077111,29.3469715118,92.0533218384,49.4020843506,31.888425827,141
1.63086120460446E+018,54,1.63086120460446E+018,base_footprint,0,1.63086120460446E+018,map,7.28119620945,-50.4667636481,0,0,0,0.712619946813,0.701550291429,0,67.9503173828,48.5838775635,46.4657859802,91.8496627808,52.6305122375,52.6305122375,67.9503173828,67.9503173828,35.9625434875,2.7653002739,0,0.00408399710432,0.0264737997204,0.0226249359548,0.0185409393162,-18.6950073242,-0.625483930111,0.116203308105,0.0012635482708,-3.11971664429,-0.0630108341575,-3.97100639343,-0.124126777053,29.8888702393,91.9658660889,49.5107955933,31.9915370941,146
1.63086120470474E+018,55,1.63086120470474E+018,base_footprint,0,1.63086120470474E+018,map,7.28143874665,-50.3049175972,0,0,0,0.712079260549,0.702099086095,0,67.9672241211,43.3878822327,46.8650054932,91.6815490723,52.798286438,52.798286438,67.9672241211,67.9672241211,36.864982605,2.85462236404,0,0.00854154862463,0.0165865924209,0.0467862784863,0.038244727999,-13.0266628265,-0.429055988789,0.0580291748047,0.000632542418316,-3.31338500977,-0.0669574961066,-4.76567840576,-0.148466721177,30.3612194061,91.7395782471,49.4849014282,32.0993041992,148
1.63086120480428E+018,56,1.63086120480428E+018,base_footprint,0,1.63086120480429E+018,map,7.28286963534,-50.1185144441,0,0,0,0.710459663658,0.703737924454,0,67.481880188,50.3267974854,47.2432823181,89.440826416,53.0680885315,53.0680885315,67.481880188,67.481880188,40.4484786987,2.80857300758,0,0.00842949189246,0.0298933777958,0.0503906570375,0.0419611632824,-18.9377574921,-0.603323876858,2.34401702881,0.0255381707102,-3.42687988281,-0.0690329670906,-8.15242385864,-0.252427846193,31.3890399933,91.7848434448,49.6412086487,32.2960548401,153
1.63086120490403E+018,57,1.63086120490403E+018,base_footprint,0,1.63086120490403E+018,map,7.28007966456,-49.9049303813,0,0,0,0.708864596391,0.70534458528,0,68.0277023315,46.8409576416,47.5490112305,90.9321060181,53.2101669312,53.2101669312,68.0277023315,68.0277023315,37.5267677307,2.82251954079,0,0.0210385527462,0.0335796289146,0.0590215921402,0.0379830375314,-14.8119850159,-0.462455838919,0.749816894531,0.0081784594804,-3.35363006592,-0.0672656074166,-5.01913070679,-0.154398515821,32.0289726257,91.6819229126,49.8565368652,32.5076370239,159
1.63086120500384E+018,58,1.63086120500384E+018,base_footprint,0,1.63086120500384E+018,map,7.27560105982,-49.6355533377,0,0,0,0.70900621,0.70520223637,0,68.4345779419,54.345916748,47.721496582,90.7512054443,53.5563163757,53.5563163757,68.4345779419,68.4345779419,33.2901344299,2.72472691536,0,0.0277788490057,0.0300602167845,0.0743856057525,0.0466067530215,-21.1283798218,-0.636061012745,1.05841064453,0.0115283196792,-3.70127868652,-0.0742408186197,-0.317070007324,-0.00961603131145,33.2175369263,91.8096160889,49.8550376892,32.9730644226,172
1.6308612051037E+018,59,1.6308612051037E+018,base_footprint,0,1.6308612051037E+018,map,7.28112977217,-49.4880609376,0,0,0,0.706824655177,0.707388794676,0,68.6933898926,57.2192497253,47.8097724915,91.5297546387,53.8317451477,53.8317451477,68.6933898926,68.6933898926,34.4089431763,2.84534668922,0,0.0289541594684,0.0598854422569,0.0878008976579,0.0588467419147,-22.6650009155,-0.655925154686,0.0802230834961,0.00087570247706,-3.86415863037,-0.0773333087564,-1.20541000366,-0.036303665489,34.5542488098,91.6099777222,49.9675865173,33.2035331726,170
1.63086120520432E+018,60,1.63086120520432E+018,base_footprint,0,1.63086120520432E+018,map,7.28159907696,-49.259815884,0,0,0,0.706712823924,0.707500519082,0,69.3157577515,56.9798049927,47.6593437195,91.4470825195,54.1388664246,54.1388664246,69.3157577515,69.3157577515,26.225561142,2.88377547264,0,0.0352049171925,0.113909810781,0.107677333057,0.0724724158645,-21.4775352478,-0.604962289333,0.118186950684,0.00129073997959,-3.90452194214,-0.0777261480689,7.25776863098,0.216757670045,35.5022697449,91.5652694702,50.2343444824,33.4833297729,185
1.63086120530408E+018,61,1.63086120530408E+018,base_footprint,0,1.63086120530408E+018,map,7.2806011706,-49.1030210776,0,0,0,0.707158182408,0.707055376228,0,69.7686157227,50.6920433044,47.5811882019,92.5459594727,54.4749832153,54.4749832153,69.7686157227,69.7686157227,25.6602058411,2.81367969513,0,0.0378462038934,0.216872856021,0.121572606266,0.0837264060974,-13.4304695129,-0.360437512398,-0.867935180664,-0.00946721062064,-4.11127471924,-0.0816316902637,7.71235275269,0.231098636985,37.2615737915,91.678024292,50.3637084961,33.3725585938,190
1.63086120540419E+018,62,1.63086120540419E+018,base_footprint,0,1.63086120540419E+018,map,7.28414961407,-48.9513228179,0,0,0,0.706473416702,0.707739578866,0,69.7776412964,55.2238807678,47.5287208557,92.3731536865,54.5349464417,54.5349464417,69.7776412964,69.7776412964,25.5232830048,2.74883961678,0,0.0416490919888,0.324245721102,0.117806538939,0.0761574432254,-15.7582550049,-0.399290651083,-0.839996337891,-0.00917696207762,-3.94872665405,-0.0780593380332,7.60283851624,0.229511886835,39.4656257629,91.5331573486,50.5862197876,33.126121521,189
1.63086120550426E+018,63,1.63086120550426E+018,base_footprint,0,1.63086120550426E+018,map,7.28737846035,-48.8523885193,0,0,0,0.706419250915,0.707793643611,0,70.2106018066,57.5409126282,47.6503639221,94.1695861816,54.7228050232,54.7228050232,70.2106018066,70.2106018066,26.2260437012,2.81732344627,0,0.0432523936033,0.443064004183,0.102290034294,0.0590376369655,-17.7317962646,-0.445420503616,-2.56615447998,-0.0280137378722,-4.1247253418,-0.0815194025636,6.88091659546,0.207838967443,39.8091163635,91.6034317017,50.5980796814,33.1069602966,200
1.63086120560441E+018,64,1.63086120560441E+018,base_footprint,0,1.63086120560441E+018,map,7.2845527054,-48.6749105552,0,0,0,0.707091951196,0.707121610866,0,70.1221084595,56.4270133972,47.8104934692,94.2177505493,54.8483009338,54.8483009338,70.1221084595,70.1221084595,29.3476448059,2.86592411995,0,0.0380677133799,0.545852005482,0.0792078897357,0.0411401763558,-15.5877761841,-0.381686270237,-2.83249664307,-0.0309951175004,-4.14448928833,-0.0817392021418,3.06243515015,0.0944902077317,40.8392372131,91.3852539062,50.7038116455,32.4100799561,207
1.63086120570408E+018,65,1.63086120570408E+018,base_footprint,0,1.63086120570408E+018,map,7.28286728708,-48.5366711536,0,0,0,0.707030946658,0.707182607583,0,70.4037780762,53.1180877686,47.8712425232,94.5192642212,55.0567054749,55.0567054749,70.4037780762,70.4037780762,27.6137504578,2.88990569115,0,0.0326048396528,0.631938397884,0.0697870627046,0.0371822230518,-11.1328048706,-0.265159696341,-2.9613494873,-0.0323440022767,-4.24605178833,-0.0835661739111,4.26660728455,0.133831843734,41.9852828979,91.5579147339,50.8106536865,31.8803577423,221
1.630861205804E+018,66,1.630861205804E+018,base_footprint,0,1.630861205804E+018,map,7.2841390136,-48.4422073852,0,0,0,0.704861917089,0.709344540994,0,70.1294326782,56.4270133972,48.0624656677,92.9832763672,55.2154808044,55.2154808044,70.1294326782,70.1294326782,28.7371788025,2.79386544228,0,0.0267083533108,0.736843466759,0.0691738203168,0.0424654632807,-14.2485046387,-0.337814331055,-1.32794189453,-0.0144884297624,-4.37413024902,-0.0860348939896,3.05283355713,0.0960312187672,42.1785087585,91.6553344727,50.8413505554,31.7900123596,218
1.63086120590494E+018,67,1.63086120590494E+018,base_footprint,0,1.63086120590494E+018,map,7.28919883839,-48.3328475845,0,0,0,0.704003138558,0.710196860667,0,70.5228424072,58.4775085449,48.4251365662,93.7666473389,55.3130493164,55.3130493164,70.5228424072,70.5228424072,25.5296516418,2.77497959137,0,0.026013886556,0.822881042957,0.0703293010592,0.0443154200912,-15.1748504639,-0.350436925888,-1.89745330811,-0.0206538587809,-4.30707168579,-0.0844424888492,5.80582427979,0.185279592872,43.3026580811,91.8691940308,51.0059776306,31.3354759216,225
1.63086120600473E+018,68,1.63086120600473E+018,base_footprint,0,1.63086120600473E+018,map,7.29100840531,-48.1724874239,0,0,0,0.703950771529,0.710248767168,0,70.3247909546,54.345916748,57.2026863098,93.1488189697,55.3190574646,55.3190574646,70.3247909546,70.3247909546,26.9354000092,2.57585120201,0,0.0236962344497,0.930378556252,0.0704051032662,0.0467088706791,-10.7189292908,-0.245694920421,-1.30010223389,-0.0141548216343,-4.31425094604,-0.0845851823688,4.33535385132,0.138639256358,43.6269874573,91.8487167358,51.0048065186,31.2707538605,224
1.63086120610408E+018,69,1.63086120610408E+018,base_footprint,0,1.63086120610408E+018,map,7.29163862537,-48.0082061,0,0,0,0.703408600639,0.710785720556,0,70.5553512573,50.6920433044,59.3175430298,94.1286315918,55.4334754944,55.4334754944,70.5553512573,70.5553512573,27.5482635498,2.63517904282,0,0.0198937375098,1.11180579662,0.059934951365,0.0400412119925,-6.36624145508,-0.143623828888,-2.06925964355,-0.022477446124,-4.30659484863,-0.0842334777117,3.02360343933,0.0989014953375,44.3258018494,92.0593719482,51.1268806458,30.5718669891,237
1.63086120620438E+018,70,1.63086120620438E+018,base_footprint,0,1.63086120620439E+018,map,7.29297888962,-47.9232765145,0,0,0,0.702948928788,0.711240327537,0,70.3308181763,50.6920433044,61.1351242065,93.9127883911,55.3746871948,55.3746871948,70.3308181763,70.3308181763,30.17786026,2.72969222069,0,0.0225463546813,1.19453632832,0.0513910315931,0.0288446769118,-6.38445663452,-0.144093975425,-1.83414459229,-0.0199193265289,-4.21377944946,-0.0823632627726,0.266176223755,0.00874313153327,44.3075866699,92.0786437988,51.1609077454,30.4440364838,232
1.63086120630466E+018,71,1.63086120630466E+018,base_footprint,0,1.63086120630466E+018,map,7.29531631222,-47.7790189938,0,0,0,0.70410217552,0.710098673726,0,70.5918960571,57.2192497253,62.1917648315,94.8140411377,55.4364585876,55.4364585876,70.5918960571,70.5918960571,29.3901138306,2.64597463608,0,0.0213695745915,1.28680086136,0.041898291558,0.0205287169665,-12.1723327637,-0.270214557648,-2.49397277832,-0.0270144157112,-4.16630172729,-0.0812617316842,1.09422302246,0.0358945988119,45.0469169617,92.3200683594,51.2701568604,30.484336853,239
1.63086120640453E+018,72,1.63086120640453E+018,base_footprint,0,1.63086120640453E+018,map,7.29789739588,-47.6329599646,0,0,0,0.704952051867,0.70925496443,0,70.3594284058,52.5899925232,61.3546295166,93.8456344604,55.6017684937,55.6017684937,70.3594284058,70.3594284058,31.8736133575,2.75235009193,0,0.0198805611581,1.36783647537,0.0347467437387,0.0148661825806,-6.83425140381,-0.149363800883,-1.17401885986,-0.012668591924,-4.19578933716,-0.0816206485033,-1.58498954773,-0.0523295328021,45.7557411194,92.6716156006,51.4059791565,30.2886238098,243
1.63086120650449E+018,73,1.63086120650449E+018,base_footprint,0,1.63086120650449E+018,map,7.2965149492,-47.4816573061,0,0,0,0.705480036142,0.708729792379,0,70.8134307861,53.8126373291,60.3742027283,96.0644760132,55.613445282,55.613445282,70.8134307861,70.8134307861,31.8155994415,2.65059137344,0,0.00741827022284,1.57351779938,0.0100590279326,0.0026407581754,-7.78047180176,-0.169022500515,-3.31586456299,-0.0357510969043,-4.17728424072,-0.0812129899859,-1.44762420654,-0.0476694330573,46.0321655273,92.7486114502,51.4361610413,30.367975235,241
1.63086120660417E+018,74,1.63086120660417E+018,base_footprint,0,1.63086120660417E+018,map,7.29433797517,-47.3830328746,0,0,0,0.707059566683,0.707153992538,0,71.0409469604,58.7357330322,62.7030258179,96.5216369629,55.8438911438,55.8438911438,71.0409469604,71.0409469604,31.8549404144,2.56401896477,0,0.00937877967954,1.63090920448,0.00497804582119,0.00440073385835,-12.2056465149,-0.262317299843,-3.6725769043,-0.039554271847,-4.3456993103,-0.0843854770064,-1.44391059875,-0.0474798306823,46.5300865173,92.8490600586,51.4981918335,30.4110298157,253
1.63086120670383E+018,75,1.63086120670383E+018,base_footprint,0,1.63086120670383E+018,map,7.29433173499,-47.2148439451,0,0,0,0.706892407784,0.707321089617,0,70.8922195435,54.0026550293,63.6721343994,96.5326919556,55.9136352539,55.9136352539,70.8922195435,70.8922195435,35.3250007629,2.70265722275,0,0.00668324390426,1.68252456188,0.000530861492734,0.00721410568804,-7.10067749023,-0.151393994689,-3.47808837891,-0.0373768545687,-4.38585662842,-0.0851163566113,-4.74986457825,-0.15535056591,46.9019775391,93.0546035767,51.5277786255,30.5751361847,243
1.63086120680427E+018,76,1.63086120680427E+018,base_footprint,0,1.63086120680428E+018,map,7.29630072395,-47.0659370915,0,0,0,0.705981834499,0.70822994102,0,70.8734283447,60.1809959412,64.3624649048,95.5527954102,56.1615028381,56.1615028381,70.8734283447,70.8734283447,34.8125610352,2.59834504128,0,0.00556881725788,1.70752739906,0.00268927379511,0.00825809128582,-13.4885940552,-0.288881987333,-2.17736053467,-0.0233183447272,-4.68681335449,-0.0910508334637,-4.39512825012,-0.144493728876,46.692401886,93.3754348755,51.4746894836,30.417432785,258
1.63086120690449E+018,77,1.63086120690449E+018,base_footprint,0,1.63086120690449E+018,map,7.30052238545,-46.9035366621,0,0,0,0.704879588556,0.709326980762,0,70.8729248047,53.6541900635,67.1999893188,95.3013839722,56.2703552246,56.2703552246,70.8729248047,70.8729248047,35.0920982361,2.66318702698,0,0.00264743180014,1.67196106911,0.00976814422756,0.0124155757949,-8.59442901611,-0.190734013915,-1.36061859131,-0.0144837927073,-4.89573287964,-0.0952947735786,-4.3620223999,-0.141946360469,45.0597610474,93.9407653809,51.374622345,30.7300758362,323
1.63086120700419E+018,78,1.63086120700419E+018,base_footprint,0,1.6308612070042E+018,map,7.30189478525,-46.8020880433,0,0,0,0.703386155142,0.710807932395,0,70.8573226929,50.9803924561,68.9627685547,94.7294692993,56.3433189392,56.3433189392,70.8573226929,70.8573226929,34.1021881104,2.6604757309,0,0.00202222028747,1.63705182076,0.0180760677904,0.0200982876122,-6.38419342041,-0.143155544996,-0.577415466309,-0.00613279733807,-4.8695602417,-0.0946027711034,-3.64419364929,-0.119646541774,44.5961990356,94.152053833,51.4737586975,30.4579944611,352
1.63086120710472E+018,79,1.63086120710472E+018,base_footprint,0,1.63086120710472E+018,map,7.30053811799,-46.7112438418,0,0,0,0.704326004639,0.709876664773,0,71.0707321167,53.6541900635,69.0841140747,95.3581085205,56.4370155334,56.4370155334,71.0707321167,71.0707321167,33.5357131958,2.55245041847,0,0.00107137544546,1.57249414921,0.0202060677111,0.0212774444371,-9.0788192749,-0.203673437238,-1.20973205566,-0.0128492079675,-4.93723297119,-0.0958690047264,-3.09043693542,-0.101507931948,44.5753707886,94.1483764648,51.4997825623,30.4452762604,359
1.63086120720462E+018,80,1.63086120720462E+018,base_footprint,0,1.63086120720462E+018,map,7.29989894987,-46.6246982892,0,0,0,0.705465769353,0.708743993464,0,70.9398574829,54.345916748,69.3578033447,95.4612960815,56.4746589661,56.4746589661,70.9398574829,70.9398574829,36.6695594788,2.50676608086,0,0.00291126896627,1.53609216213,0.0188807267696,0.0217919945717,-10.3039131165,-0.233956500888,-1.20227050781,-0.0127549646422,-4.92032241821,-0.0954395458102,-6.40978240967,-0.211825162172,44.0420036316,94.2590255737,51.5543365479,30.2597770691,400
1.63086120730442E+018,81,1.63086120730442E+018,base_footprint,0,1.63086120730442E+018,map,7.2995952298,-46.5578962897,0,0,0,0.706369550793,0.707843243743,0,71.0529708862,47.9119911194,69.6917495728,95.452331543,56.4836807251,56.4836807251,71.0529708862,71.0529708862,34.6987037659,2.56207585335,0,0.00113705080003,1.49382638931,0.0192290768027,0.0203661266714,-4.38709259033,-0.100795008242,-0.998428344727,-0.0105705354363,-4.86175537109,-0.0941800475121,-4.43284416199,-0.146463513374,43.5248985291,94.4539031982,51.621925354,30.2658596039,424
1.63086120740389E+018,82,1.63086120740389E+018,base_footprint,0,1.63086120740389E+018,map,7.30014329061,-46.477999152,0,0,0,0.70818069242,0.706031236479,0,70.6199645996,42.9590034485,68.9106216431,94.8104705811,56.3784942627,56.3784942627,70.6199645996,70.6199645996,39.0461082458,2.64499258995,0,0.00256821396761,1.48997318745,0.017703237012,0.0151350228116,0.338390350342,0.00781549047679,-0.317337036133,-0.00335830799304,-4.7440071106,-0.0918767154217,-8.82080841064,-0.291835278273,43.2973937988,94.4931335449,51.6344871521,30.2252998352,419
1.63086120750398E+018,83,1.63086120750398E+018,base_footprint,0,1.63086120750398E+018,map,7.29793954197,-46.4306051287,0,0,0,0.709153662115,0.705053957871,0,70.9445571899,46.115852356,71.506980896,95.8678131104,56.4421730042,56.4421730042,70.9445571899,70.9445571899,37.697593689,2.65255236626,0,0.00604626117274,1.48125481606,0.016062522307,0.0100162606686,-2.95734024048,-0.0685227587819,-1.34260559082,-0.0142036778852,-4.78150558472,-0.092556014657,-7.53077125549,-0.249637544155,43.1585121155,94.5252075195,51.6606674194,30.1668224335,419
1.63086120760486E+018,84,1.63086120760486E+018,base_footprint,0,1.63086120760486E+018,map,7.30005161031,-46.3583453327,0,0,0,0.70913429825,0.705073433797,0,71.0699462891,51.1312217712,73.9904556274,95.7027664185,56.5202636719,56.5202636719,71.0699462891,71.0699462891,35.6897773743,2.51918578148,0,0.000849020085298,1.45256567001,0.0115279676393,0.0106789469719,-8.6876449585,-0.204686924815,-0.976051330566,-0.0103038651869,-4.8084602356,-0.0929857417941,-5.54985237122,-0.184136241674,42.4435768127,94.7267150879,51.7118034363,30.1399250031,446
1.63086120770389E+018,85,1.63086120770389E+018,base_footprint,0,1.63086120770389E+018,map,7.30106047413,-46.295836418,0,0,0,0.708797250981,0.705412260314,0,70.7160415649,48.0164146423,73.7723693848,94.9017486572,56.4938163757,56.4938163757,70.7160415649,70.7160415649,38.8907966614,2.72830653191,0,0.0030287464615,1.38056027889,0.0096535589546,0.0126823056489,-5.76205825806,-0.136366009712,-0.144630432129,-0.00152632792015,-4.70371246338,-0.0908226147294,-8.50610733032,-0.279947161674,42.2543563843,94.7571182251,51.7901039124,30.3846893311,478
1.63086120780438E+018,86,1.63086120780438E+018,base_footprint,0,1.63086120780438E+018,map,7.29721267462,-46.2357938058,0,0,0,0.709341333448,0.704865145019,0,70.987121582,43.8502655029,74.6134414673,95.0901031494,56.4603462219,56.4603462219,70.987121582,70.987121582,34.3279304504,2.68189239502,0,0.00321174412966,1.32766866684,0.0143863102421,0.0175980553031,-1.86041641235,-0.0443063378334,-0.299560546875,-0.00316023663618,-4.62658309937,-0.0892580971122,-4.00490760803,-0.132074818015,41.9898490906,94.7905426025,51.8337631226,30.3230228424,514
1.63086120790421E+018,87,1.63086120790421E+018,base_footprint,0,1.63086120790421E+018,map,7.29721267462,-46.2357938058,0,0,0,0.709341333448,0.704865145019,0,70.8765716553,45.7013587952,75.8459091187,95.0901031494,56.5043106079,56.5043106079,70.8765716553,70.8765716553,36.792591095,2.68351650238,0,0.00275619141757,1.19343662262,0.0154272913933,0.0181834828109,-3.71150970459,-0.0883906409144,-0.299560546875,-0.00316023663618,-4.67054748535,-0.0901062786579,-6.46956825256,-0.213354989886,41.9898490906,94.7905426025,51.8337631226,30.3230228424,514
1.63086120800438E+018,88,1.63086120800438E+018,base_footprint,0,1.63086120800438E+018,map,7.29455543996,-46.1324282734,0,0,0,0.712497431174,0.701674718492,0,70.6939315796,48.3065948486,77.2152404785,94.6337432861,56.5069084167,56.5069084167,70.6939315796,70.6939315796,38.4652862549,2.62498569489,0,0.00481383223087,1.09280657768,0.0111694028601,0.015983235091,-6.23526763916,-0.148207053542,0.279525756836,0.00294506503269,-4.53067016602,-0.0871681049466,-8.18325805664,-0.270234793425,42.0713272095,94.913269043,51.9762382507,30.2820281982,549
1.6308612081042E+018,89,1.6308612081042E+018,base_footprint,0,1.6308612081042E+018,map,7.29461512634,-46.1274334633,0,0,0,0.713348503747,0.700809469258,0,70.7502212524,47.1044235229,75.8730926514,94.4796142578,56.5166854858,56.5166854858,70.7502212524,70.7502212524,37.0028877258,2.55910563469,0,0.00349136767909,1.01796078682,0.0129936048761,0.0164849720895,-5.03309631348,-0.119632460177,0.433654785156,0.004568958655,-4.54044723511,-0.0873562097549,-6.72085952759,-0.221942186356,42.0713272095,94.913269043,51.9762382507,30.2820281982,549
1.63086120820371E+018,90,1.63086120820371E+018,base_footprint,0,1.63086120820371E+018,map,7.29711813495,-46.0635179573,0,0,0,0.712303019862,0.70187207374,0,70.6372909546,48.8100585938,74.8876495361,94.4512634277,56.5314292908,56.5314292908,70.6372909546,70.6372909546,39.0927734375,2.36173582077,0,0.0029955918435,0.921130716801,0.0143308471888,0.0173264387995,-6.66254043579,-0.158076703548,0.430122375488,0.00453326385468,-4.4443397522,-0.0853251665831,-8.80506896973,-0.290714293718,42.147518158,94.8813858032,52.0870895386,30.2877044678,581
1.63086121570389E+018,91,1.63086121570389E+018,base_footprint,0,1.63086121570389E+018,map,7.2947941517,-45.8588746104,0,0,0,0.714227518248,0.699913603366,0,70.7660140991,42.5033187866,74.4940032959,94.491645813,56.4512176514,56.4512176514,70.7660140991,70.7660140991,36.0548858643,2.6559252739,0,0.000124835307361,0.0655117854476,0.00853582285345,0.00866065826267,-0.509902954102,-0.0121424496174,0.565399169922,0.00594799872488,-4.06513595581,-0.0775995403528,-6.15347862244,-0.205792278051,41.9934158325,95.0570449829,52.3860816956,29.9014072418,600
1.63086121580494E+018,92,1.63086121580494E+018,base_footprint,0,1.63086121580494E+018,map,7.29545609743,-45.7993770713,0,0,0,0.710240626885,0.703958984545,0,70.5591049194,38.618927002,74.8421859741,95.3254089355,55.9387054443,55.9387054443,70.5591049194,70.5591049194,37.2456550598,2.45838880539,0,0.000343844527379,0.0715151131153,0.00842443760484,0.00876828283072,3.25556182861,0.077745705843,-0.222648620605,-0.00234113726765,-3.53379440308,-0.0674325078726,-7.37258338928,-0.246796965599,41.8744888306,95.1027603149,52.4049110413,29.8730716705,598
1.63086121590438E+018,93,1.63086121590438E+018,base_footprint,0,1.63086121590438E+018,map,7.29545609743,-45.7993770713,0,0,0,0.710240626885,0.703958984545,0,70.2600708008,36.5213699341,74.770866394,95.3254089355,55.3786468506,55.3786468506,70.2600708008,70.2600708008,36.5795707703,2.49765944481,0,0.000516032567248,0.0772174671292,0.00864816363901,0.00916419643909,5.35311889648,0.127837240696,-0.222648620605,-0.00234113726765,-2.97373580933,-0.056745365262,-6.70649909973,-0.224499821663,41.8744888306,95.1027603149,52.4049110413,29.8730716705,598
1.63086121600469E+018,94,1.63086121600469E+018,base_footprint,0,1.63086121600469E+018,map,7.29489615557,-45.7480995441,0,0,0,0.708318715696,0.705892765932,0,69.9105911255,36.9747886658,75.8850479126,94.9734191895,54.8650665283,54.8650665283,69.9105911255,69.9105911255,36.0563926697,2.69413614273,0,0.000189527156181,0.0882248878479,0.00904112216085,0.00923064909875,4.93327331543,0.117716573179,0.159950256348,0.00168132653926,-2.41781234741,-0.0460998825729,-6.25744056702,-0.209988608956,41.9080619812,95.1333694458,52.4472541809,29.7989521027,587
1.63086121610433E+018,95,1.63086121610433E+018,base_footprint,0,1.63086121610433E+018,map,7.29441237862,-45.6862782818,0,0,0,0.707302446613,0.706911061602,0,69.8933944702,44.6366767883,75.9565429688,94.56224823,54.7057685852,54.7057685852,69.8933944702,69.8933944702,33.165309906,2.48517656326,0,0.000629947753623,0.0949703231454,0.009138523601,0.00976847205311,-2.73641586304,-0.0653078481555,0.620315551758,0.00651711318642,-2.19717788696,-0.0418441593647,-3.4120349884,-0.114677630365,41.9002609253,95.1825637817,52.5085906982,29.7532749176,584
1.63086121620413E+018,96,1.63086121620413E+018,base_footprint,0,1.63086121620413E+018,map,7.29524282964,-45.6862570977,0,0,0,0.70724618095,0.706967353937,0,69.719619751,37.7162628174,76.2496871948,94.4584732056,54.4660720825,54.4660720825,69.719619751,69.719619751,33.3308944702,2.46392250061,0,0.000458170950878,0.103540763259,0.00908916816115,0.00954733882099,4.18399810791,0.0998561382294,0.724090576172,0.00760738691315,-1.95748138428,-0.0372792594135,-3.57761955261,-0.120242886245,41.9002609253,95.1825637817,52.5085906982,29.7532749176,584
1.63086121630391E+018,97,1.63086121630391E+018,base_footprint,0,1.63086121630391E+018,map,7.29934667714,-45.6229767173,0,0,0,0.706559532089,0.707653607081,0,69.3201828003,42.9323959351,78.6691207886,93.3171234131,54.4112548828,54.4112548828,69.3201828003,69.3201828003,35.8198394775,2.35338377953,0,5.13071936439E-05,0.110530786216,0.00838207732886,0.00833077076823,-1.27805709839,-0.0306824482977,1.90044403076,0.0199589636177,-1.89580917358,-0.0361000299454,-6.06135368347,-0.20368488133,41.6543388367,95.2175674438,52.5154457092,29.7584857941,582
1.63086121640479E+018,98,1.63086121640479E+018,base_footprint,0,1.63086121640479E+018,map,7.30009708603,-45.5587480957,0,0,0,0.706141865023,0.708070382421,0,69.5702209473,40.3114204407,80.3844909668,93.6670684814,54.2693939209,54.2693939209,69.5702209473,69.5702209473,31.046918869,2.35444569588,0,0.000570695439819,0.116858646274,0.0076764752157,0.00824717059731,1.41994094849,0.0340257510543,1.60265350342,0.0168222747743,-1.68534851074,-0.0320505686104,-1.50940704346,-0.0511013604701,41.7313613892,95.2697219849,52.5840454102,29.5375118256,575
1.63086121650418E+018,99,1.63086121650418E+018,base_footprint,0,1.63086121650418E+018,map,7.30344064188,-45.4824517997,0,0,0,0.705837522354,0.708373765774,0,69.6389694214,42.4836616516,80.5148239136,93.981552124,54.201713562,54.201713562,69.6389694214,69.6389694214,30.2105884552,2.32721567154,0,0.000376454816433,0.123991318047,0.00747840572149,0.00785486027598,-0.797538757324,-0.0191319957376,1.29378509521,0.0135794337839,-1.61808776855,-0.0307717043906,-0.797466278076,-0.0271126013249,41.6861228943,95.2753372192,52.5836257935,29.4131221771,592
1.63086121660435E+018,100,1.63086121660435E+018,base_footprint,0,1.63086121660435E+018,map,7.30429138011,-45.4050099995,0,0,0,0.7059649869,0.708246734741,0,69.865524292,47.1440734863,79.7428207397,94.6198883057,54.1989364624,54.1989364624,69.865524292,69.865524292,28.4006881714,2.29947400093,0,0.000420898257289,0.134954616427,0.0083252331242,0.00874613132328,-5.06278991699,-0.120309777558,0.616233825684,0.00647058943287,-1.48896408081,-0.0282482430339,0.684509277344,0.0235346276313,42.0812835693,95.2361221313,52.7099723816,29.0851974487,591
1.63086121670447E+018,101,1.63086121670447E+018,base_footprint,0,1.63086121670447E+018,map,7.30544014125,-45.3273460652,0,0,0,0.705940869736,0.708270773389,0,69.7222824097,42.8815002441,77.2810821533,94.413772583,54.115272522,54.115272522,69.7222824097,69.7222824097,29.3333740234,2.64136314392,0,0.000597134872805,0.144336119294,0.00976814050227,0.0103652747348,-0.902229309082,-0.0214922577143,0.846481323242,0.00888598617166,-1.39853668213,-0.0265292730182,-0.308904647827,-0.0106429038569,41.9792709351,95.2602539062,52.7167358398,29.0244693756,583
1.63086121680441E+018,102,1.63086121680441E+018,base_footprint,0,1.63086121680441E+018,map,7.30582435263,-45.2628479309,0,0,0,0.703563742417,0.710632155447,0,69.6679534912,46.4442481995,73.9255752563,94.8137664795,54.0985221863,54.0985221863,69.6679534912,69.6679534912,31.5703964233,2.65199708939,0,0.00172567903064,0.150973722339,0.00836750492454,0.010093184188,-4.51666259766,-0.107725322247,0.499015808105,0.00523556023836,-1.37361526489,-0.026052493602,-2.88405609131,-0.100537613034,41.9275856018,95.3127822876,52.7249069214,28.686340332,549
1.63086121690446E+018,103,1.63086121690446E+018,base_footprint,0,1.63086121690446E+018,map,7.30709731176,-45.2006867051,0,0,0,0.703442592642,0.710752079742,0,69.9795074463,42.0544319153,69.0467758179,95.4021606445,54.0035934448,54.0035934448,69.9795074463,69.9795074463,27.055480957,2.56104660034,0,0.001300255768,0.152866199613,0.00794677808881,0.00924703385681,-0.340557098389,-0.00816412083805,-0.0273361206055,-0.000286617781967,-1.19749832153,-0.0226772744209,1.28907203674,0.0454786494374,41.7138748169,95.3748245239,52.8060951233,28.3445529938,509
1.63086121700391E+018,104,1.63086121700391E+018,base_footprint,0,1.63086121700391E+018,map,7.30788000673,-45.1199951521,0,0,0,0.703358703534,0.710835096322,0,69.8540115356,42.9323959351,63.6585273743,95.5533447266,53.9659233093,53.9659233093,69.8540115356,69.8540115356,29.451751709,2.35907912254,0,0.00056566321291,0.167986690998,0.00938143953681,0.00994710251689,-1.38565826416,-0.0333517938852,-0.156547546387,-0.00164101470727,-1.11805343628,-0.0211560744792,-1.20185279846,-0.0425436124206,41.5467376709,95.3967971802,52.847869873,28.2498989105,492
1.63086121710394E+018,105,1.63086121710394E+018,base_footprint,0,1.63086121710394E+018,map,7.3130959875,-44.9809233132,0,0,0,0.702433041314,0.711749831381,0,69.8394241333,40.2985076904,62.5947265625,95.5969543457,53.8894805908,53.8894805908,69.8394241333,69.8394241333,29.0458641052,2.28543806076,0,0.00147102342453,0.177636563778,0.00741407787427,0.00888510141522,0.372470855713,0.00915814843029,-0.0625305175781,-0.000654533912893,-1.09117889404,-0.0206669308245,-1.14626312256,-0.0410852879286,40.6709785461,95.5344238281,52.7983016968,27.8996009827,428
1.63086121720435E+018,106,1.63086121720435E+018,base_footprint,0,1.63086121720435E+018,map,7.31402298578,-44.8877543077,0,0,0,0.702241596598,0.711938719279,0,69.7964859009,44.6366767883,60.2137756348,96.3220367432,53.8652381897,53.8652381897,69.7964859009,69.7964859009,32.1671524048,2.34243631363,0,0.000687697145622,0.180946007371,0.00747467996553,0.00816237740219,-4.38634109497,-0.108976513147,-0.78980255127,-0.0082673933357,-1.00039672852,-0.0189236681908,-4.56467628479,-0.165371984243,40.2503356934,95.5322341919,52.8648414612,27.60247612,414
