%time,field.header.seq,field.header.stamp,field.header.frame_id,field.pose.header.seq,field.pose.header.stamp,field.pose.header.frame_id,field.pose.pose.position.x,field.pose.pose.position.y,field.pose.pose.position.z,field.pose.pose.orientation.x,field.pose.pose.orientation.y,field.pose.pose.orientation.z,field.pose.pose.orientation.w,field.label,field.main_output,field.scan_score,field.pose_score,field.cov_score,field.lhood_map_score,field.lhood_robot_score,field.lhood_map_score_all,field.lhood_robot_score_all,field.point_angle_diff,field.average_orientation,field.map_average_orientation,field.sensor_div,field.odom_div_x,field.odom_div_w,field.imu_div_w,field.kdtree_div,field.kdtree_div_p,field.cov_div,field.cov_div_p,field.likelihood_div,field.likelihood_div_p,field.normal_diff_div,field.normal_diff_div_p,field.kdtree_average,field.cov_average,field.likelihood_average,field.normal_diff_average,field.map_update_count
1.63085577808452E+018,0,1.63085577808452E+018,base_footprint,0,1.63085577808452E+018,map,4.88039764929,-73.3361612714,0,0,0,0.170840162275,0.985298756192,0,70.0486755371,35.7466049194,100,96.555015564,54.5076904297,54.5076904297,70.0486755371,70.0486755371,35.4049911499,2.13275361061,0,0.000249127886491,0.203001052141,0.00884129758924,0.00859216973186,-6.55198669434,-0.224424466491,-1.37020874023,-0.0143952462822,-5.60947418213,-0.114717356861,-4.43730735779,-0.143288314342,29.1946182251,95.1848068237,48.8982162476,30.9676837921,226
1.63085577818406E+018,1,1.63085577818406E+018,base_footprint,0,1.63085577818406E+018,map,5.02496641739,-73.2859980688,0,0,0,0.167346181981,0.985898197268,0,69.8006591797,24.1613998413,48.8268470764,95.9642868042,54.3833694458,54.3833694458,69.8006591797,69.8006591797,36.4000091553,2.30522823334,0,0.000437482260168,0.198597609997,0.00511499959975,0.00555248185992,5.36741256714,0.181768655777,-0.937759399414,-0.00986839551479,-5.48233795166,-0.112110882998,-5.82355690002,-0.190458878875,29.5288124084,95.0265274048,48.9010314941,30.5764522552,225
1.63085577828409E+018,2,1.63085577828409E+018,base_footprint,0,1.63085577828409E+018,map,5.08234408957,-73.2605508594,0,0,0,0.165367949165,0.98623194097,0,69.6483535767,22.2011394501,48.6158676147,96.1924133301,54.1047096252,54.1047096252,69.6483535767,69.6483535767,36.9531860352,2.07727098465,0,0.00255649373867,0.199142038822,0.00659011816606,0.00914661213756,7.1616268158,0.243901640177,-1.18756103516,-0.0125000039116,-5.26280975342,-0.107751943171,-6.42728805542,-0.210551977158,29.3627662659,95.0048522949,48.8418998718,30.5258979797,224
1.63085577838422E+018,3,1.63085577838422E+018,base_footprint,0,1.63085577838422E+018,map,5.30567766306,-73.1920657603,0,0,0,0.160236335728,0.987078678076,0,69.3761291504,23.1499042511,48.2224311829,95.2147445679,53.9756889343,53.9756889343,69.3761291504,69.3761291504,36.9402046204,2.25962948799,0,0.00337748369202,0.210224747658,0.010862656869,0.0142401410267,7.89207458496,0.254238784313,-0.388442993164,-0.00409636320546,-4.99040985107,-0.101875707507,-7.17274475098,-0.240959241986,31.0419788361,94.8263015747,48.9852790833,29.7674598694,192
1.63085577848388E+018,4,1.63085577848388E+018,base_footprint,0,1.63085577848388E+018,map,5.4432142195,-73.1427523097,0,0,0,0.158966139438,0.987284035378,0,69.7403335571,22.2011394501,48.1975631714,96.0871658325,53.8329620361,53.8329620361,69.7403335571,69.7403335571,31.9838085175,2.29283356667,0,0.00448459014297,0.203077018261,0.0135242128745,0.0180088039488,7.86836242676,0.261672526598,-1.03031921387,-0.0108389798552,-4.76626968384,-0.0971385985613,-1.35802268982,-0.0443424619734,30.0695018768,95.0568466187,49.0666923523,30.6257858276,164
1.63085577858362E+018,5,1.63085577858362E+018,base_footprint,0,1.63085577858362E+018,map,5.62196038823,-73.0861041201,0,0,0,0.158726364743,0.987322612491,0,69.8751449585,29.2204685211,48.4611167908,96.3873825073,53.9577941895,53.9577941895,69.8751449585,69.8751449585,31.9861831665,2.48739695549,0,0.00282828183845,0.211306497455,0.0192265585065,0.0220548398793,-3.03336524963,-0.115834318101,-0.53246307373,-0.00555488513783,-3.90886306763,-0.0781008303165,2.83171463013,0.0813292786479,26.1871032715,95.8549194336,50.0489311218,34.8178977966,84
1.63085577868388E+018,6,1.63085577868388E+018,base_footprint,0,1.63085577868388E+018,map,5.80869203338,-73.0235777859,0,0,0,0.159925402241,0.987129102862,0,69.7121276855,35.0588226318,48.2642936707,96.1414260864,54.0020141602,54.0020141602,69.7121276855,69.7121276855,34.5125617981,2.51053667068,0,0.00450618332252,0.200257360935,0.030775975436,0.0352821573615,-12.3134117126,-0.541358053684,0.53165435791,0.00549950776622,-2.74760055542,-0.0536071024835,4.75862503052,0.121173448861,22.7454109192,96.6730804443,51.2544136047,39.2711868286,55
1.63085577878363E+018,7,1.63085577878363E+018,base_footprint,0,1.63085577878363E+018,map,5.85643162932,-73.0064276834,0,0,0,0.163400349383,0.986559844014,0,69.6194381714,31.6888046265,48.2058105469,96.179649353,54.1340713501,54.1340713501,69.6194381714,69.6194381714,37.7448921204,2.5774474144,0,0.00273290555924,0.202325090766,0.0508589111269,0.0481260046363,-9.22059440613,-0.41038402915,0.446922302246,0.00462525244802,-2.8445930481,-0.0554615333676,1.42102432251,0.0362821668386,22.4682102203,96.6265716553,51.289478302,39.1659164429,53
1.63085577888394E+018,8,1.63085577888394E+018,base_footprint,0,1.63085577888394E+018,map,5.98970212858,-72.957972447,0,0,0,0.176048194736,0.984381548552,0,69.7548065186,29.4117641449,48.1591720581,95.9029388428,54.1726646423,54.1726646423,69.7548065186,69.7548065186,34.7288322449,2.44621491432,0,0.010295749642,0.191940158606,0.0722412243485,0.0619454756379,-6.69380760193,-0.294648319483,0.632293701172,0.00654987478629,-2.85985565186,-0.0557337589562,3.89358901978,0.100811623037,22.717956543,96.5352325439,51.3128089905,38.6224212646,55
1.63085577898385E+018,9,1.63085577898385E+018,base_footprint,0,1.63085577898385E+018,map,6.15119122991,-72.8956703499,0,0,0,0.202924171482,0.979194454962,0,69.8160324097,37.5,48.2919692993,95.5986404419,54.3249282837,54.3249282837,69.8160324097,69.8160324097,34.1757240295,2.52449059486,0,0.0208954084665,0.183682218194,0.0996956005692,0.0788001939654,-14.8303699493,-0.654195487499,1.24180603027,0.0128232166171,-3.2903175354,-0.0644722729921,4.22457122803,0.110014028847,22.6696300507,96.8404464722,51.0346107483,38.4002952576,54
1.63085577908424E+018,10,1.63085577908424E+018,base_footprint,0,1.63085577908424E+018,map,6.25853320408,-72.8460694956,0,0,0,0.227191774545,0.973850038548,0,70.0375518799,35.1551628113,48.3961143494,95.6243286133,54.4420433044,54.4420433044,70.0375518799,70.0375518799,31.5456504822,2.45919585228,0,0.0230655036867,0.177748650312,0.108474761248,0.0854092538357,-12.6824226379,-0.564346969128,1.0940322876,0.0113115264103,-3.40058517456,-0.0666239783168,5.72747039795,0.153662219644,22.4727401733,96.7183609009,51.0414581299,37.2731208801,59
1.63085577918359E+018,11,1.63085577918359E+018,base_footprint,0,1.63085577918359E+018,map,6.38935564,-72.7818207214,0,0,0,0.261762554791,0.965132304355,0,70.0065383911,33.3024559021,48.4793586731,95.6890335083,54.6167373657,54.6167373657,70.0065383911,70.0065383911,34.2236442566,2.72749614716,0,0.0316591411829,0.156561046839,0.121639192104,0.0899800509214,-11.2747173309,-0.511841773987,0.993537902832,0.0102762877941,-3.59692764282,-0.0705006122589,2.5124168396,0.0683910250664,22.0277385712,96.6825714111,51.0198097229,36.7360610962,54
1.63085577928402E+018,12,1.63085577928402E+018,base_footprint,0,1.63085577928402E+018,map,6.53279076356,-72.6845242527,0,0,0,0.319103474508,0.947719880849,0,70.0878829956,30.9056949615,48.5717849731,96.1229858398,54.5272827148,54.5272827148,70.0878829956,70.0878829956,33.3554420471,2.52053880692,0,0.033698644489,0.134326815605,0.12585657835,0.0921579301357,-5.17552757263,-0.201146289706,-0.560562133789,-0.00586592638865,-2.57990264893,-0.0496637672186,0.149791717529,0.00447069620714,25.7301673889,95.5624237061,51.9473800659,33.5052337646,93
1.63085577938361E+018,13,1.63085577938361E+018,base_footprint,0,1.63085577938361E+018,map,6.53930966419,-72.6806717995,0,0,0,0.322305766535,0.946635617785,0,69.9997940063,31.0661773682,48.6407470703,96.2360839844,54.4323692322,54.4323692322,69.9997940063,69.9997940063,34.3231735229,2.39433574677,0,0.0347751379013,0.120714232326,0.127883464098,0.0931083187461,-5.33600997925,-0.207383409142,-0.67366027832,-0.00704942643642,-2.48498916626,-0.0478366613388,-0.817939758301,-0.024412298575,25.7301673889,95.5624237061,51.9473800659,33.5052337646,93
1.63085577948419E+018,14,1.63085577948419E+018,base_footprint,0,1.63085577948419E+018,map,6.70251617099,-72.5282051944,0,0,0,0.414488799168,0.910054413408,0,70.0085601807,29.7765617371,48.6869812012,96.3437423706,54.2023086548,54.2023086548,70.0085601807,70.0085601807,32.0683555603,2.41192030907,0,0.0401312559843,0.0812360793352,0.115094833076,0.0749635770917,-4.46134757996,-0.176231876016,-1.0060043335,-0.0105520058423,-2.50647354126,-0.0484850183129,-0.686553955078,-0.0218774545938,25.3152141571,95.3377380371,51.6958351135,31.3818016052,113
1.63085577958361E+018,15,1.63085577958361E+018,base_footprint,0,1.63085577958361E+018,map,6.78744618859,-72.4182729117,0,0,0,0.48228677911,0.876013391847,0,70.1335296631,29.9506053925,48.6290054321,96.3737258911,54.1591796875,54.1591796875,70.1335296631,70.1335296631,29.4610729218,2.40031480789,0,0.032864689827,0.0630819946527,0.0819202661514,0.0490555763245,-4.7487449646,-0.188428342342,-1.22570037842,-0.0128820370883,-2.61623382568,-0.0507583282888,0.509805679321,0.0170100349933,25.2018604279,95.1480255127,51.5429458618,29.9708786011,129
1.63085577968396E+018,16,1.63085577968396E+018,base_footprint,0,1.63085577968396E+018,map,6.84741684958,-72.3099273286,0,0,0,0.53740016438,0.843327376127,0,69.3334197998,31.6005477905,48.4005432129,95.9356079102,53.8967475891,53.8967475891,69.3334197998,69.3334197998,39.4515800476,2.55398225784,0,0.02804572694,0.0637969449162,0.0708479210734,0.042802195996,-7.27047538757,-0.298826694489,-0.874336242676,-0.00919760763645,-2.60052108765,-0.0506961494684,-10.2079696655,-0.349066674709,24.330072403,95.0612716675,51.2962265015,29.2436103821,134
1.63085577978362E+018,17,1.63085577978362E+018,base_footprint,0,1.63085577978363E+018,map,6.91516561632,-72.15084686,0,0,0,0.583130271395,0.812378659606,0,69.3387069702,31.6005477905,48.0529022217,95.5533828735,53.691570282,53.691570282,69.3387069702,69.3387069702,35.7644081116,2.50931382179,0,0.0156856626272,0.0692248791456,0.055189024657,0.0395033620298,-7.0405921936,-0.286669582129,-0.760131835938,-0.00801883917302,-2.71014404297,-0.0531594380736,-7.63582992554,-0.271461635828,24.5599555969,94.7932510376,50.981426239,28.128578186,132
1.63085577988357E+018,18,1.63085577988357E+018,base_footprint,0,1.63085577988357E+018,map,6.95886003818,-72.013212905,0,0,0,0.617995513989,0.78618162322,0,69.2256011963,24.0389060974,47.6507949829,95.9016799927,53.3334350586,53.3334350586,69.2256011963,69.2256011963,35.1863250732,2.26112151146,0,0.0113817052916,0.058413092047,0.0491958446801,0.0378141365945,0.431034088135,0.0176148395985,-1.05461883545,-0.0111191514879,-2.46046447754,-0.0483648665249,-7.30281448364,-0.261904418468,24.4699401855,94.8470611572,50.8729705811,27.8835105896,141
1.63085577998423E+018,19,1.63085577998423E+018,base_footprint,0,1.63085577998423E+018,map,7.00155094389,-71.8595220007,0,0,0,0.647901266973,0.761724325629,0,68.6618881226,23.3926124573,47.3715782166,94.7238693237,52.8745117188,52.8745117188,68.6618881226,68.6618881226,36.1366233826,2.60235333443,0,0.0124221872538,0.065443366766,0.0388560704887,0.0264338850975,1.79874038696,0.0714030861855,-0.0466461181641,-0.000492685765494,-2.05017471313,-0.0403384454548,-9.07328796387,-0.335261255503,25.1913528442,94.6772232056,50.8243370056,27.0633354187,128
1.6308557800836E+018,20,1.6308557800836E+018,base_footprint,0,1.6308557800836E+018,map,7.02780433195,-71.7126744149,0,0,0,0.671520649714,0.740985841301,0,68.3486557007,26.4705886841,47.2024765015,95.5132980347,52.4722175598,52.4722175598,68.3486557007,68.3486557007,40.2719917297,2.49075245857,0,0.0115516288206,0.0624208077788,0.0373207703233,0.025769142434,-0.645561218262,-0.024997504428,-1.08824157715,-0.0115249240771,-1.58888244629,-0.0312259886414,-13.0603733063,-0.479955762625,25.8250274658,94.4250564575,50.8833351135,27.2116184235,129
1.63085578018341E+018,21,1.63085578018341E+018,base_footprint,0,1.63085578018341E+018,map,7.03286470322,-71.6119625179,0,0,0,0.686193778694,0.7274187914,0,68.6336669922,27.7443256378,47.049156189,95.0754623413,52.2840499878,52.2840499878,68.6336669922,68.6336669922,31.533454895,2.49051976204,0,0.00975875370204,0.0622537881136,0.0313352644444,0.0215765088797,-1.67873191833,-0.064404129982,-0.818328857422,-0.00868187751621,-1.47162628174,-0.0289619378746,-4.17876625061,-0.152762338519,26.0655937195,94.2571334839,50.8124237061,27.3546886444,129
1.63085578028439E+018,22,1.63085578028439E+018,base_footprint,0,1.63085578028439E+018,map,7.04020398355,-71.5043305498,0,0,0,0.698731798751,0.715383724594,0,68.4962997437,33.706817627,46.9894714355,95.1805648804,52.1675491333,52.1675491333,68.4962997437,68.4962997437,33.1261520386,2.57121443748,0,0.00886058900505,0.0632049888372,0.0298475641757,0.020986976102,-6.73241043091,-0.249585106969,-1.00086975098,-0.0106272352859,-1.32837677002,-0.0261289998889,-5.33780288696,-0.192087799311,26.974407196,94.1796951294,50.8391723633,27.7883491516,126
1.63085578038362E+018,23,1.63085578038362E+018,base_footprint,0,1.63085578038362E+018,map,7.0444897036,-71.2614861731,0,0,0,0.713585684518,0.700567963049,0,68.5168685913,42.5660018921,46.9900856018,95.8055038452,52.2437095642,52.2437095642,68.5168685913,68.5168685913,35.8282432556,2.37521696091,0,0.00655485130847,0.0714887827635,0.017482496798,0.0109276445583,-15.072063446,-0.548195838928,-1.68273162842,-0.0178780499846,-1.47082901001,-0.0289687924087,-8.06460380554,-0.29047358036,27.493938446,94.1227722168,50.7728805542,27.7636394501,130
1.63085578048416E+018,24,1.63085578048416E+018,base_footprint,0,1.63085578048416E+018,map,7.04422010094,-71.192531315,0,0,0,0.716940760183,0.697134094984,0,68.6727218628,43.9338226318,46.9948196411,95.2959747314,52.4185562134,52.4185562134,68.6727218628,68.6727218628,33.0768928528,2.46483874321,0,0.00671746209264,0.0760670006275,0.0138809420168,0.0071634799242,-16.3436965942,-0.59237486124,-1.17812347412,-0.0125175351277,-1.66443634033,-0.0327941142023,-5.44694709778,-0.197139263153,27.5901260376,94.1178512573,50.754119873,27.629945755,130
1.63085578058389E+018,25,1.63085578058389E+018,base_footprint,0,1.63085578058389E+018,map,7.03370985806,-70.998143059,0,0,0,0.723145082161,0.690696163407,0,69.0156326294,41.1764717102,47.0458526611,95.5701293945,52.5501365662,52.5501365662,69.0156326294,69.0156326294,29.3125915527,2.5968413353,0,0.00262635922991,0.070219874382,0.00503310468048,0.00240674545057,-13.809671402,-0.504614055157,-1.78695678711,-0.0190541297197,-1.83880996704,-0.0362603403628,-2.10124778748,-0.0772195532918,27.3668003082,93.7831726074,50.7113265991,27.2113437653,129
1.63085578068426E+018,26,1.63085578068426E+018,base_footprint,0,1.63085578068426E+018,map,7.02427099803,-70.8655522428,0,0,0,0.724019303321,0.689779710066,0,69.4175109863,39.8692817688,47.1613044739,95.7668609619,52.4951248169,52.4951248169,69.4175109863,69.4175109863,22.1927890778,2.56662225723,0,0.00179284380283,0.0675388947129,0.00337421079166,0.00158136698883,-12.767036438,-0.471069335938,-1.99765777588,-0.0213039852679,-1.7336807251,-0.0341534949839,4.67471122742,0.173991292715,27.1022453308,93.769203186,50.7614440918,26.8675003052,134
1.63085578078404E+018,27,1.63085578078404E+018,base_footprint,0,1.63085578078404E+018,map,7.0131429898,-70.6222569776,0,0,0,0.72275500179,0.691104339003,0,68.6958084106,40.7407417297,47.3032073975,93.8418731689,52.6137580872,52.6137580872,68.6958084106,68.6958084106,29.53474617,2.75075602531,0,0.00451692193747,0.061164855957,0.000734810135327,0.00378211168572,-13.360616684,-0.487967699766,-0.44059753418,-0.00471725407988,-1.68379592896,-0.0330610089004,-3.03676223755,-0.11460351944,27.3801250458,93.4012756348,50.9299621582,26.4979839325,125
1.63085578088343E+018,28,1.63085578088343E+018,base_footprint,0,1.63085578088343E+018,map,7.00709119849,-70.5070016097,0,0,0,0.720254575264,0.693709843386,0,68.2712631226,39.029624939,47.4934997559,94.5297164917,52.6655235291,52.6655235291,68.2712631226,68.2712631226,40.2119216919,2.66196227074,0,0.00234506954439,0.0657297000289,0.00480200629681,0.00714707607403,-11.3589687347,-0.410505950451,-1.20873260498,-0.0129524199292,-1.64561462402,-0.0322543606162,-13.1277751923,-0.484703302383,27.6706562042,93.3209838867,51.019908905,27.0841464996,133
1.63085578098377E+018,29,1.63085578098377E+018,base_footprint,0,1.63085578098377E+018,map,7.00100703831,-70.2983321259,0,0,0,0.71766886868,0.696384516577,0,68.3423233032,46.3667831421,47.5417366028,92.9054794312,52.8239707947,52.8239707947,68.3423233032,68.3423233032,34.7968101501,2.80746793747,0,0.00258727231994,0.0712947770953,0.00825066678226,0.0108379395679,-19.4413967133,-0.72204709053,0.282768249512,0.00303437677212,-1.81099319458,-0.0355006381869,-6.71539306641,-0.239140108228,26.9253864288,93.1882476807,51.0129776001,28.0814170837,126
1.63085578108427E+018,30,1.63085578108427E+018,base_footprint,0,1.63085578108427E+018,map,7.00133642973,-70.217498336,0,0,0,0.715420101782,0.698694552695,0,68.441116333,41.5996627808,47.637348175,93.5672683716,52.9653129578,52.9653129578,68.441116333,68.441116333,36.9273948669,2.90211868286,0,0.00332679972053,0.055101711303,0.010855121538,0.0141819212586,-14.9639778137,-0.561801850796,-0.406280517578,-0.00436105858535,-2.00754928589,-0.0393963381648,-8.75526809692,-0.310777664185,26.635684967,93.160987854,50.9577636719,28.17212677,121
1.63085578118352E+018,31,1.63085578118352E+018,base_footprint,0,1.63085578118352E+018,map,6.99747181135,-70.0040934591,0,0,0,0.711653051141,0.702531091698,0,68.7896957397,40.2985076904,47.6559410095,94.5280914307,53.0262451172,53.0262451172,68.7896957397,68.7896957397,34.7699928284,2.76929044724,0,0.00553609896451,0.0610534362495,0.0201440341771,0.0256801340729,-13.4934234619,-0.503390431404,-1.34439849854,-0.0144274011254,-2.22145843506,-0.0437253750861,-5.06877708435,-0.170658916235,26.8050842285,93.1836929321,50.8047866821,29.701215744,127
1.63085578128435E+018,32,1.63085578128435E+018,base_footprint,0,1.63085578128435E+018,map,6.99872558355,-69.7368469099,0,0,0,0.708580245602,0.705630239958,0,68.442199707,38.5425796509,47.7206344604,93.5224227905,52.9086952209,52.9086952209,68.442199707,68.442199707,36.1350135803,2.89437937737,0,0.00157052616123,0.073214776814,0.0386498570442,0.0370793305337,-12.1038761139,-0.457809001207,-0.330490112305,-0.00354633829556,-2.26298141479,-0.044682584703,-5.72616577148,-0.188305914402,26.438703537,93.1919326782,50.6457138062,30.4088478088,131
1.63085578138441E+018,33,1.63085578138441E+018,base_footprint,0,1.63085578138441E+018,map,7.00291267692,-69.6027305106,0,0,0,0.705160485483,0.70904773444,0,68.5725402832,38.5813140869,47.7475585938,92.7332000732,52.9347381592,52.9347381592,68.5725402832,68.5725402832,31.2289829254,2.67710280418,0,0.0137123251334,0.0781366750598,0.0654976740479,0.0517853535712,-13.1489677429,-0.517017483711,0.331504821777,0.00356208975427,-2.52406692505,-0.050070092082,-0.314907073975,-0.0101865269244,25.432346344,93.064704895,50.4106712341,30.9140758514,130
1.63085578148434E+018,34,1.63085578148434E+018,base_footprint,0,1.63085578148434E+018,map,6.99797782838,-69.4383214144,0,0,0,0.704414563862,0.709788787048,0,68.5228118896,29.2412624359,47.7678222656,93.7146759033,52.8108291626,52.8108291626,68.5228118896,68.5228118896,34.3191490173,2.93616175652,0,0.019989207387,0.0938778594136,0.0859375596046,0.0659483522177,-4.40316581726,-0.177274689078,-0.629257202148,-0.00675999745727,-2.64392471313,-0.0527025684714,-3.3644618988,-0.108689904213,24.8380966187,93.0854187012,50.1669044495,30.9546871185,129
1.63085578158436E+018,35,1.63085578158436E+018,base_footprint,0,1.63085578158437E+018,map,7.00002113811,-69.172576478,0,0,0,0.70436515117,0.709837822194,0,68.411239624,32.5259513855,47.7196540833,93.725440979,52.7944526672,52.7944526672,68.411239624,68.411239624,36.18932724,2.88623714447,0,0.0276768188924,0.102213829756,0.108914263546,0.081237450242,-7.83854484558,-0.317511886358,-0.610992431641,-0.0065617361106,-2.56372451782,-0.0510389693081,-5.83636474609,-0.192283198237,24.6874065399,93.1144485474,50.2307281494,30.3529624939,129
1.63085578168374E+018,36,1.63085578168374E+018,base_footprint,0,1.63085578168374E+018,map,7.00184800768,-69.0031294712,0,0,0,0.704060457386,0.710140037137,0,68.2770767212,29.0657444,47.7859840393,92.998085022,52.7635345459,52.7635345459,68.2770767212,68.2770767212,35.6519470215,2.86296224594,0,0.0325761586428,0.116363614798,0.129840970039,0.0972648113966,-4.09943580627,-0.164198711514,-0.200691223145,-0.00216268165968,-2.20809173584,-0.0436766371131,-5.66808700562,-0.189037933946,24.9663085938,92.7973937988,50.5554428101,29.9838600159,130
1.63085578178459E+018,37,1.63085578178459E+018,base_footprint,0,1.63085578178459E+018,map,7.0059376173,-68.857555295,0,0,0,0.704248417422,0.709953636908,0,68.4854049683,38.9650611877,47.951007843,94.0493850708,52.7999649048,52.7999649048,68.4854049683,68.4854049683,36.0801696777,2.8699362278,0,0.0352399647236,0.136309117079,0.140047997236,0.104808032513,-14.624912262,-0.600855469704,-1.28240203857,-0.0138239059597,-2.43175506592,-0.0482795611024,-6.05480194092,-0.201656207442,24.3401489258,92.7669830322,50.3682098389,30.0253677368,121
1.63085578188408E+018,38,1.63085578188408E+018,base_footprint,0,1.63085578188408E+018,map,7.01318390711,-68.625070913,0,0,0,0.703678284953,0.710518733944,0,68.1118087769,35.3390197754,48.3127822876,92.5724487305,52.733707428,52.733707428,68.1118087769,68.1118087769,36.7723121643,2.89014554024,0,0.0477676093578,0.164861351252,0.155729725957,0.10796212405,-10.7923202515,-0.439664810896,0.294799804688,0.00317442161031,-2.29030227661,-0.0454034022987,-6.99924278259,-0.235086366534,24.5466995239,92.8672485352,50.4434051514,29.7730693817,119
1.63085578198349E+018,39,1.63085578198349E+018,base_footprint,0,1.63085578198349E+018,map,7.01789573735,-68.4446394851,0,0,0,0.702936999854,0.71125211721,0,68.3071975708,31.985294342,48.6079750061,92.7929077148,52.5837745667,52.5837745667,68.3071975708,68.3071975708,32.4296722412,2.89073061943,0,0.0424520522356,0.20683863759,0.124448679388,0.081996627152,-7.23876190186,-0.292516201735,0.0320053100586,0.00034479223541,-2.04400634766,-0.0404435247183,-2.78428649902,-0.093919724226,24.7465324402,92.8249130249,50.539768219,29.6453857422,115
1.63085578208414E+018,40,1.63085578208414E+018,base_footprint,0,1.63085578208414E+018,map,7.02341667164,-68.1158979827,0,0,0,0.703852100388,0.710346549776,0,67.8667678833,28.8645687103,48.8765144348,91.8346176147,52.3401260376,52.3401260376,67.8667678833,67.8667678833,34.2761497498,2.85449552536,0,0.039920438081,0.195338383317,0.103006966412,0.0630865320563,-4.33594894409,-0.176771014929,0.736557006836,0.00795665569603,-1.91257476807,-0.0379271805286,-3.33160018921,-0.107663556933,24.5286197662,92.5711746216,50.4275512695,30.9445495605,116
1.63085578218405E+018,41,1.63085578218405E+018,base_footprint,0,1.63085578218405E+018,map,7.02369983332,-68.0961656671,0,0,0,0.703053375282,0.711137083483,0,68.1527786255,29.0525379181,49.070186615,92.6169052124,52.1977157593,52.1977157593,68.1527786255,68.1527786255,30.4061946869,2.86035585403,0,0.0387658402324,0.194278642535,0.095238186419,0.0564723499119,-4.69971466064,-0.192984387279,-0.150260925293,-0.00162502843887,-1.70097732544,-0.0336848944426,0.460918426514,0.0149323465303,24.3528232574,92.4666442871,50.4967384338,30.8671131134,118
1.63085578228391E+018,42,1.63085578228391E+018,base_footprint,0,1.63085578228391E+018,map,7.0293099607,-67.8426228283,0,0,0,0.702628996557,0.711556387925,0,68.2310791016,31.372549057,49.1726531982,93.0062484741,52.1173400879,52.1173400879,68.2310791016,68.2310791016,29.5302867889,2.86632537842,0,0.0236776117235,0.206368342042,0.0769644007087,0.0532867871225,-8.25387573242,-0.357022047043,-0.347236633301,-0.00374746741727,-1.80313110352,-0.0358374118805,2.39889144897,0.0751316398382,23.1186733246,92.6590118408,50.3142089844,31.9291782379,117
1.63085578238408E+018,43,1.63085578238408E+018,base_footprint,0,1.63085578238408E+018,map,7.03297997331,-67.4773656739,0,0,0,0.702388924499,0.711793368009,0,67.916015625,29.5900173187,49.2197265625,91.9522705078,51.8843917847,51.8843917847,67.916015625,67.916015625,28.8912677765,2.84016942978,0,0.0245157591999,0.212809711695,0.0669685602188,0.042452801019,-7.34959411621,-0.330461084843,0.234672546387,0.00254561589099,-1.44672012329,-0.0286833252758,4.86133766174,0.144028514624,22.2404232025,92.1869430542,50.4376716614,33.7526054382,109
1.63085578248363E+018,44,1.63085578248363E+018,base_footprint,0,1.63085578248363E+018,map,7.03166085561,-67.1710939861,0,0,0,0.703649531168,0.710547209753,0,67.8145828247,24.8868770599,49.1868553162,92.8688583374,51.7421073914,51.7421073914,67.8145828247,67.8145828247,32.4801139832,2.85549521446,0,0.0243282113224,0.208559378982,0.0605735182762,0.0362453050911,-3.38172531128,-0.157251864672,-0.629776000977,-0.00682764826342,-1.35081863403,-0.0268065910786,1.03355789185,0.030839888379,21.5051517487,92.2390823364,50.3912887573,33.513671875,107
1.63085578258346E+018,45,1.63085578258346E+018,base_footprint,0,1.63085578258346E+018,map,7.03684360415,-66.9737648517,0,0,0,0.704287840563,0.709914528401,0,67.9505462646,26.5811595917,49.1537017822,92.1789855957,51.5611305237,51.5611305237,67.9505462646,67.9505462646,25.5946598053,2.92863726616,0,0.027017487213,0.203800886869,0.0540848299861,0.0270673446357,-5.80569458008,-0.279449552298,-0.178649902344,-0.0019418396987,-1.4932975769,-0.0298254881054,7.44222831726,0.2252702564,20.7754650116,92.0003356934,50.0678329468,33.0368881226,102
1.63085578268406E+018,46,1.63085578268406E+018,base_footprint,0,1.63085578268407E+018,map,7.03780426397,-66.7011891477,0,0,0,0.70516464281,0.70904359988,0,67.6139297485,28.3502883911,48.948097229,90.4539871216,51.4884757996,51.4884757996,67.6139297485,67.6139297485,24.6591014862,2.85271811485,0,0.0247597023845,0.190997332335,0.046594966203,0.0218352638185,-6.64167404175,-0.305946469307,1.14361572266,0.0124852145091,-1.34874725342,-0.0268997717649,6.69821166992,0.213609233499,21.7086143494,91.5976028442,50.1397285461,31.3573131561,104
1.63085578278349E+018,47,1.63085578278349E+018,base_footprint,0,1.63085578278349E+018,map,7.04106560402,-66.4580191954,0,0,0,0.704630808174,0.709574114643,0,66.9737014771,34.5422363281,48.9077377319,90.6948318481,51.2930107117,51.2930107117,66.9737014771,66.9737014771,34.9392738342,2.68984103203,0,0.0187750756741,0.190468400717,0.0306541528553,0.0118790771812,-13.2391452789,-0.621465921402,0.960510253906,0.0104795880616,-1.40141677856,-0.0280892364681,-4.23376846313,-0.137883037329,21.3030910492,91.6553421021,49.8915939331,30.7055053711,105
1.63085578288422E+018,48,1.63085578288422E+018,base_footprint,0,1.63085578288422E+018,map,7.04075804276,-66.3456219881,0,0,0,0.705076999632,0.709130752817,0,67.2739639282,24.7404842377,48.8971214294,91.7381896973,51.0563583374,51.0563583374,67.2739639282,67.2739639282,30.7347373962,2.72300720215,0,0.0142732420936,0.206810414791,0.0220957901329,0.00782254710793,-3.73602867126,-0.177868396044,-0.292381286621,-0.00319731747732,-1.20966339111,-0.0242676753551,0.16361618042,0.00529530411586,21.0044555664,91.4458084106,49.8466949463,30.8983535767,99
1.63085578298438E+018,49,1.63085578298438E+018,base_footprint,0,1.63085578298438E+018,map,7.04380707008,-66.144278285,0,0,0,0.70432976851,0.709872930313,0,67.2467422485,24.1830062866,48.8219833374,93.3071060181,50.7492408752,50.7492408752,67.2467422485,67.2467422485,33.5559577942,2.82209777832,0,0.0109331579879,0.203932747245,0.0160836931318,0.00515053607523,-3.31918334961,-0.159087970853,-2.21634674072,-0.0243311915547,-0.960071563721,-0.0192827396095,-3.21213150024,-0.105857826769,20.863822937,91.0907592773,49.7891693115,30.3438262939,105
1.63085578308359E+018,50,1.63085578308359E+018,base_footprint,0,1.63085578308359E+018,map,7.04281533018,-65.8235893589,0,0,0,0.704665266639,0.709539894575,0,66.9303512573,30.2832241058,48.8145332336,92.4681854248,50.4632034302,50.4632034302,66.9303512573,66.9303512573,33.1417922974,2.78517317772,0,0.00786517374218,0.193208426237,0.00320921698585,0.00465595629066,-9.48585891724,-0.456108689308,-1.65908813477,-0.018270066008,-0.616100311279,-0.0123598016798,-1.94086647034,-0.0622054114938,20.7973651886,90.80909729,49.8471031189,31.200925827,100
1.63085578318378E+018,51,1.63085578318378E+018,base_footprint,0,1.63085578318378E+018,map,7.04208928928,-65.461319445,0,0,0,0.705345809579,0.708863378169,0,66.5164642334,21.2737731934,48.8600273132,92.3333358765,50.2432022095,50.2432022095,66.5164642334,66.5164642334,37.7302284241,2.87732720375,0,0.00829308945686,0.227910786867,0.00110258627683,0.00939567573369,-1.22142601013,-0.0609118714929,-1.74285888672,-0.0192388761789,-0.484790802002,-0.00974289141595,-5.47793197632,-0.169846266508,20.0523471832,90.5904769897,49.7584114075,32.2522964478,95
1.63085578328349E+018,52,1.63085578328349E+018,base_footprint,0,1.63085578328349E+018,map,7.05217744253,-65.1411662078,0,0,0,0.700062756694,0.714081323583,0,66.1284484863,19.2273921967,48.8978309631,90.5302352905,49.9084320068,49.9084320068,66.1284484863,66.1284484863,34.6078338623,2.93141388893,0,0.00591747416183,0.219506397843,0.00545110786334,0.0113685820252,0.0759563446045,0.0039348793216,-0.19507598877,-0.00215946906246,-0.331695556641,-0.00669054826722,-0.548950195312,-0.0161176808178,19.3033485413,90.3351593018,49.5767364502,34.058883667,100
1.6308557833835E+018,53,1.6308557833835E+018,base_footprint,0,1.6308557833835E+018,map,7.05979295772,-64.9291650355,0,0,0,0.699490716511,0.714641684703,0,65.5219039917,14.6834306717,48.7954292297,90.934387207,49.5870552063,49.5870552063,65.5219039917,65.5219039917,43.5097351074,2.99727702141,0,0.000528954900801,0.217769086361,0.0143267521635,0.0148557070643,4.09118747711,0.217910557985,-0.46167755127,-0.00510294828564,-0.0202407836914,-0.000408353516832,-9.20263671875,-0.268242925406,18.7746181488,90.4727096558,49.5668144226,34.3070983887,96
1.63085578348368E+018,54,1.63085578348368E+018,base_footprint,0,1.63085578348368E+018,map,7.06717277263,-64.7176683812,0,0,0,0.698578661648,0.715533265118,0,64.9572296143,14.1972579956,48.6401062012,88.1204452515,49.3020324707,49.3020324707,64.9572296143,64.9572296143,40.46534729,2.99233317375,0,0.00140395876952,0.218983575702,0.0172374602407,0.0186414197087,4.90259361267,0.256682276726,1.95050048828,0.0216551572084,0.245944976807,0.00496377423406,-5.70449066162,-0.164106741548,19.0998516083,90.0709457397,49.5479774475,34.7608566284,100
1.63085578358358E+018,55,1.63085578358358E+018,base_footprint,0,1.63085578358358E+018,map,7.0749594007,-64.3478162134,0,0,0,0.700832574744,0.713325803667,0,64.9024505615,8.69183540344,48.5961380005,89.082069397,48.9106369019,48.9106369019,64.9024505615,64.9024505615,40.686252594,2.87711334229,0,0.00028540569474,0.205634027719,0.0173573773354,0.0176427830011,9.12306022644,0.512102901936,0.796813964844,0.00886541884392,-0.0506706237793,-0.00103705807123,-4.41638946533,-0.121764712036,17.8148956299,89.8788833618,48.8599662781,36.2698631287,97
1.63085578368413E+018,56,1.63085578368413E+018,base_footprint,0,1.63085578368413E+018,map,7.07488635291,-64.1097978945,0,0,0,0.701937738801,0.712238310432,0,63.9083328247,17.5611858368,48.6278839111,86.1874160767,48.5640983582,48.5640983582,63.9083328247,63.9083328247,44.416973114,3.01422762871,0,0.00410907249898,0.197413086891,0.0100648729131,0.014173945412,0.443021774292,0.0246065687388,3.24591827393,0.0362942777574,0.647766113281,0.0131628038362,-8.12739944458,-0.223959624767,18.0042076111,89.4333343506,49.2118644714,36.2895736694,93
1.63085578378412E+018,57,1.63085578378412E+018,base_footprint,0,1.63085578378412E+018,map,7.07822019326,-63.8141018313,0,0,0,0.702589777506,0.711595112788,0,64.4365386963,17.1122989655,48.5715675354,88.4229278564,48.2493553162,48.2493553162,64.4365386963,64.4365386963,39.5579376221,2.81815266609,0,0.00608989503235,0.217851758003,0.00526130851358,0.0113512035459,-0.172054290771,-0.0101565411314,0.629592895508,0.00706990528852,0.414813995361,0.00852401275188,-3.58839416504,-0.0997620150447,16.9402446747,89.052520752,48.6641693115,35.969543457,99
1.63085578388391E+018,58,1.63085578388391E+018,base_footprint,0,1.63085578388391E+018,map,7.08101777301,-63.5473247694,0,0,0,0.702882340507,0.711306133394,0,64.135887146,14.4385023117,48.6299972534,88.2691650391,47.9766921997,47.9766921997,64.135887146,64.135887146,41.4712905884,3.01373052597,0,0.00334727112204,0.215855076909,0.0043511367403,0.00769840786234,2.78283405304,0.161592230201,0.912002563477,0.010226403363,0.764488220215,0.0156846474856,-5.39190292358,-0.149445518851,17.2213363647,89.1811676025,48.7411804199,36.0793876648,100
1.6308557839836E+018,59,1.6308557839836E+018,base_footprint,0,1.6308557839836E+018,map,7.08793631198,-63.1699280675,0,0,0,0.701613533531,0.712557681572,0,64.3815917969,19.8257083893,48.6127815247,89.614364624,47.8945770264,47.8945770264,64.3815917969,64.3815917969,41.0044212341,2.92750287056,0,0.00295943347737,0.19756411016,0.00787147320807,0.0108309071511,-2.65744781494,-0.154788419604,-0.659019470215,-0.00740843033418,0.652545928955,0.0134414955974,-5.10020446777,-0.142050296068,17.1682605743,88.9553451538,48.5471229553,35.9042167664,96
1.63085578408384E+018,60,1.63085578408384E+018,base_footprint,0,1.63085578408384E+018,map,7.08989682708,-62.9570668502,0,0,0,0.700414552427,0.71373626414,0,64.029006958,17.7355155945,48.6129989624,90.0391540527,47.65625,47.65625,64.029006958,64.029006958,46.3063735962,2.91698288918,0,0.00289705954492,0.226335197687,0.0132946101949,0.0161916688085,1.07127761841,0.0569622702897,-0.997123718262,-0.011198349297,1.27021026611,0.0259616225958,-11.0328674316,-0.312780559063,18.8067932129,89.0420303345,48.9264602661,35.2735061646,104
1.63085578418359E+018,61,1.63085578418359E+018,base_footprint,0,1.63085578418359E+018,map,7.09925127875,-62.7005953522,0,0,0,0.698848007656,0.715270202228,0,64.8423538208,15.0818223953,48.5979766846,93.3979721069,47.4898719788,47.4898719788,64.8423538208,64.8423538208,41.9609985352,2.97010302544,0,0.00498497392982,0.2311488837,0.0128359673545,0.0178209412843,4.49559116364,0.229631513357,-4.29284667969,-0.0481773242354,1.32390213013,0.0271214861423,-6.65303039551,-0.188428580761,19.577413559,89.1051254272,48.8137741089,35.3079681396,108
1.63085578428433E+018,62,1.63085578428433E+018,base_footprint,0,1.63085578428433E+018,map,7.10813741418,-62.4294246002,0,0,0,0.699433355425,0.714697825181,0,64.2880630493,22.1583366394,48.5756454468,90.6362075806,47.3694572449,47.3694572449,64.2880630493,64.2880630493,40.6953392029,2.97959971428,0,0.00406398437917,0.187594458461,0.0175658427179,0.0216298289597,-2.0230884552,-0.100474968553,-1.34028625488,-0.0150094898418,1.28108215332,0.0263323318213,-6.31312942505,-0.183616161346,20.1352481842,89.2959213257,48.6505393982,34.3822097778,108
1.63085578438371E+018,63,1.63085578438371E+018,base_footprint,0,1.63085578438371E+018,map,7.11719278477,-62.1435504745,0,0,0,0.700673875531,0.713481688726,0,63.7471084595,22.7392444611,48.5174789429,88.9730834961,47.3071365356,47.3071365356,63.7471084595,63.7471084595,43.7722587585,2.98910903931,0,0.00139991380274,0.186074793339,0.0210429970175,0.0224429108202,-1.80538368225,-0.0862422734499,0.336448669434,0.00376722007059,1.05698394775,0.0218547116965,-10.1930084229,-0.303550809622,20.9338607788,89.3095321655,48.3641204834,33.5792503357,107
1.6308557844842E+018,64,1.6308557844842E+018,base_footprint,0,1.6308557844842E+018,map,7.11617679061,-61.9096309655,0,0,0,0.702786293838,0.711401029795,0,63.9917182922,20.4152240753,48.4217300415,90.0902023315,47.2859840393,47.2859840393,63.9917182922,63.9917182922,43.162399292,2.88165163994,0,0.0085713583976,0.179705530405,0.00931610073894,0.0178874582052,0.942892074585,0.0441467799246,-0.569381713867,-0.00636032735929,0.854965209961,0.0177596248686,-9.88988113403,-0.297238737345,21.3581161499,89.5208206177,48.1409492493,33.272518158,107
1.63085578458402E+018,65,1.63085578458402E+018,base_footprint,0,1.63085578458403E+018,map,7.11771282555,-61.5340671596,0,0,0,0.704622251151,0.709582611951,0,62.9256820679,20.6971683502,48.3526077271,84.4499816895,47.3210868835,47.3210868835,62.9256820679,62.9256820679,42.4254188538,2.94483232498,0,0.0080592520535,0.169015616179,0.00804243050516,0.0161016825587,2.63590049744,0.112968444824,5.31555938721,0.0592160336673,0.96240234375,0.019932327792,-10.1819381714,-0.31578284502,23.3330688477,89.7655410767,48.2834892273,32.2434806824,103
1.63085578468387E+018,66,1.63085578468387E+018,base_footprint,0,1.63085578468387E+018,map,7.11578993795,-61.1200471447,0,0,0,0.704799465441,0.709406592523,0,64.255897522,23.3115463257,48.3480758667,89.2132339478,47.3282394409,47.3282394409,64.255897522,64.255897522,35.70652771,2.88627243042,0,0.00710251508281,0.156923696399,0.00676223030314,0.0138647453859,1.10357475281,0.0452004633844,-0.00146484375,-1.64198481798E-05,1.00368881226,0.0207665786147,-3.47888183594,-0.107947126031,24.4151210785,89.211769104,48.3319282532,32.227645874,109
1.63085578478406E+018,67,1.63085578478406E+018,base_footprint,0,1.63085578478406E+018,map,7.11748444985,-60.8684568946,0,0,0,0.702810661085,0.7113769568,0,63.9127311707,25.0544662476,48.2111434937,86.7584609985,47.3287467957,47.3287467957,63.9127311707,63.9127311707,33.0517654419,2.72102379799,0,0.00925833918154,0.164219543338,0.00287987012416,0.0121382093057,-0.538177490234,-0.0219518337399,2.21617126465,0.0249079000205,1.06700134277,0.022047419101,-1.43284797668,-0.0453161634505,24.5162887573,88.9746322632,48.3957481384,31.6189174652,115
1.63085578488407E+018,68,1.63085578488407E+018,base_footprint,0,1.63085578488407E+018,map,7.12809358532,-60.5014998584,0,0,0,0.704439361111,0.709764176693,0,64.4142684937,23.2736568451,48.1318321228,90.2777786255,47.3661613464,47.3661613464,64.4142684937,64.4142684937,37.0977020264,2.83794689178,0,0.0113730635494,0.134004116058,0.000539183849469,0.0119122480974,1.19042396545,0.0486600734293,-1.75152587891,-0.0197853837162,1.0927696228,0.0225504282862,-6.10381317139,-0.196936026216,24.4640808105,88.5262527466,48.4589309692,30.993888855,118
1.63085578498359E+018,69,1.63085578498359E+018,base_footprint,0,1.63085578498359E+018,map,7.13451993537,-60.1506193411,0,0,0,0.701614007991,0.712557214398,0,64.1364898682,24.6720275879,48.0498046875,89.14478302,47.4820632935,47.4820632935,64.1364898682,64.1364898682,39.2706451416,2.86578583717,0,0.00329372612759,0.111446589231,0.00794913619757,0.0112428618595,-0.662208557129,-0.0275807399303,-0.688316345215,-0.00778141338378,1.07403182983,0.0221194028854,-8.78128433228,-0.288011431694,24.0098190308,88.4564666748,48.5560951233,30.4893608093,118
1.63085578508377E+018,70,1.63085578508377E+018,base_footprint,0,1.63085578508378E+018,map,7.13636930093,-59.921757886,0,0,0,0.702447103304,0.711735953188,0,64.2970352173,29.7503166199,47.7795639038,87.7941055298,47.6144332886,47.6144332886,64.2970352173,64.2970352173,32.9480628967,2.59025764465,0,0.00484317587689,0.121662519872,0.011897822842,0.0167409982532,-5.8392124176,-0.244205057621,0.804756164551,0.00908314343542,0.841808319092,0.0173725467175,-2.04553794861,-0.0661932304502,23.9111042023,88.5988616943,48.4562416077,30.9025249481,114
1.63085578518378E+018,71,1.63085578518378E+018,base_footprint,0,1.63085578518378E+018,map,7.13919960026,-59.6734995886,0,0,0,0.701414310937,0.712753789476,0,64.8354492188,27.2111721039,47.5989990234,90.1562728882,47.758026123,47.758026123,64.8354492188,64.8354492188,33.3111343384,2.66941666603,0,0.003764875466,0.118291586637,0.0154172563925,0.019182132557,-3.55763626099,-0.150406107306,-1.7222366333,-0.0194748174399,0.460147857666,0.00954303797334,-2.28524780273,-0.0736561641097,23.6535358429,88.4340362549,48.2181739807,31.0258865356,106
1.63085578528386E+018,72,1.63085578528386E+018,base_footprint,0,1.63085578528386E+018,map,7.14187767468,-59.4063851242,0,0,0,0.699734136185,0.714403344517,0,65.0224456787,22.4400863647,47.5433197021,91.8592605591,47.7370376587,47.7370376587,65.0224456787,65.0224456787,35.8493041992,2.80505418777,0,0.000742275151424,0.106888592243,0.0220046788454,0.0227469541132,2.14821624756,0.0873674079776,-3.06713104248,-0.034542825073,0.647785186768,0.0133881894872,-4.62571144104,-0.148147955537,24.5883026123,88.7921295166,48.3848228455,31.2235927582,106
1.63085578538388E+018,73,1.63085578538388E+018,base_footprint,0,1.63085578538388E+018,map,7.15432194802,-58.9265968828,0,0,0,0.701842501247,0.712332158086,0,64.7535552979,31.1546840668,47.6304359436,89.1875610352,47.8166694641,47.8166694641,64.7535552979,64.7535552979,31.9312343597,2.66543889046,0,0.0102481432259,0.0845222845674,0.0203733015805,0.0306214448065,-4.3642539978,-0.162903472781,-0.0522155761719,-0.000585801026318,0.740604400635,0.0152521822602,0.084623336792,0.00264316936955,26.790430069,89.135345459,48.5572738647,32.0158576965,99
1.63085578548385E+018,74,1.63085578548385E+018,base_footprint,0,1.63085578548385E+018,map,7.15318447076,-58.727133081,0,0,0,0.702545710869,0.711638619062,0,64.9916152954,33.6576728821,47.7498474121,90.5137863159,48.0342483521,48.0342483521,64.9916152954,64.9916152954,34.7704086304,2.7700111866,0,0.0108276447281,0.0782875269651,0.0189985539764,0.0298261996359,-5.66797447205,-0.202502161264,-1.2532119751,-0.0140399271622,0.905139923096,0.0184951219708,-2.43409729004,-0.0752744227648,27.98969841,89.2605743408,48.9393882751,32.3363113403,102
1.63085578558373E+018,75,1.63085578558373E+018,base_footprint,0,1.63085578558373E+018,map,7.15406814552,-58.4642962825,0,0,0,0.703475963413,0.71071905061,0,65.0026321411,32.5259513855,47.7128562927,90.5747756958,48.0256767273,48.0256767273,65.0026321411,65.0026321411,34.6990890503,2.64346313477,0,0.0038902843371,0.0811180099845,0.0232583619654,0.0271486453712,-2.52843856812,-0.084288276732,-1.06616210938,-0.0119112795219,1.00012588501,0.0203999895602,-1.29689407349,-0.038826610893,29.9975128174,89.5086135864,49.0258026123,33.4021949768,97
1.63085578568347E+018,76,1.63085578568347E+018,base_footprint,0,1.63085578568347E+018,map,7.16594958727,-58.0355941557,0,0,0,0.705821523786,0.708389706701,0,65.2151260376,33.391002655,47.5958137512,91.638420105,47.9319343567,47.9319343567,65.2151260376,65.2151260376,33.6909942627,2.57941699028,0,0.00713092554361,0.0737474933267,0.0187814291567,0.0259123537689,-3.23531150818,-0.107286930084,-1.98793029785,-0.0221742261201,1.08139419556,0.0220632683486,0.827404022217,0.0239699427038,30.1556911469,89.6504898071,49.0133285522,34.5183982849,103
1.63085578578343E+018,77,1.63085578578343E+018,base_footprint,0,1.63085578578343E+018,map,7.17494678684,-57.8079417518,0,0,0,0.703169025755,0.711022729045,0,64.5093841553,29.2412624359,47.5007019043,89.7160873413,47.7901878357,47.7901878357,64.5093841553,64.5093841553,37.9430809021,2.55040717125,0,0.0120874978602,0.0749638974667,0.015418542549,0.0275060404092,0.882230758667,0.0292871333659,0.16178894043,0.00180009752512,1.30164337158,0.0265144594014,-2.10488891602,-0.0587331205606,30.1234931946,89.8778762817,49.0918312073,35.8381919861,105
1.63085578588379E+018,78,1.63085578588379E+018,base_footprint,0,1.63085578588379E+018,map,7.18037665828,-57.502614437,0,0,0,0.704446547747,0.709757043901,0,64.3795623779,28.9039363861,47.5172691345,90.81300354,47.5356292725,47.5356292725,64.3795623779,64.3795623779,41.4795227051,2.65547466278,0,0.0112412907183,0.0666310936213,0.0146800866351,0.025921376422,-0.161518096924,-0.00561950262636,-0.790504455566,-0.00878118723631,1.57821655273,0.0321338400245,-4.99375534058,-0.136868581176,28.7424182892,90.0224990845,49.1138458252,36.4857673645,115
1.63085578598376E+018,79,1.63085578598376E+018,base_footprint,0,1.63085578598376E+018,map,7.17903536702,-57.3243039045,0,0,0,0.704861351099,0.709345103407,0,64.921546936,26.2510967255,47.6757698059,93.1180801392,47.4111709595,47.4111709595,64.921546936,64.921546936,38.6779632568,2.69725418091,0,0.00952123012394,0.126294314861,0.0115792909637,0.0211005210876,1.54917907715,0.0557253137231,-3.10191345215,-0.0344595164061,1.658618927,0.0338012240827,-1.85693740845,-0.0504314415157,27.8002758026,90.016166687,49.0697898865,36.8210258484,118
1.63085578608416E+018,80,1.63085578608416E+018,base_footprint,0,1.63085578608416E+018,map,7.1786717972,-57.1516822013,0,0,0,0.703817762074,0.710380572503,0,65.0021743774,35.0307273865,47.7519607544,92.2666854858,47.458114624,47.458114624,65.0021743774,65.0021743774,34.6685295105,2.74445009232,0,0.0122524900362,0.160402521491,0.00901088118553,0.0212633702904,-7.37426948547,-0.266638249159,-2.21298980713,-0.0245741140097,1.66820526123,0.0339574627578,2.16325378418,0.0587333440781,27.656457901,90.0536956787,49.1263198853,36.8317832947,123
1.63085578618402E+018,81,1.63085578618402E+018,base_footprint,0,1.63085578618402E+018,map,7.18667818205,-56.9623496478,0,0,0,0.704009579712,0.710190475629,0,65.0285263062,32.2638130188,47.980922699,94.0338897705,47.328212738,47.328212738,65.0285263062,65.0285263062,39.1531982422,2.6922647953,0,0.00659569911659,0.262448966503,0.0200291406363,0.0266248397529,-4.35634803772,-0.156099736691,-3.68142700195,-0.0407451763749,1.823387146,0.0370972082019,-3.32950210571,-0.0929413363338,27.9074649811,90.3524627686,49.151599884,35.8236961365,124
1.63085578628371E+018,82,1.63085578628371E+018,base_footprint,0,1.63085578628371E+018,map,7.18987299159,-56.7820880949,0,0,0,0.704484125761,0.709719745076,0,64.2856445312,28.6987514496,48.245891571,92.1796340942,47.1673622131,47.1673622131,64.2856445312,64.2856445312,44.1125793457,2.52890467644,0,0.00843399949372,0.373191803694,0.0229913722724,0.0314253717661,-0.94242477417,-0.0339535139501,-1.40029144287,-0.0154252210632,1.99766921997,0.0406319126487,-9.18994140625,-0.263151407242,27.7563266754,90.7793426514,49.1650314331,34.9226379395,129
1.6308557863841E+018,83,1.6308557863841E+018,base_footprint,0,1.63085578638411E+018,map,7.19226438539,-56.6851560604,0,0,0,0.706131353242,0.708080865416,0,64.2518386841,27.8074874878,48.3548316956,92.8992538452,46.9271392822,46.9271392822,64.2518386841,64.2518386841,44.7173309326,2.70789599419,0,0.00554684689268,0.526539921761,0.0241444725543,0.0296913199127,0.160684585571,0.00574526609853,-2.04074859619,-0.022460732609,2.1968460083,0.0447204336524,-9.8765411377,-0.283476382494,27.9681720734,90.858505249,49.1239852905,34.8407897949,135
1.63085578648349E+018,84,1.63085578648349E+018,base_footprint,0,1.63085578648349E+018,map,7.19381135552,-56.5507596597,0,0,0,0.705546732811,0.708663395287,0,64.0862503052,26.2510967255,48.4160499573,92.7247161865,46.6747245789,46.6747245789,64.0862503052,64.0862503052,44.3434486389,2.70404648781,0,0.00856944266707,0.662007689476,0.0179839897901,0.0265534333885,2.63045120239,0.0910772234201,-1.54532623291,-0.016948197037,2.43801116943,0.0496411174536,-10.3908920288,-0.306041508913,28.8815479279,91.1793899536,49.1127357483,33.9525566101,138
1.6308557865839E+018,85,1.6308557865839E+018,base_footprint,0,1.6308557865839E+018,map,7.19283820001,-56.4423035435,0,0,0,0.706419919469,0.707792976355,0,63.8978652954,26.2510967255,48.4476051331,91.2950744629,46.552028656,46.552028656,63.8978652954,63.8978652954,41.2626228333,2.79385304451,0,0.00788540672511,0.719435930252,0.0167180560529,0.0246034637094,4.11513328552,0.135516762733,0.167587280273,0.00183230265975,2.58651351929,0.0526371635497,-7.29080200195,-0.214613229036,30.366230011,91.4626617432,49.1385421753,33.9718208313,140
1.63085578668368E+018,86,1.63085578668368E+018,base_footprint,0,1.63085578668368E+018,map,7.19157356083,-56.2499524472,0,0,0,0.707469563947,0.706743812204,0,63.2174263,30.6885547638,48.6569480896,89.6326217651,46.4991493225,46.4991493225,63.2174263,63.2174263,46.9545478821,2.59557819366,0,0.00708314403892,0.859257459641,0.0128286601976,0.0199118051678,0.739482879639,0.023529401049,2.27660369873,0.0247701331973,2.72609710693,0.0553800612688,-12.8452148438,-0.37658944726,31.4280376434,91.9092254639,49.2252464294,34.1093330383,148
1.63085578678369E+018,87,1.63085578678369E+018,base_footprint,0,1.63085578678369E+018,map,7.19354208612,-56.0842356421,0,0,0,0.707787891037,0.706425014634,0,64.6981582642,33.542881012,48.7968864441,94.8196487427,46.6049613953,46.6049613953,64.6981582642,64.6981582642,40.1175041199,2.5507080555,0,0.00936133693904,1.126090765,0.00548748020083,0.0148488171399,-1.07541656494,-0.0331229008734,-2.61950683594,-0.0284110940993,2.58337783813,0.0525201261044,-5.82855224609,-0.169983386993,32.467464447,92.2001419067,49.1883392334,34.2889518738,152
1.6308557868839E+018,88,1.6308557868839E+018,base_footprint,0,1.6308557868839E+018,map,7.19169727471,-56.0105055887,0,0,0,0.707500096806,0.706713246671,0,64.454536438,35.0307273865,49.0388908386,94.7153244019,46.6019287109,46.6019287109,64.454536438,64.454536438,44.0943641663,2.66304397583,0,0.00868461746722,1.23337221146,0.0068123601377,0.0154969776049,-2.07414627075,-0.0629357248545,-2.33054351807,-0.0252264868468,2.62453842163,0.0533155947924,-9.59417724609,-0.278090596199,32.9565811157,92.3847808838,49.2264671326,34.5001869202,155
1.63085578698403E+018,89,1.63085578698403E+018,base_footprint,0,1.63085578698403E+018,map,7.19152258711,-55.9044881559,0,0,0,0.706946395376,0.707267130627,0,64.5378417969,31.8885440826,54.6810951233,94.9223556519,46.4860954285,46.4860954285,64.5378417969,64.5378417969,42.0891494751,2.63529825211,0,0.0063006952405,1.39527082443,0.00842629186809,0.0147269871086,1.84041786194,0.0545649118721,-2.54922485352,-0.0275970380753,2.84513092041,0.05767403543,-6.66403961182,-0.188116267323,33.7289619446,92.3731307983,49.3312263489,35.4251098633,158
1.6308557870841E+018,90,1.6308557870841E+018,base_footprint,0,1.63085578708411E+018,map,7.19185215419,-55.741972873,0,0,0,0.705906789415,0.708304739966,0,64.6890258789,32.5125389099,54.0355186462,94.6606674194,46.5545387268,46.5545387268,64.6890258789,64.6890258789,39.164932251,2.73618650436,0,0.00443123327568,1.50168633461,0.00895783025771,0.0133890630677,2.31317520142,0.0664214715362,-2.14122772217,-0.0231435447931,2.81201934814,0.0569620281458,-3.69662475586,-0.104223318398,34.8257141113,92.5194396973,49.366558075,35.4683074951,147
1.63085578718346E+018,91,1.63085578718346E+018,base_footprint,0,1.63085578718346E+018,map,7.19465532708,-55.5664504051,0,0,0,0.705949547522,0.708262124043,0,64.5325775146,31.7467441559,51.8283081055,94.4915542603,46.5586280823,46.5586280823,64.5325775146,64.5325775146,41.4164237976,2.71414685249,0,0.00398031575605,1.60371673107,0.00937699712813,0.0133573133498,3.56458854675,0.100947439671,-1.69920349121,-0.0183118917048,2.85321426392,0.0577435307205,-5.51017379761,-0.153460025787,35.3113327026,92.792350769,49.4118423462,35.90625,153
1.63085578728364E+018,92,1.63085578728364E+018,base_footprint,0,1.63085578728364E+018,map,7.19176322118,-55.4413516354,0,0,0,0.705520252705,0.70868975795,0,64.3403167725,33.6576728821,54.4742469788,93.0193252563,46.3644180298,46.3644180298,64.3403167725,64.3403167725,37.4795761108,2.6007130146,0,0.00123035989236,1.8617964983,0.0145563641563,0.0133260050789,2.26612854004,0.0630815327168,0.153701782227,0.00164963817224,3.17247390747,0.0640426501632,-1.04969024658,-0.0288139861077,35.9238014221,93.1730270386,49.5368919373,36.4298858643,140
1.63085578738356E+018,93,1.63085578738356E+018,base_footprint,0,1.63085578738356E+018,map,7.19511632831,-55.263931786,0,0,0,0.704721052653,0.709484487461,0,64.6416244507,29.9506053925,57.1446609497,93.6497573853,46.2432441711,46.2432441711,64.6416244507,64.6416244507,33.0168685913,2.5211391449,0,0.00363778602332,1.99449944496,0.00793335027993,0.0115711363032,5.74938392639,0.16104722023,-0.42406463623,-0.00454879598692,3.25498199463,0.0657595694065,3.8881111145,0.105354644358,35.6999893188,93.225692749,49.4982261658,36.9049797058,144
1.63085578748413E+018,94,1.63085578748413E+018,base_footprint,0,1.63085578748413E+018,map,7.1961427323,-55.1503369598,0,0,0,0.703471045391,0.710723918478,0,64.9546508789,31.985294342,56.8058624268,94.3446960449,46.1829833984,46.1829833984,64.9546508789,64.9546508789,29.2334098816,2.6053583622,0,0.00323044275865,2.13274550438,0.00884383637458,0.0120742786676,4.05027008057,0.112396463752,-1.04751586914,-0.0112277334556,3.2982711792,0.0666569843888,7.1512260437,0.196545213461,36.0355644226,93.2971801758,49.4812545776,36.3846359253,152
1.63085578758418E+018,95,1.63085578758418E+018,base_footprint,0,1.63085578758418E+018,map,7.19924108969,-55.0447826973,0,0,0,0.70286072605,0.711327491227,0,64.861366272,30.5233898163,59.6977233887,94.5793838501,46.0402755737,46.0402755737,64.861366272,64.861366272,30.2161598206,2.59023284912,0,0.00138438830618,2.20376205444,0.0117831872776,0.0103987995535,5.29551124573,0.147841259837,-1.10792541504,-0.0118530876935,3.61698150635,0.0728389322758,5.95032119751,0.164525851607,35.818901062,93.4714584351,49.6572570801,36.1664810181,142
1.63085578768393E+018,96,1.63085578768393E+018,base_footprint,0,1.63085578768393E+018,map,7.19841770854,-54.8814880623,0,0,0,0.704446446378,0.709757144511,0,64.7233734131,31.6888046265,57.6767845154,93.9974517822,45.8806037903,45.8806037903,64.7233734131,64.7233734131,28.8805713654,2.66904020309,0,0.00261854170822,2.4325273037,0.00448586326092,0.00710440473631,4.17278289795,0.116358011961,-0.235153198242,-0.00250797183253,3.86359786987,0.0776693075895,6.16378974915,0.175885349512,35.8615875244,93.762298584,49.7442016602,35.0443611145,141
1.63085578778432E+018,97,1.63085578778432E+018,base_footprint,0,1.63085578778432E+018,map,7.19909177745,-54.7128321148,0,0,0,0.705141239887,0.709066874005,0,63.8739852905,30.3529415131,55.1708030701,92.1646270752,45.6613426208,45.6613426208,63.8739852905,63.8739852905,35.2034301758,2.65255665779,0,0.00154359603766,2.55353307724,0.00102316052653,0.00256675644778,5.3909740448,0.150822147727,1.64991760254,0.0175870135427,4.04139328003,0.0813112854958,-0.814445495605,-0.0236833244562,35.7439155579,93.8145446777,49.7027359009,34.3889846802,150
1.63085578788396E+018,98,1.63085578788396E+018,base_footprint,0,1.63085578788396E+018,map,7.19774844857,-54.6446584617,0,0,0,0.704966101347,0.709240999909,0,63.9488830566,23.1125526428,53.3290596008,91.7940826416,45.4251289368,45.4251289368,63.9488830566,63.9488830566,29.9701595306,2.56051588058,0,0.0037570015993,2.67676734924,0.00222819461487,0.00152880710084,12.5810317993,0.352473199368,2.08052062988,0.0221627634019,4.33373260498,0.0870946869254,3.66039466858,0.108841344714,35.6935844421,93.8746032715,49.7588615417,33.6305541992,147
1.630855787984E+018,99,1.630855787984E+018,base_footprint,0,1.63085578798401E+018,map,7.19810658818,-54.459785377,0,0,0,0.703038945678,0.711151348772,0,64.1298522949,28.8645687103,55.1514930725,92.8690032959,45.2616844177,45.2616844177,64.1298522949,64.1298522949,28.8172740936,2.22913098335,0,0.00120953354053,2.83368802071,0.00138506898656,0.000175535416929,6.19726371765,0.17675241828,1.03149414062,0.0109849702567,4.50325775146,0.0904905647039,4.16541481018,0.126290947199,35.061832428,93.9004974365,49.7649421692,32.9826889038,137
1.63085578808338E+018,100,1.63085578808338E+018,base_footprint,0,1.63085578808338E+018,map,7.19853202513,-54.3882336375,0,0,0,0.702440343417,0.711742624788,0,64.0695648193,22.1719455719,52.8549118042,92.9772567749,45.2262878418,45.2262878418,64.0695648193,64.0695648193,29.9098491669,2.54183769226,0,0.00191249756608,3.00686073303,0.00198907009326,0.00390156754293,12.3661289215,0.358043372631,1.00620269775,0.0107061676681,4.47268676758,0.0899955555797,2.25309181213,0.0700524151325,34.5380744934,93.9834594727,49.6989746094,32.162940979,139
1.63085578818354E+018,101,1.63085578818354E+018,base_footprint,0,1.63085578818354E+018,map,7.20170580662,-54.1373988872,0,0,0,0.700450079227,0.713701398703,0,64.5450286865,29.7765617371,49.0684356689,94.8852310181,45.1827278137,45.1827278137,64.5450286865,64.5450286865,27.7497634888,2.80702590942,0,0.00331509998068,3.10602736473,0.00291388784535,0.0062289875932,4.2968711853,0.126106202602,-0.654335021973,-0.00694395415485,4.62723922729,0.0928978547454,2.66453170776,0.0876078754663,34.0734329224,94.2308959961,49.809967041,30.4142951965,118
1.63085578828372E+018,102,1.63085578828372E+018,base_footprint,0,1.63085578828373E+018,map,7.20445733117,-54.0096753473,0,0,0,0.700293152464,0.713855377938,0,64.4615020752,24.632352829,49.0254249573,94.469543457,45.3714866638,45.3714866638,64.4615020752,64.4615020752,29.7954101562,2.87143111229,0,0.00391859607771,3.21281766891,0.00678428728133,0.00286569120362,8.76019859314,0.262339890003,-0.251487731934,-0.0026692096144,4.36424255371,0.0877486392856,0.239784240723,0.00798344239593,33.3925514221,94.2180557251,49.7357292175,30.035194397,111
1.63085578838366E+018,103,1.63085578838366E+018,base_footprint,0,1.63085578838366E+018,map,7.21189339165,-53.690191289,0,0,0,0.698376165935,0.715730906734,0,64.3142318726,26.6968326569,49.0764427185,93.7273788452,45.5997238159,45.5997238159,64.3142318726,64.3142318726,32.2393684387,2.89232993126,0,0.000987796345726,3.28513836861,0.0122023429722,0.0112145468593,3.62976455688,0.119689144194,0.263465881348,0.00280310143717,4.26709365845,0.0855697989464,-2.61811065674,-0.088386207819,30.3265972137,93.9908447266,49.8668174744,29.621257782,105
1.63085578848432E+018,104,1.63085578848432E+018,base_footprint,0,1.63085578848432E+018,map,7.21493830619,-53.53980905,0,0,0,0.696849772001,0.717217118635,0,64.2850875854,24.8868770599,52.1218948364,94.2306442261,45.6735954285,45.6735954285,64.2850875854,64.2850875854,35.3735923767,2.82614588737,0,0.000102701640571,3.28353428841,0.0177281331271,0.0176254305989,3.85332107544,0.134074270725,-0.291435241699,-0.00310238124803,4.10132217407,0.08239736408,-6.1524887085,-0.210549503565,28.7401981354,93.9392089844,49.7749176025,29.2211036682,99
1.63085578858421E+018,105,1.63085578858421E+018,base_footprint,0,1.63085578858421E+018,map,7.21941374163,-53.3215665416,0,0,0,0.696923681097,0.717145300986,0,64.3149185181,16.0966720581,54.9896469116,94.4841995239,45.6008110046,45.6008110046,64.3149185181,64.3149185181,34.9632873535,2.93500256538,0,0.000962234218605,3.26768279076,0.0259867999703,0.0269490331411,11.2539558411,0.411469757557,-0.595474243164,-0.00634234026074,4.15985107422,0.0835971832275,-4.91090583801,-0.163411542773,27.3506278992,93.8887252808,49.7606620789,30.0523815155,92
1.63085578868437E+018,106,1.63085578868437E+018,base_footprint,0,1.63085578868438E+018,map,7.23034902011,-52.8353526358,0,0,0,0.699099392634,0.71502450253,0,64.4056396484,17.5544242859,49.0512008667,95.9693756104,45.5816726685,45.5816726685,64.4056396484,64.4056396484,38.4702568054,2.96996068954,0,0.00182864151429,3.20641899109,0.0277037341148,0.0295323748142,7.8161945343,0.308080554008,-2.12448120117,-0.0226382184774,2.86835861206,0.0592024102807,-7.08066558838,-0.225573673844,25.3706188202,93.8448944092,48.4500312805,31.389591217,152
1.63085578878393E+018,107,1.63085578878393E+018,base_footprint,0,1.63085578878393E+018,map,7.24047266128,-52.5083192744,0,0,0,0.700789101767,0.713368512653,0,64.7373962402,24.9652614594,49.0400810242,95.9493179321,45.5975227356,45.5975227356,64.7373962402,64.7373962402,32.5976257324,2.88389253616,0,0.00998276378959,2.97541832924,0.0147413956001,0.0247241593897,1.39780235291,0.0530212409794,-2.50759124756,-0.0268358830363,2.99219512939,0.0615808293223,-1.16916465759,-0.0372008234262,26.3630638123,93.4417266846,48.589717865,31.4284610748,165
