%time,field.header.seq,field.header.stamp,field.header.frame_id,field.pose.header.seq,field.pose.header.stamp,field.pose.header.frame_id,field.pose.pose.position.x,field.pose.pose.position.y,field.pose.pose.position.z,field.pose.pose.orientation.x,field.pose.pose.orientation.y,field.pose.pose.orientation.z,field.pose.pose.orientation.w,field.label,field.main_output,field.scan_score,field.pose_score,field.cov_score,field.lhood_map_score,field.lhood_robot_score,field.lhood_map_score_all,field.lhood_robot_score_all,field.point_angle_diff,field.average_orientation,field.map_average_orientation,field.sensor_div,field.odom_div_x,field.odom_div_w,field.imu_div_w,field.kdtree_div,field.kdtree_div_p,field.cov_div,field.cov_div_p,field.likelihood_div,field.likelihood_div_p,field.normal_diff_div,field.normal_diff_div_p,field.kdtree_average,field.cov_average,field.likelihood_average,field.normal_diff_average,field.map_update_count
1.63084203307023E+018,0,1.63084203307023E+018,base_footprint,0,1.63084203307023E+018,map,-9.6972753716,-0.728157883033,0,0,0,0.999994436276,0.00333577840784,0,66.0789489746,1.02707755566,100,97.9160690308,47.2301597595,47.2301597595,66.0789489746,66.0789489746,33.1624565125,0.0983407124877,0,0.00190527364612,0.0300004202873,0.00849423464388,0.00658896099776,17.7420864105,0.945278525352,-2.02490997314,-0.0211167540401,0.752418518066,0.0156810767949,1.78204727173,0.0509964972734,18.7691631317,95.8911590576,47.9825782776,34.9445037842,192
1.63084203316982E+018,1,1.63084203316982E+018,base_footprint,0,1.63084203316982E+018,map,-9.83397674574,-0.725429886355,0,0,0,0.999948953468,0.0101039823122,0,66.6798400879,18.8948307037,48.4923057556,97.9285430908,47.8578987122,47.8578987122,66.6798400879,66.6798400879,29.1710033417,0.175187274814,0,0.00113137054723,0.0419067107141,0.000611560186371,0.000519810302649,-0.770778656006,-0.0425279438496,-2.01410675049,-0.0209989938885,-0.163162231445,-0.0034209692385,5.09932899475,0.148797184229,18.1240520477,95.9144363403,47.6947364807,34.2703323364,202
1.63084203326986E+018,2,1.63084203326986E+018,base_footprint,0,1.63084203326986E+018,map,-9.96242160117,-0.725668866441,0,0,0,0.999937191847,0.0112076920668,0,66.8133392334,23.0429019928,48.7203674316,97.7802429199,48.3773727417,48.3773727417,66.8133392334,66.8133392334,31.844373703,0.246747642756,0,0.00112157512922,0.0598309077322,0.00103737961035,0.00215895473957,-4.03405570984,-0.212219908834,-1.7498626709,-0.0182219687849,-0.620178222656,-0.0129860686138,1.81087684631,0.0538066662848,19.008846283,96.030380249,47.757194519,33.6552505493,202
1.63084203336995E+018,3,1.63084203336995E+018,base_footprint,0,1.63084203336995E+018,map,-10.3143505777,-0.71880241384,0,0,0,0.999915394161,0.0130078637987,0,67.0769577026,17.0086631775,48.8812866211,97.4025497437,48.7109527588,48.7109527588,67.0769577026,67.0769577026,29.3422431946,0.132324814796,0,0.000445891375421,0.0874368846416,0.00130490702577,0.00175079843029,2.72766876221,0.138205453753,-1.34050750732,-0.0139546012506,-0.777935028076,-0.016229627654,4.59016418457,0.135273754597,19.7363319397,96.0620422363,47.9330177307,33.9324073792,195
1.63084203347035E+018,4,1.63084203347035E+018,base_footprint,0,1.63084203347035E+018,map,-10.5310411673,-0.714177726508,0,0,0,0.999909482893,0.0134545910452,0,67.3535385132,19.0588226318,49.1007156372,97.605430603,48.9006576538,48.9006576538,67.3535385132,67.3535385132,27.142999649,0.133764773607,0,0.000248150841799,0.149984449148,0.000469265447464,0.000221114620217,0.28498840332,0.0147327948362,-1.69462585449,-0.0176687687635,-0.919067382812,-0.0191545840353,6.96136283875,0.204119428992,19.3438110352,95.9108047485,47.981590271,34.1043624878,193
1.63084203357122E+018,5,1.63084203357122E+018,base_footprint,0,1.63084203357122E+018,map,-10.6347376441,-0.712202258512,0,0,0,0.999906270555,0.0136912419198,0,67.5143814087,22.7941169739,48.8841819763,97.9263839722,49.1699676514,49.1699676514,67.5143814087,67.5143814087,28.311794281,0.0355732440948,0,0.0021000362467,0.209550514817,0.00814143475145,0.010241471231,-3.22651863098,-0.164890885353,-1.97989654541,-0.0206354241818,-0.968830108643,-0.0200997348875,5.67292785645,0.166925832629,19.5675983429,95.9464874268,48.2011375427,33.9847221375,187
1.63084203367002E+018,6,1.63084203367002E+018,base_footprint,0,1.63084203367002E+018,map,-10.7463594745,-0.709421420257,0,0,0,0.999906538505,0.0136716588258,0,67.9021148682,25.4602603912,49.026763916,97.7548980713,49.4361763,49.4361763,67.9021148682,67.9021148682,23.5903167725,0.22945445776,0,0.0013891980052,0.272360503674,0.00787466205657,0.00926386006176,-1.7142162323,-0.0721895471215,-2.35065460205,-0.0246388893574,0.736255645752,0.0146745061502,9.98487854004,0.297388553619,23.7460441589,95.4042434692,50.1724319458,33.5751953125,119
1.63084203377013E+018,7,1.63084203377013E+018,base_footprint,0,1.63084203377013E+018,map,-10.8287821584,-0.70751610782,0,0,0,0.999908682931,0.0135139112896,0,68.1148681641,27.0405845642,49.0906143188,97.9639205933,49.6638755798,49.6638755798,68.1148681641,68.1148681641,22.9723052979,-0.0203422922641,0,0.00189522176515,0.313756883144,0.00864412635565,0.0105393482372,-3.60577201843,-0.153863921762,-2.57487487793,-0.0269934013486,0.529502868652,0.0105492575094,10.6983604431,0.317735344172,23.4348125458,95.3890457153,50.1933784485,33.670665741,116
1.63084203387018E+018,8,1.63084203387018E+018,base_footprint,0,1.63084203387018E+018,map,-10.994851488,-0.700390365124,0,0,0,0.999844154703,0.0176540733882,0,68.3295059204,24.2424240112,49.1322975159,98.1964797974,49.9421882629,49.9421882629,68.3295059204,68.3295059204,22.9518928528,0.0183960888535,0,9.96160306386E-05,0.358157783747,0.00830565672368,0.00820604059845,-0.95072555542,-0.0408182144165,-2.63998413086,-0.0276274699718,0.199256896973,0.00397389614955,10.8159713745,0.320303678513,23.2916984558,95.5564956665,50.1414451599,33.7678642273,120
1.63084203397001E+018,9,1.63084203397001E+018,base_footprint,0,1.63084203397001E+018,map,-11.0835670283,-0.695318068225,0,0,0,0.999819993476,0.0189731559047,0,68.4198760986,23.3511581421,49.0374488831,98.0597610474,50.1896362305,50.1896362305,68.4198760986,68.4198760986,23.5055007935,0.0414850451052,0,0.0010418088641,0.393086850643,0.0146645493805,0.0157063584775,-1.43666267395,-0.0655576437712,-2.25844573975,-0.0235742665827,-0.615421295166,-0.0124141406268,10.1739616394,0.302082061768,21.9144954681,95.8013153076,49.5742149353,33.6794624329,142
1.63084203406992E+018,10,1.63084203406992E+018,base_footprint,0,1.63084203406992E+018,map,-11.1592469734,-0.688984597057,0,0,0,0.999798840919,0.0200568615893,0,68.7104568481,20.1053562164,49.0805931091,98.0606918335,50.4117164612,50.4117164612,68.7104568481,68.7104568481,20.6767978668,0.000627298024483,0,0.00090947735589,0.404775649309,0.0184730328619,0.0193825103343,-4.06629753113,-0.253524690866,-1.54127502441,-0.015968548134,-2.31298446655,-0.0480882637203,13.8275814056,0.400748580694,16.0390586853,96.5194168091,48.0987319946,34.5043792725,301
1.6308420341699E+018,11,1.6308420341699E+018,base_footprint,0,1.6308420341699E+018,map,-11.1592469734,-0.688984597057,0,0,0,0.999798840919,0.0200568615893,0,68.6821594238,23.0429019928,49.1542930603,98.0606918335,50.7164077759,50.7164077759,68.6821594238,68.6821594238,24.4768390656,-0.0639688745141,0,0.000867418304551,0.413470566273,0.0242724046111,0.0251398235559,-7.0038433075,-0.436674207449,-1.54127502441,-0.015968548134,-2.61767578125,-0.0544229671359,10.0275402069,0.290616452694,16.0390586853,96.5194168091,48.0987319946,34.5043792725,301
1.63084203427092E+018,12,1.63084203427092E+018,base_footprint,0,1.63084203427092E+018,map,-11.2377926619,-0.686633612398,0,0,0,0.999867981798,0.0162486607,0,68.9431762695,22.4400863647,49.0736541748,98.0665512085,50.923286438,50.923286438,68.9431762695,68.9431762695,22.0338935852,0.018808092922,0,0.000140097210533,0.418978959322,0.030322574079,0.0304626710713,-6.50431251526,-0.408157944679,-1.48545837402,-0.01538042631,-2.99686813354,-0.0625306069851,12.2574653625,0.357450544834,15.9357738495,96.5810928345,47.9264183044,34.2913589478,341
1.63084203437082E+018,13,1.63084203437082E+018,base_footprint,0,1.63084203437082E+018,map,-11.2377926619,-0.686633612398,0,0,0,0.999867981798,0.0162486607,0,69.1139984131,19.5046443939,49.0736541748,98.0665512085,50.9865951538,50.9865951538,69.1139984131,69.1139984131,19.6428012848,0.0704483687878,0,0.00137825193815,0.428574353456,0.032515976578,0.0338942296803,-3.56887054443,-0.223953381181,-1.48545837402,-0.01538042631,-3.06017684937,-0.0638515651226,14.648557663,0.427179276943,15.9357738495,96.5810928345,47.9264183044,34.2913589478,341
1.63084203447081E+018,14,1.63084203447081E+018,base_footprint,0,1.63084203447082E+018,map,-11.3233993076,-0.68168679089,0,0,0,0.999903171352,0.0139157435873,0,68.813949585,17.1122989655,48.8697624207,97.9945602417,51.009147644,51.009147644,68.813949585,68.813949585,25.028055191,-0.0342676341534,0,0.0023611439392,0.43373042345,0.0332969240844,0.0356580689549,-1.30516719818,-0.0825682505965,-1.35455322266,-0.0140164848417,-3.1851272583,-0.0666009932756,8.95748710632,0.263567566872,15.8071317673,96.640007019,47.8240203857,33.9855422974,340
1.63084203467188E+018,15,1.63084203467188E+018,base_footprint,0,1.63084203467188E+018,map,-11.4011615424,-0.675695319899,0,0,0,0.999981172003,0.00613641909235,0,68.7947311401,15.3297681808,48.7956581116,98.197265625,51.0855064392,51.0855064392,68.7947311401,68.7947311401,26.9284801483,-0.0193287692964,0,0.00216845679097,0.49894285202,0.0501337386668,0.0479652807117,0.596963882446,0.0374818816781,-1.50303649902,-0.0155442217365,-3.30530166626,-0.0691772177815,6.78177833557,0.201178476214,15.9267320633,96.694229126,47.7802047729,33.7102584839,341
1.63084203477149E+018,16,1.63084203477149E+018,base_footprint,0,1.63084203477149E+018,map,-11.467669548,-0.673931792044,0,0,0,-0.9999027003,0.0139495495424,0,69.0401535034,29.5900173187,48.8628883362,98.1723251343,51.1610488892,51.1610488892,69.0401535034,69.0401535034,23.2368869781,0.215607970953,0,0.00464940723032,0.522955358028,0.0552925243974,0.0506431162357,-13.4249801636,-0.830494880676,-1.42549133301,-0.0147342430428,-3.34317779541,-0.0699148178101,10.4195194244,0.309585034847,16.1650371552,96.7468338013,47.8178710938,33.6564064026,340
1.63084203487256E+018,17,1.63084203487256E+018,base_footprint,0,1.63084203487256E+018,map,-11.4754354304,-0.671695230865,0,0,0,-0.999870469005,0.0160948815582,0,68.4362487793,23.0769233704,48.8628883362,98.3154907227,51.0480194092,51.0480194092,68.4362487793,68.4362487793,33.4018669128,0.15209902823,0,0.00665902299806,0.548223376274,0.0967858061194,0.0901267826557,-6.91188621521,-0.42758244276,-1.56865692139,-0.0162140391767,-3.23014831543,-0.0675510689616,0.254539489746,0.00756288366392,16.1650371552,96.7468338013,47.8178710938,33.6564064026,340
1.63084203497109E+018,18,1.63084203497109E+018,base_footprint,0,1.63084203497109E+018,map,-11.4754354304,-0.671695230865,0,0,0,-0.999870469005,0.0160948815582,1,68.2707901001,18.5520362854,48.9143295288,98.3154907227,50.8093719482,50.8093719482,68.2707901001,68.2707901001,33.8027839661,0.276282280684,0,0.00778677454218,0.550098657608,0.106289379299,0.0985026061535,-2.38699913025,-0.147664308548,-1.56865692139,-0.0162140391767,-2.99150085449,-0.0625603124499,-0.146377563477,-0.00434917397797,16.1650371552,96.7468338013,47.8178710938,33.6564064026,340
1.63084203507126E+018,19,1.63084203507126E+018,base_footprint,0,1.63084203507126E+018,map,-11.4754354304,-0.671695230865,0,0,0,-0.999870469005,0.0160948815582,1,68.0066146851,16.8509502411,48.9382781982,98.3154907227,50.7900886536,50.7900886536,68.0066146851,68.0066146851,38.3496780396,0.0934297218919,0,0.0117088519037,0.553113698959,0.114490613341,0.102781757712,-0.685913085938,-0.0424318909645,-1.56865692139,-0.0162140391767,-2.97221755981,-0.0621570460498,-4.69327163696,-0.139446601272,16.1650371552,96.7468338013,47.8178710938,33.6564064026,340
1.63084203517015E+018,20,1.63084203517015E+018,base_footprint,0,1.63084203517015E+018,map,-11.4907611937,-0.670978194087,0,0,0,-0.995963061739,0.0897640220375,1,67.9165496826,18.3494300842,48.9334526062,98.3036727905,50.6886901855,50.6886901855,67.9165496826,67.9165496826,38.833152771,0.230894550681,0,0.0198360402137,0.555919229984,0.115105189383,0.0952691435814,-2.13675880432,-0.131795600057,-1.45017242432,-0.0149728450924,-2.91564941406,-0.0610312707722,-5.31633758545,-0.158617034554,16.2126712799,96.8535003662,47.7730407715,33.5168151855,335
1.6308420352709E+018,21,1.6308420352709E+018,base_footprint,0,1.6308420352709E+018,map,-11.4913030298,-0.671319792206,0,0,0,-0.995682497741,0.0928243701387,1,67.2707366943,14.5154466629,48.8700561523,98.2641830444,50.3665847778,50.3665847778,67.2707366943,67.2707366943,46.8368835449,0.205591320992,0,0.0207830108702,0.555767476559,0.113821335137,0.093038327992,1.697224617,0.10468506813,-1.41068267822,-0.0145651185885,-2.59354400635,-0.0542888604105,-13.3200683594,-0.397414505482,16.2126712799,96.8535003662,47.7730407715,33.5168151855,335
1.63084203537008E+018,22,1.63084203537008E+018,base_footprint,0,1.63084203537008E+018,map,-11.4761024977,-0.6471024218,0,0,0,-0.989522136053,0.144381239301,1,67.0764389038,14.5154466629,48.8700561523,98.3101119995,49.9896392822,49.9896392822,67.0764389038,67.0764389038,46.4285964966,0.290402561426,0,0.0210544615984,0.552547037601,0.10998339951,0.088928937912,1.4468536377,0.0906419232488,-1.56881713867,-0.0162166226655,-2.19742965698,-0.0459788255394,-12.6733360291,-0.375447720289,15.9623003006,96.7412948608,47.7922096252,33.7552604675,334
1.63084203547011E+018,23,1.63084203547011E+018,base_footprint,0,1.63084203547011E+018,map,-11.4758973195,-0.647354929046,0,0,0,-0.988371162956,0.152060659727,1,66.8109207153,15.0326795578,48.8659324646,98.39012146,49.6510925293,49.6510925293,66.8109207153,66.8109207153,47.8397216797,0.349876880646,0,0.0209663305432,0.553366780281,0.105061627924,0.0840952917933,0.929620742798,0.0582385212183,-1.64882659912,-0.0170436687768,-1.85888290405,-0.0388951040804,-14.0844612122,-0.417252331972,15.9623003006,96.7412948608,47.7922096252,33.7552604675,334
1.63084203557132E+018,24,1.63084203557132E+018,base_footprint,0,1.63084203557132E+018,map,-11.4758973195,-0.647354929046,0,0,0,-0.988371162956,0.152060659727,1,66.7062454224,11.1299200058,48.8659324646,98.39012146,49.297492981,49.297492981,66.7062454224,66.7062454224,45.9049224854,0.413105994463,0,0.0212188195437,0.550065338612,0.101589381695,0.0803705602884,4.8323802948,0.302737087011,-1.64882659912,-0.0170436687768,-1.50528335571,-0.0314964167774,-12.1496620178,-0.359933882952,15.9623003006,96.7412948608,47.7922096252,33.7552604675,334
1.63084203567163E+018,25,1.63084203567163E+018,base_footprint,0,1.63084203567163E+018,map,-11.4760612313,-0.645893206527,0,0,0,-0.982459825266,0.18647437287,1,66.441368103,4.35886573792,48.7597084045,98.2674331665,48.8511962891,48.8511962891,66.441368103,66.441368103,45.4109954834,0.2663179636,0,0.0207567550242,0.546304523945,0.099502377212,0.0787456259131,11.6034345627,0.72692745924,-1.52613830566,-0.0157754588872,-1.05898666382,-0.0221581440419,-11.6557350159,-0.345301300287,15.9623003006,96.7412948608,47.7922096252,33.7552604675,334
1.63084203577097E+018,26,1.63084203577097E+018,base_footprint,0,1.63084203577097E+018,map,-11.4774101579,-0.646176977007,0,0,0,-0.975356605077,0.22063429682,1,66.480430603,9.88735961914,48.7597084045,98.3598098755,48.4923171997,48.4923171997,66.480430603,66.480430603,41.1645469666,0.246662452817,0,0.0179565809667,0.538565099239,0.0938985422254,0.0759419575334,6.07494068146,0.380580514669,-1.61851501465,-0.0167303420603,-0.700107574463,-0.0146489897743,-7.40928649902,-0.21950019896,15.9623003006,96.7412948608,47.7922096252,33.7552604675,334
1.63084203587185E+018,27,1.63084203587185E+018,base_footprint,0,1.63084203587185E+018,map,-11.4776999411,-0.645908321758,0,0,0,-0.969165373037,0.246411200447,1,66.4672393799,6.37945318222,48.7378234863,98.3497009277,47.9585800171,47.9585800171,66.4672393799,66.4672393799,35.6012954712,0.160870239139,0,0.0171249564737,0.533516645432,0.0883128419518,0.0711878836155,9.58284759521,0.600342512131,-1.60840606689,-0.0166258476675,-0.166370391846,-0.00348111940548,-1.84603500366,-0.0546888075769,15.9623003006,96.7412948608,47.7922096252,33.7552604675,334
1.63084203597356E+018,28,1.63084203597356E+018,base_footprint,0,1.63084203597356E+018,map,-11.4777575656,-0.647536564443,0,0,0,-0.967121616243,0.254314331872,1,66.3358078003,7.0341424942,48.4054908752,98.4472885132,47.6375465393,47.6375465393,66.3358078003,66.3358078003,34.8512191772,0.34250998497,0,0.0175150427967,0.528030157089,0.0799617692828,0.0624467283487,8.9281578064,0.5593277812,-1.70599365234,-0.0176345966756,0.154663085938,0.00323615688831,-1.09595870972,-0.032467789948,15.9623003006,96.7412948608,47.7922096252,33.7552604675,334
1.63084203607006E+018,29,1.63084203607006E+018,base_footprint,0,1.63084203607006E+018,map,-11.4777575656,-0.647536564443,0,0,0,-0.967121616243,0.254314331872,1,65.9117660522,7.20795345306,48.4054908752,98.4472885132,47.2047767639,47.2047767639,65.9117660522,65.9117660522,37.8100547791,0.133395791054,0,0.0174368061125,0.525883972645,0.0769210010767,0.0594841986895,8.75434684753,0.54843890667,-1.70599365234,-0.0176345966756,0.587432861328,0.0122913932428,-4.05479431152,-0.120123334229,15.9623003006,96.7412948608,47.7922096252,33.7552604675,334
1.63084203617456E+018,30,1.63084203617456E+018,base_footprint,0,1.63084203617456E+018,map,-11.4766084164,-0.64571844028,0,0,0,-0.957866378896,0.287214206092,1,65.7337265015,5.70934247971,48.0041465759,98.4608459473,46.8490066528,46.8490066528,65.7337265015,65.7337265015,37.2212219238,0.146234348416,0,0.016302973032,0.523006856441,0.0658914968371,0.0495885238051,10.2529582977,0.642323374748,-1.71955108643,-0.0177747365087,0.943202972412,0.0197354964912,-3.4659614563,-0.102679148316,15.9623003006,96.7412948608,47.7922096252,33.7552604675,334
1.63084203627225E+018,31,1.63084203627225E+018,base_footprint,0,1.63084203627225E+018,map,-11.4771268177,-0.643733284782,0,0,0,-0.947528690766,0.319670737128,1,65.6335983276,5.53885793686,47.5536193848,98.5231552124,46.5400161743,46.5400161743,65.6335983276,65.6335983276,35.9108352661,0.248134464025,0,0.0162743628025,0.522112011909,0.0628145039082,0.0465401448309,10.4234428406,0.653003811836,-1.78186035156,-0.0184188187122,1.25219345093,0.0262007862329,-2.15557479858,-0.0638589262962,15.9623003006,96.7412948608,47.7922096252,33.7552604675,334
1.63084203637245E+018,32,1.63084203637245E+018,base_footprint,0,1.63084203637245E+018,map,-11.4771268177,-0.643733284782,0,0,0,-0.947528690766,0.319670737128,1,65.3631057739,3.26797389984,47.1364364624,98.5231552124,46.1193504333,46.1193504333,65.3631057739,65.3631057739,36.2364883423,0.150040119886,0,0.0160550680012,0.515933871269,0.056641574949,0.0405865088105,12.6943264008,0.79526925087,-1.78186035156,-0.0184188187122,1.67285919189,0.0350027605891,-2.48122787476,-0.0735064074397,15.9623003006,96.7412948608,47.7922096252,33.7552604675,334
1.63084203657365E+018,33,1.63084203657365E+018,base_footprint,0,1.63084203657365E+018,map,-11.4740206764,-0.643052069196,0,0,0,-0.935621504185,0.353004817114,1,64.7822570801,0,46.6854286194,98.2612228394,45.8758354187,45.8758354187,64.7822570801,64.7822570801,43.1188354492,-0.110337376595,0,0.016002997756,0.507241606712,0.0521572567523,0.0361542589962,15.9623003006,1,-1.51992797852,-0.0157112628222,1.91637420654,0.0400980450213,-9.36357498169,-0.277396023273,15.9623003006,96.7412948608,47.7922096252,33.7552604675,334
1.63084203667224E+018,34,1.63084203667224E+018,base_footprint,0,1.63084203667224E+018,map,-11.4734646612,-0.643480619983,0,0,0,-0.923443419938,0.383734609037,1,64.7447433472,2.69792127609,46.6854286194,98.3256530762,45.4980278015,45.4980278015,64.7447433472,64.7447433472,39.9456062317,0.07654479146,0,0.0166325308383,0.502193748951,0.0489488095045,0.0323162823915,13.2643795013,0.830981731415,-1.58435821533,-0.0163772683591,2.29418182373,0.0480032600462,-6.19034576416,-0.18338906765,15.9623003006,96.7412948608,47.7922096252,33.7552604675,334
1.63084203677175E+018,35,1.63084203677175E+018,base_footprint,0,1.63084203677175E+018,map,-11.4714252753,-0.642282959699,0,0,0,-0.90932820427,0.416079580031,1,64.3922729492,0,46.3123283386,98.472366333,45.2098197937,45.2098197937,64.3922729492,64.3922729492,43.7056884766,0.299412995577,0,0.0136337205768,0.491759985685,0.0378709547222,0.024237236008,15.9623003006,1,-1.73107147217,-0.0178938210011,2.58238983154,0.0540336966515,-9.95042800903,-0.294781535864,15.9623003006,96.7412948608,47.7922096252,33.7552604675,334
1.63084203687056E+018,36,1.63084203687056E+018,base_footprint,0,1.63084203687056E+018,map,-11.4705778269,-0.639553175779,0,0,0,-0.894612416722,0.446842952106,1,64.1444091797,0,46.3123283386,98.3418502808,44.8902854919,44.8902854919,64.1444091797,64.1444091797,44.2464256287,0.199089318514,0,0.014192679897,0.455565810204,0.0339726470411,0.0197799671441,15.9623003006,1,-1.60055541992,-0.0165446978062,2.9019241333,0.0607196055353,-10.4911651611,-0.310800880194,15.9623003006,96.7412948608,47.7922096252,33.7552604675,334
1.63084203697177E+018,37,1.63084203697177E+018,base_footprint,0,1.63084203697178E+018,map,-11.4705778269,-0.639553175779,0,0,0,-0.894612416722,0.446842952106,1,64.1767501831,0,46.3123283386,98.3418502808,44.4911117554,44.4911117554,64.1767501831,64.1767501831,39.3531494141,0.563431799412,0,0.0143984667957,0.424102813005,0.0308432783931,0.0164448115975,15.9623003006,1,-1.60055541992,-0.0165446978062,3.30109786987,0.0690718814731,-5.59788894653,-0.165837526321,15.9623003006,96.7412948608,47.7922096252,33.7552604675,334
1.63084203707422E+018,38,1.63084203707422E+018,base_footprint,0,1.63084203707422E+018,map,-11.4680667343,-0.639622838932,0,0,0,-0.878305731645,0.47809940573,1,63.7999725342,0,45.9876441956,98.2076339722,44.1812858582,44.1812858582,63.7999725342,63.7999725342,42.3058433533,0.575876891613,0,0.0140447095037,0.39230415225,0.01910495013,0.00506023969501,15.9623003006,1,-1.46633911133,-0.0151573233306,3.61092376709,0.0755546540022,-8.55058288574,-0.253311127424,15.9623003006,96.7412948608,47.7922096252,33.7552604675,334
1.63084203717016E+018,39,1.63084203717016E+018,base_footprint,0,1.63084203717016E+018,map,-11.4637377967,-0.639702179815,0,0,0,-0.842643056127,0.538472543368,1,63.9347686768,0,45.7597961426,98.1697998047,44.0261192322,44.0261192322,63.9347686768,63.9347686768,38.0675506592,0.534633994102,0,0.0137320002541,0.336183696985,0.00924554467201,0.00448645604774,15.9623003006,1,-1.42850494385,-0.0147662376985,3.76609039307,0.0788013413548,-4.31229019165,-0.127751648426,15.9623003006,96.7412948608,47.7922096252,33.7552604675,334
1.63084203727078E+018,40,1.63084203727078E+018,base_footprint,0,1.63084203727078E+018,map,-11.4625566993,-0.639520690772,0,0,0,-0.84166365427,0.54000212322,0,63.6791419983,3.16742086411,45.5679512024,98.3984985352,44.0873565674,44.0873565674,63.6791419983,63.6791419983,44.1534957886,0.283234506845,0,0.0132806384936,0.306353449821,0.00377506227233,0.00950557552278,12.7948799133,0.801568686962,-1.65720367432,-0.0171302612871,3.70485305786,0.0775200203061,-10.398235321,-0.308047860861,15.9623003006,96.7412948608,47.7922096252,33.7552604675,334
1.63084203737074E+018,41,1.63084203737074E+018,base_footprint,0,1.63084203737074E+018,map,-11.4661451541,-0.639062280044,0,0,0,-0.826541711362,0.562875474131,0,63.8294296265,3.16742086411,45.4495315552,98.1159210205,44.1878509521,44.1878509521,63.8294296265,63.8294296265,41.5163955688,0.308337986469,0,0.0123983258381,0.286132454872,0.00272268569097,0.0151210119948,12.7948799133,0.801568686962,-1.37462615967,-0.0142093012109,3.6043586731,0.0754172876477,-7.76113510132,-0.229923725128,15.9623003006,96.7412948608,47.7922096252,33.7552604675,334
1.6308420374702E+018,42,1.6308420374702E+018,base_footprint,0,1.6308420374702E+018,map,-11.4669483016,-0.639282834684,0,0,0,-0.825367161848,0.564596358598,0,63.9496078491,3.65910148621,45.3881149292,98.1397399902,44.3076477051,44.3076477051,63.9496078491,63.9496078491,40.7327232361,0.386866569519,0,0.0120546277612,0.275829493999,0.00587631482631,0.0179309416562,12.3031988144,0.770766019821,-1.39844512939,-0.0144555140287,3.48456192017,0.0729106664658,-6.97746276855,-0.206707417965,15.9623003006,96.7412948608,47.7922096252,33.7552604675,334
1.63084203757131E+018,43,1.63084203757131E+018,base_footprint,0,1.63084203757132E+018,map,-11.4639744123,-0.637456078093,0,0,0,-0.804687829748,0.593698152815,0,63.9274635315,5.88235282898,45.4674568176,98.3854827881,44.3284225464,44.3284225464,63.9274635315,63.9274635315,42.2403640747,0.361942797899,0,0.0067428201437,0.236695230007,0.0205801483244,0.0273229684681,10.0799474716,0.631484627724,-1.64418792725,-0.0169957205653,3.46378707886,0.072475977242,-8.48510360718,-0.25137129426,15.9623003006,96.7412948608,47.7922096252,33.7552604675,334
1.63084203767195E+018,44,1.63084203767195E+018,base_footprint,0,1.63084203767195E+018,map,-11.4639744123,-0.637456078093,0,0,0,-0.804687829748,0.593698152815,0,63.9235877991,5.1799826622,45.7842941284,98.3854827881,44.4299087524,44.4299087524,63.9235877991,63.9235877991,43.4062080383,0.241228371859,0,0.00553843658417,0.231092572212,0.0235223118216,0.0290607493371,10.7823181152,0.675486505032,-1.64418792725,-0.0169957205653,3.3623008728,0.0703524872661,-9.6509475708,-0.285909444094,15.9623003006,96.7412948608,47.7922096252,33.7552604675,334
1.63084203777226E+018,45,1.63084203777226E+018,base_footprint,0,1.63084203777226E+018,map,-11.4614185391,-0.637606924796,0,0,0,-0.783912586063,0.620871208393,0,63.6740341187,4.35886573792,46.1679496765,98.4679946899,44.4689331055,44.4689331055,63.6740341187,63.6740341187,48.6166419983,0.0699214488268,0,0.00358744128607,0.220870479941,0.02967036888,0.0332578085363,11.6034345627,0.72692745924,-1.7266998291,-0.0178486332297,3.32327651978,0.0695359483361,-14.8613815308,-0.440268605947,15.9623003006,96.7412948608,47.7922096252,33.7552604675,334
1.63084203797153E+018,46,1.63084203797153E+018,base_footprint,0,1.63084203797153E+018,map,-11.4614185391,-0.637606924796,0,0,0,-0.783912586063,0.620871208393,0,63.940574646,1.24516963959,46.6137390137,98.4679946899,44.4366378784,44.4366378784,63.940574646,63.940574646,43.4701042175,0.315389871597,0,0.0023019653745,0.206442087889,0.0372115820646,0.0395135506988,14.717130661,0.921993076801,-1.7266998291,-0.0178486332297,3.35557174683,0.0702116861939,-9.71484375,-0.287802368402,15.9623003006,96.7412948608,47.7922096252,33.7552604675,334
1.6308420381719E+018,47,1.6308420381719E+018,base_footprint,0,1.6308420381719E+018,map,-11.4598128159,-0.638584238559,0,0,0,-0.764972525742,0.644062912191,0,63.9025306702,3.42405629158,46.6137390137,98.6604156494,44.4825248718,44.4825248718,63.9025306702,63.9025306702,45.3432197571,0.228419065475,0,0.00241414038464,0.192360088229,0.0439668744802,0.0463810153306,12.5382442474,0.78549104929,-1.91912078857,-0.0198376588523,3.30968475342,0.0692515522242,-11.5879592896,-0.343293428421,15.9623003006,96.7412948608,47.7922096252,33.7552604675,334
1.63084203827075E+018,48,1.63084203827075E+018,base_footprint,0,1.63084203827075E+018,map,-11.4598128159,-0.638584238559,0,0,0,-0.764972525742,0.644062912191,0,64.4368972778,1.50478792191,46.9859008789,98.6604156494,44.4676055908,44.4676055908,64.4368972778,64.4368972778,35.5634689331,0.588668167591,0,0.00224465457723,0.187899932265,0.0469000414014,0.0491446964443,14.4575119019,0.905728578568,-1.91912078857,-0.0198376588523,3.32460403442,0.0695637241006,-1.80820846558,-0.0535681992769,15.9623003006,96.7412948608,47.7922096252,33.7552604675,334
1.63084203837007E+018,49,1.63084203837007E+018,base_footprint,0,1.63084203837007E+018,map,-11.4576605456,-0.637605394608,0,0,0,-0.749168894676,0.66237902084,0,64.3677368164,0.314324200153,46.9859008789,98.885269165,44.3926010132,44.3926010132,64.3677368164,64.3677368164,36.8077964783,0.555008172989,0,0.00162666139659,0.184661820531,0.0498987659812,0.0515254288912,15.6479759216,0.980308353901,-2.1439743042,-0.0221619345248,3.39960861206,0.0711331143975,-3.05253601074,-0.0904314145446,15.9623003006,96.7412948608,47.7922096252,33.7552604675,334
1.63084203967004E+018,50,1.63084203967004E+018,base_footprint,0,1.63084203967004E+018,map,-11.4552221361,-0.641666323394,0,0,0,-0.710823883519,0.703370035343,0,64.43309021,2.41678071022,47.1003913879,99.0410766602,44.3386116028,44.3386116028,64.43309021,64.43309021,35.6093025208,0.72140866518,0,0.0249532554299,0.00131440139376,0.230792179704,0.205838918686,13.5455198288,0.848594486713,-2.29978179932,-0.0237724930048,3.45359802246,0.0722627788782,-1.85404205322,-0.0549260191619,15.9623003006,96.7412948608,47.7922096252,33.7552604675,334
1.63084203977475E+018,51,1.63084203977475E+018,base_footprint,0,1.63084203977475E+018,map,-11.4552221361,-0.641666323394,0,0,0,-0.710823883519,0.703370035343,0,64.6823883057,0,46.8310775757,99.0410766602,44.446105957,44.446105957,64.6823883057,64.6823883057,32.282875061,0.793023645878,0,0.0309219118208,2.98133181786E-05,0.313482671976,0.282560765743,15.9623003006,1,-2.29978179932,-0.0237724930048,3.34610366821,0.0700135827065,1.47238540649,0.0436194352806,15.9623003006,96.7412948608,47.7922096252,33.7552604675,334
1.63084203987286E+018,52,1.63084203987286E+018,base_footprint,0,1.63084203987286E+018,map,-11.4552221361,-0.641666323394,0,0,0,-0.710823883519,0.703370035343,0,64.803894043,1.06951868534,46.8310775757,99.0410766602,44.4886169434,44.4886169434,64.803894043,64.803894043,30.5547733307,0.652290642262,0,0.0323267020285,0.000247086019954,0.328523218632,0.296196490526,14.8927812576,0.93299716711,-2.29978179932,-0.0237724930048,3.30359268188,0.0691240802407,3.20048713684,0.0948144719005,15.9623003006,96.7412948608,47.7922096252,33.7552604675,334
1.6308420399725E+018,53,1.6308420399725E+018,base_footprint,0,1.6308420399725E+018,map,-11.4552221361,-0.641666323394,0,0,0,-0.710823883519,0.703370035343,0,64.7285919189,1.96078431606,46.8310775757,99.0410766602,44.4799041748,44.4799041748,64.7285919189,64.7285919189,31.81615448,0.727412104607,0,0.036030381918,0.000287489499897,0.354127913713,0.318097501993,14.0015163422,0.877161562443,-2.29978179932,-0.0237724930048,3.31230545044,0.0693063884974,1.93910598755,0.0574460402131,15.9623003006,96.7412948608,47.7922096252,33.7552604675,334
1.63084204007233E+018,54,1.63084204007233E+018,base_footprint,0,1.63084204007233E+018,map,-11.4552221361,-0.641666323394,0,0,0,-0.710823883519,0.703370035343,0,64.5934524536,0,46.8310775757,99.0410766602,44.3800048828,44.3800048828,64.5934524536,64.5934524536,33.1698417664,0.579276382923,0,0.0374872498214,0.000264111440629,0.363477051258,0.32598978281,15.9623003006,1,-2.29978179932,-0.0237724930048,3.41220474243,0.0713966712356,0.585418701172,0.0173430368304,15.9623003006,96.7412948608,47.7922096252,33.7552604675,334
1.63084204017089E+018,55,1.63084204017089E+018,base_footprint,0,1.63084204017089E+018,map,-11.4601775732,-0.635290702367,0,0,0,-0.724418935464,0.689359997346,0,64.4565963745,0,46.8310775757,98.9868469238,44.3404655457,44.3404655457,64.4565963745,64.4565963745,35.0108833313,0.935025453568,0,0.0398939028382,0.000437349197455,0.37700676918,0.337112873793,15.9623003006,1,-2.24555206299,-0.0232119280845,3.45174407959,0.0722239911556,-1.25562286377,-0.037197843194,15.9623003006,96.7412948608,47.7922096252,33.7552604675,334
1.6308420402723E+018,56,1.6308420402723E+018,base_footprint,0,1.6308420402723E+018,map,-11.4601265559,-0.633789044719,0,0,0,-0.724778897662,0.688981530597,0,64.4055023193,2.57352948189,46.8310775757,99.0155181885,44.2759513855,44.2759513855,64.4055023193,64.4055023193,35.3370742798,0.717382907867,0,0.0428869016469,0.000736089132261,0.385842740536,0.342955827713,13.3887710571,0.838774561882,-2.27422332764,-0.0235082991421,3.51625823975,0.0735738798976,-1.58181381226,-0.0468612536788,15.9623003006,96.7412948608,47.7922096252,33.7552604675,334
1.63084204037002E+018,57,1.63084204037002E+018,base_footprint,0,1.63084204037002E+018,map,-11.4601776325,-0.636760638581,0,0,0,-0.748484708398,0.663152049906,0,64.481338501,1.02707755566,46.8310775757,99.0356903076,44.1951828003,44.1951828003,64.481338501,64.481338501,33.1723175049,0.569988012314,0,0.0468134768307,0.000123213772895,0.380368024111,0.333554536104,14.9352226257,0.935656011105,-2.29439544678,-0.023716814816,3.59702682495,0.0752638727427,0.582942962646,0.0172696914524,15.9623003006,96.7412948608,47.7922096252,33.7552604675,334
1.63084204047003E+018,58,1.63084204047003E+018,base_footprint,0,1.63084204047003E+018,map,-11.4584214328,-0.637070786043,0,0,0,-0.792083699699,0.610412493869,0,64.6278305054,1.80639183521,46.8310775757,99.0393981934,44.1583404541,44.1583404541,64.6278305054,64.6278305054,30.1509170532,0.646123051643,0,0.0483307689428,0.000157326343469,0.37295755744,0.324626773596,14.1559085846,0.886833846569,-2.29810333252,-0.0237551443279,3.63386917114,0.0760347619653,3.60434341431,0.106778718531,15.9623003006,96.7412948608,47.7922096252,33.7552604675,334
1.63084204057004E+018,59,1.63084204057004E+018,base_footprint,0,1.63084204057004E+018,map,-11.4589727144,-0.636998668525,0,0,0,-0.813094545963,0.582131651197,0,64.4527206421,4.17457294464,46.5515937805,99.1649856567,44.3489570618,44.3489570618,64.4527206421,64.4527206421,35.813747406,0.295602351427,0,0.0464954189956,0.000145421523484,0.338503032923,0.292007595301,11.787727356,0.738472998142,-2.4236907959,-0.0250533223152,3.44325256348,0.0720463171601,-2.05848693848,-0.0609827004373,15.9623003006,96.7412948608,47.7922096252,33.7552604675,334
1.63084204067021E+018,60,1.63084204067021E+018,base_footprint,0,1.63084204067021E+018,map,-11.4582939664,-0.638080327448,0,0,0,-0.850579924938,0.525845786607,0,64.2317047119,12.6838235855,46.4112129211,99.2763671875,44.6335945129,44.6335945129,64.2317047119,64.2317047119,43.2670593262,0.229233533144,0,0.0451986305416,0.000246297946433,0.326454669237,0.281256049871,3.27847671509,0.205388739705,-2.53507232666,-0.0262046549469,3.1586151123,0.0660905838013,-9.51179885864,-0.281787157059,15.9623003006,96.7412948608,47.7922096252,33.7552604675,334
1.63084204077094E+018,61,1.63084204077094E+018,base_footprint,0,1.63084204077094E+018,map,-11.4441417213,-0.63949600477,0,0,0,-0.870181956137,0.492730517843,0,65.1208877563,17.9206562042,46.2011451721,99.2886734009,44.9927139282,44.9927139282,65.1208877563,65.1208877563,31.1845855713,0.105912134051,0,0.0426843501627,0.00164456653874,0.303791075945,0.261106729507,-1.95835590363,-0.122686319053,-2.54737854004,-0.0263318624347,2.79949569702,0.0585764013231,2.57067489624,0.0761562734842,15.9623003006,96.7412948608,47.7922096252,33.7552604675,334
1.63084204087094E+018,62,1.63084204087094E+018,base_footprint,0,1.63084204087094E+018,map,-11.4434165478,-0.643527568986,0,0,0,-0.887024041233,0.461723239912,0,65.1380615234,15.5815000534,45.9402694702,99.2836303711,45.1987876892,45.1987876892,65.1380615234,65.1380615234,33.0828857422,0.190020918846,0,0.0418420620263,0.00261055701412,0.290787488222,0.248945429921,0.380800247192,0.0238562263548,-2.54233551025,-0.0262797344476,2.59342193604,0.0542645342648,0.672374725342,0.0199191085994,15.9623003006,96.7412948608,47.7922096252,33.7552604675,334
1.63084204097065E+018,63,1.63084204097065E+018,base_footprint,0,1.63084204097065E+018,map,-11.4434047545,-0.643971974637,0,0,0,-0.902756955926,0.430150995033,0,65.4309997559,14.0989732742,45.9402694702,99.2243041992,45.4439888,45.4439888,65.4309997559,65.4309997559,30.2445411682,0.211695089936,0,0.0412385910749,0.00341084133834,0.281627207994,0.24038861692,1.86332702637,0.116732992232,-2.48300933838,-0.0256664883345,2.3482208252,0.0491339676082,3.51071929932,0.104005098343,15.9623003006,96.7412948608,47.7922096252,33.7552604675,334
1.63084204106999E+018,64,1.63084204106999E+018,base_footprint,0,1.63084204106999E+018,map,-11.4430240628,-0.641459940277,0,0,0,-0.917943683934,0.396710717179,0,65.4339065552,12.2315597534,45.8515510559,99.0649032593,45.7368888855,45.7368888855,65.4339065552,65.4339065552,32.7817344666,0.0693705901504,0,0.0407733097672,0.00672033522278,0.262778282166,0.222004979849,3.73074054718,0.233721986413,-2.32360839844,-0.0240187849849,2.05532073975,0.0430053509772,0.973526000977,0.0288407187909,15.9623003006,96.7412948608,47.7922096252,33.7552604675,334
1.63084204116994E+018,65,1.63084204116994E+018,base_footprint,0,1.63084204116994E+018,map,-11.4511842719,-0.645816248116,0,0,0,-0.939471880344,0.342626014836,0,65.4111862183,13.3606929779,45.5927658081,99.0035934448,45.6833572388,45.6833572388,65.4111862183,65.4111862183,32.3918380737,0.210265517235,0,0.0404211096466,0.0090142916888,0.247087404132,0.20666629076,2.60160732269,0.162984490395,-2.26229858398,-0.0233850348741,2.10885238647,0.0441254414618,1.3634223938,0.0403914041817,15.9623003006,96.7412948608,47.7922096252,33.7552604675,334
1.63084204127002E+018,66,1.63084204127002E+018,base_footprint,0,1.63084204127002E+018,map,-11.458885501,-0.650909091231,0,0,0,-0.953131474581,0.302556428064,0,65.6795501709,7.9696393013,45.3818969727,98.8001251221,45.8053436279,45.8053436279,65.6795501709,65.6795501709,28.146238327,0.0854021161795,0,0.0359833538532,0.014448412694,0.225716859102,0.189733505249,7.9926609993,0.500721156597,-2.05883026123,-0.0212818142027,1.98686599731,0.041573010385,5.6090221405,0.166167348623,15.9623003006,96.7412948608,47.7922096252,33.7552604675,334
1.63084204137002E+018,67,1.63084204137002E+018,base_footprint,0,1.63084204137002E+018,map,-11.4656556518,-0.644928081123,0,0,0,-0.962354222442,0.271798363771,1,65.3308868408,14.6110057831,45.3165817261,98.7927627563,45.8530349731,45.8530349731,65.3308868408,65.3308868408,34.9107818604,0.117919243872,0,0.0306836739182,0.0282814335078,0.134517148137,0.103833481669,1.35129451752,0.0846553742886,-2.05146789551,-0.0212057102472,1.9391746521,0.0405751205981,-1.15552139282,-0.0342323370278,15.9623003006,96.7412948608,47.7922096252,33.7552604675,334
1.63084204147004E+018,68,1.63084204147004E+018,base_footprint,0,1.63084204147004E+018,map,-11.4744312732,-0.650526290166,0,0,0,-0.971075023857,0.238774575783,1,65.1891403198,15.4411764145,45.3535232544,98.649269104,45.7364807129,45.7364807129,65.1891403198,65.1891403198,35.6868438721,0.0546802505851,0,0.0203987751156,0.0305433683097,0.0319756269455,0.0523744039237,0.521123886108,0.0326471664011,-1.90797424316,-0.0197224393487,2.05572891235,0.0430138930678,-1.93158340454,-0.0572231821716,15.9623003006,96.7412948608,47.7922096252,33.7552604675,334
1.6308420415708E+018,69,1.6308420415708E+018,base_footprint,0,1.6308420415708E+018,map,-11.4814146209,-0.653914712239,0,0,0,-0.97719654627,0.212336784277,1,65.6593475342,20.3334884644,45.5891799927,98.5065841675,45.9423599243,45.9423599243,65.6593475342,65.6593475342,28.9328746796,0.330261766911,0,0.0910490304232,0.0239355955273,0.15331351757,0.0622644983232,-4.37118816376,-0.273844510317,-1.76528930664,-0.018247526139,1.84984970093,0.0387060940266,4.82238578796,0.142863243818,15.9623003006,96.7412948608,47.7922096252,33.7552604675,334
1.63084204166998E+018,70,1.63084204166998E+018,base_footprint,0,1.63084204166998E+018,map,-11.5086471132,-0.664927029894,0,0,0,-0.969589170077,0.244738311816,1,65.1720275879,0,45.8583145142,98.3136138916,45.0637512207,45.0637512207,65.1720275879,65.1720275879,27.5210437775,0.985032141209,0,0.121102400124,0.0180443581194,0.219809889793,0.0987074822187,16.2126712799,1,-1.46011352539,-0.015075485222,2.70928955078,0.0567116849124,5.99577140808,0.178888455033,16.2126712799,96.8535003662,47.7730407715,33.5168151855,335
1.63084204177069E+018,71,1.63084204177069E+018,base_footprint,0,1.63084204177069E+018,map,-11.516524483,-0.668753244985,0,0,0,-0.959935576983,0.280220784459,1,63.7963790894,0,46.0424957275,98.0001068115,44.3288040161,44.3288040161,63.7963790894,63.7963790894,43.2166175842,0.309387415648,0,0.126384004951,0.0348379760981,0.235323265195,0.108939252794,16.2126712799,1,-1.14660644531,-0.0118385646492,3.44423675537,0.0720958262682,-9.69980239868,-0.289401084185,16.2126712799,96.8535003662,47.7730407715,33.5168151855,335
1.6308420418701E+018,72,1.6308420418701E+018,base_footprint,0,1.6308420418701E+018,map,-11.5258545043,-0.67649584099,0,0,0,-0.949170691875,0.314761811033,1,63.5455131531,0,46.0424957275,97.9645690918,43.4646720886,43.4646720886,63.5455131531,63.5455131531,38.2716560364,0.990747690201,0,0.127629205585,0.0384683609009,0.230768054724,0.103138849139,16.2126712799,1,-1.11106872559,-0.0114716421813,4.30836868286,0.0901840999722,-4.75484085083,-0.141864344478,16.2126712799,96.8535003662,47.7730407715,33.5168151855,335
1.63084204197131E+018,73,1.63084204197131E+018,base_footprint,0,1.63084204197131E+018,map,-11.5258545043,-0.67649584099,0,0,0,-0.949170691875,0.314761811033,1,63.3852882385,0,46.2313499451,97.9645690918,42.879447937,42.879447937,63.3852882385,63.3852882385,34.8352928162,1.07226073742,0,0.130251049995,0.0472641885281,0.22103753686,0.0907864868641,16.2126712799,1,-1.11106872559,-0.0114716421813,4.89359283447,0.102434195578,-1.31847763062,-0.0393377952278,16.2126712799,96.8535003662,47.7730407715,33.5168151855,335
1.63084204207004E+018,74,1.63084204207004E+018,base_footprint,0,1.63084204207004E+018,map,-11.5357901134,-0.683907262826,0,0,0,-0.936305054235,0.351187763758,1,62.8473052979,0,46.3366165161,97.6368179321,42.3441734314,42.3441734314,62.8473052979,62.8473052979,37.5581359863,1.09032952785,0,0.132337152958,0.0567335560918,0.20934702456,0.0770098641515,16.1199455261,1,-0.781143188477,-0.00806502252817,5.47138977051,0.114426963031,-4.03400802612,-0.120331481099,16.1199455261,96.8556747437,47.8155632019,33.5241279602,339
1.63084204217006E+018,75,1.63084204217006E+018,base_footprint,0,1.63084204217006E+018,map,-11.5871134631,-0.750786559228,0,0,0,-0.89049190267,0.454999089317,1,62.7062225342,0,46.3366165161,97.6795043945,41.6652259827,41.6652259827,62.7062225342,62.7062225342,32.9186592102,0.977291166782,0,0.130534797907,0.074066400528,0.191867366433,0.0613325722516,16.7353515625,1,-0.778739929199,-0.00803646817803,6.22383117676,0.12996353209,0.216205596924,0.00652501825243,16.7353515625,96.9007644653,47.8890571594,33.1348648071,358
1.63084204227028E+018,76,1.63084204227028E+018,base_footprint,0,1.63084204227028E+018,map,-11.6119211263,-0.788719601793,0,0,0,-0.86935227709,0.494192895861,1,62.4169197083,0.452488690615,46.289691925,97.8576049805,41.2894706726,41.2894706726,62.4169197083,62.4169197083,34.7090873718,0.447043448687,0,0.129652813077,0.0832748264074,0.17734721303,0.0476944074035,16.5250797272,0.973347902298,-0.943580627441,-0.00973626505584,6.61638641357,0.138112261891,-1.60571670532,-0.0485061407089,16.9775676727,96.914024353,47.9058570862,33.1033706665,364
1.63084204236997E+018,77,1.63084204236997E+018,base_footprint,0,1.63084204236997E+018,map,-11.6612665289,-0.864545677526,0,0,0,-0.834670372384,0.550749824752,1,62.4100875854,0,46.0615234375,98.583114624,41.1059799194,41.1059799194,62.4100875854,62.4100875854,35.4622039795,0.64360922575,0,0.127711310983,0.0759058222175,0.200330555439,0.0726192444563,17.6899909973,1,-1.55595397949,-0.016036272049,6.84455871582,0.142742067575,-2.86354446411,-0.0878423973918,17.6899909973,97.0271606445,47.9505386353,32.5986595154,375
1.63084204246981E+018,78,1.63084204246981E+018,base_footprint,0,1.63084204246981E+018,map,-11.6897638709,-0.942231001814,0,0,0,-0.793245802908,0.608901548831,1,62.8431396484,5.35161447525,45.5231132507,98.8653945923,41.382598877,41.382598877,62.8431396484,62.8431396484,31.6709938049,0.52884376049,0,0.132954880595,0.069610349834,0.294039189816,0.16108430922,12.4695529938,0.699704647064,-1.76979064941,-0.0182272996753,6.56121063232,0.13685208559,0.838851928711,0.0258030109107,17.8211669922,97.0956039429,47.9438095093,32.5098457336,375
1.63084204257001E+018,79,1.63084204257001E+018,base_footprint,0,1.63084204257001E+018,map,-11.7079425244,-1.03168565414,0,0,0,-0.751112767889,0.660173923988,1,63.0542373657,4.97737550735,44.6151542664,99.0126647949,41.8404922485,41.8404922485,63.0542373657,63.0542373657,33.3466644287,0.426378428936,0,0.138924241066,0.0685677230358,0.2777813375,0.138857096434,13.3595085144,0.728559374809,-1.82331848145,-0.0187604762614,6.10256195068,0.127287715673,-1.04565048218,-0.0323720648885,18.3368835449,97.1893463135,47.9430541992,32.3010139465,380
1.63084204267085E+018,80,1.63084204267085E+018,base_footprint,0,1.63084204267085E+018,map,-11.7172452391,-1.10420048267,0,0,0,-0.732974098299,0.680256548092,1,63.4438476562,8.19964313507,43.4853401184,98.9660110474,42.2753829956,42.2753829956,63.4438476562,63.4438476562,30.8625450134,0.580145418644,0,0.136844798923,0.0574610121548,0.250661492348,0.113816678524,10.5181722641,0.561933755875,-1.70909118652,-0.0175729524344,5.68899917603,0.118608824909,1.12219238281,0.0350852459669,18.7178153992,97.2569198608,47.9643821716,31.9847373962,375
1.63084204277009E+018,81,1.63084204277009E+018,base_footprint,0,1.63084204277009E+018,map,-11.6978470138,-1.08816991075,0,0,0,-0.729840909456,0.683617032325,1,63.4987220764,7.49887752533,42.717792511,99.0123977661,42.6081504822,42.6081504822,63.4987220764,63.4987220764,33.6356315613,0.620186805725,0,0.131856516004,0.0507528781891,0.235156729817,0.103300221264,11.2189378738,0.599372208118,-1.75547790527,-0.018049903214,5.35623168945,0.111671023071,-1.65089416504,-0.0516150593758,18.7178153992,97.2569198608,47.9643821716,31.9847373962,375
1.6308420428715E+018,82,1.6308420428715E+018,base_footprint,0,1.6308420428715E+018,map,-11.7011051309,-1.17423454757,0,0,0,-0.719495088602,0.694497528777,1,63.6281242371,8.88987159729,41.6634178162,98.9779968262,42.8916969299,42.8916969299,63.6281242371,63.6281242371,34.2448692322,0.423640906811,0,0.130258485675,0.0460050068796,0.22649563849,0.0962371453643,14.5935573578,0.621440649033,-1.39267730713,-0.0142713813111,5.71692657471,0.11761136353,-4.89094543457,-0.166619822383,23.4834289551,97.585319519,48.6086235046,29.3539237976,239
1.63084204296992E+018,83,1.63084204296992E+018,base_footprint,0,1.63084204296992E+018,map,-11.7003147431,-1.17483587167,0,0,0,-0.719338108355,0.694660122555,1,64.0847015381,10.23965168,40.4860610962,98.9790496826,43.1343765259,43.1343765259,64.0847015381,64.0847015381,28.6511573792,0.488247036934,0,0.130118712783,0.0401335917413,0.215460628271,0.0853419080377,13.2437772751,0.563962697983,-1.39373016357,-0.0142821706831,5.47424697876,0.112618841231,0.702766418457,0.0239411406219,23.4834289551,97.585319519,48.6086235046,29.3539237976,239
1.63084204307032E+018,84,1.63084204307032E+018,base_footprint,0,1.63084204307032E+018,map,-11.7008869335,-1.26675996131,0,0,0,-0.713658844734,0.70049343561,0,64.2842330933,10.8996543884,39.2641487122,98.9239273071,43.5003509521,43.5003509521,64.2842330933,64.2842330933,28.8137836456,0.539617776871,0,0.126231014729,0.0259453449398,0.196248054504,0.0700170323253,15.5671768188,0.588176846504,-1.00823974609,-0.0102970199659,5.62228012085,0.114453971386,-0.571458816528,-0.0202341284603,26.4668312073,97.915687561,49.122631073,28.2423248291,199
1.63084204317034E+018,85,1.63084204317034E+018,base_footprint,0,1.63084204317034E+018,map,-11.7000748339,-1.35717152674,0,0,0,-0.711005231359,0.703186718433,0,64.4685745239,11.1299200058,38.2069511414,98.7506103516,43.7762145996,43.7762145996,64.4685745239,64.4685745239,27.8509864807,0.766557276249,0,0.125132903457,0.00185601017438,0.177315756679,0.0521828532219,15.5615301132,0.583015561104,-0.836608886719,-0.00854432303458,5.47300720215,0.111128807068,0.323738098145,0.0114903729409,26.691450119,97.9140014648,49.2492218018,28.1747245789,199
1.63084204597026E+018,86,1.63084204597026E+018,base_footprint,0,1.63084204597026E+018,map,-11.7110852347,-2.45328015303,0,0,0,-0.71358162805,0.70057209487,0,64.4193954468,12.6297578812,37.2066917419,98.0302429199,44.1493301392,44.1493301392,64.4193954468,64.4193954468,30.1725788116,0.689060807228,0,0.00780222238973,0.13237786293,0.0266185645014,0.0344207845628,19.1426887512,0.602493405342,-0.0649337768555,-0.000662824197207,5.19543838501,0.105288535357,1.15359115601,0.036825157702,31.7724456787,97.9653091431,49.3447685242,31.3261699677,102
1.63084204607013E+018,87,1.63084204607013E+018,base_footprint,0,1.63084204607013E+018,map,-11.7110852347,-2.45328015303,0,0,0,-0.71358162805,0.70057209487,0,64.3363494873,24.9786872864,35.2348518372,98.0302429199,44.7872962952,44.7872962952,64.3363494873,64.3363494873,38.557434082,0.579904317856,0,0.00740251457319,0.169573426247,0.0265849698335,0.0339874848723,6.79375839233,0.21382547915,-0.0649337768555,-0.000662824197207,4.557472229,0.0923597887158,-7.23126411438,-0.230837792158,31.7724456787,97.9653091431,49.3447685242,31.3261699677,102
1.63084204617002E+018,88,1.63084204617002E+018,base_footprint,0,1.63084204617002E+018,map,-11.7110852347,-2.45328015303,0,0,0,-0.71358162805,0.70057209487,0,64.9203567505,27.2111721039,35.2348518372,98.0302429199,45.4272727966,45.4272727966,64.9203567505,64.9203567505,34.956993103,0.55086171627,0,0.00881952885538,0.263529956341,0.0374745465815,0.0462940745056,4.56127357483,0.143560662866,-0.0649337768555,-0.000662824197207,3.91749572754,0.0793902948499,-3.63082313538,-0.115903832018,31.7724456787,97.9653091431,49.3447685242,31.3261699677,102
1.63084204627039E+018,89,1.63084204627039E+018,base_footprint,0,1.63084204627039E+018,map,-11.7110852347,-2.45328015303,0,0,0,-0.71358162805,0.70057209487,0,65.8078460693,12.3904876709,35.2348518372,98.0302429199,45.920715332,45.920715332,65.8078460693,65.8078460693,24.3113956451,0.173556894064,0,0.0118451602757,0.290940195322,0.045229665935,0.0570748262107,19.3819580078,0.610024094582,-0.0649337768555,-0.000662824197207,3.42405319214,0.0693904012442,7.01477432251,0.223926976323,31.7724456787,97.9653091431,49.3447685242,31.3261699677,102
1.63084204637075E+018,90,1.63084204637075E+018,base_footprint,0,1.63084204637076E+018,map,-11.7100643259,-2.38022002636,0,0,0,-0.718153399052,0.695884829142,0,66.0762252808,7.0341424942,35.2348518372,97.4424972534,46.2824897766,46.2824897766,66.0762252808,66.0762252808,21.2717952728,0.0205830670893,0,0.0134064434096,0.2910554111,0.0488187037408,0.0622251480818,24.4911270142,0.776872873306,0.508560180664,0.00519198272377,3.1294593811,0.0633340626955,10.0701656342,0.321299791336,31.525270462,97.9510574341,49.4119491577,31.341960907,109
1.63084204647069E+018,91,1.63084204647069E+018,base_footprint,0,1.63084204647069E+018,map,-11.7100643259,-2.38022002636,0,0,0,-0.718153399052,0.695884829142,0,65.9566574097,4.88110160828,35.2348518372,97.4424972534,46.840057373,46.840057373,65.9566574097,65.9566574097,29.4457950592,0.0875033214688,0,0.0122465277091,0.280408620834,0.0521602630615,0.0644067898393,26.6441688538,0.845168590546,0.508560180664,0.00519198272377,2.57189178467,0.052049998194,1.89616584778,0.0604992732406,31.525270462,97.9510574341,49.4119491577,31.341960907,109
1.63084204657006E+018,92,1.63084204657006E+018,base_footprint,0,1.63084204657006E+018,map,-11.7059338912,-2.29713449423,0,0,0,-0.721650465952,0.692257614614,0,66.2248535156,7.25633335114,35.2348518372,97.2472915649,47.4115257263,47.4115257263,66.2248535156,66.2248535156,30.0874023438,0.0520560331643,0,0.0140738282353,0.267292410135,0.0514358319342,0.0655096620321,23.1548881531,0.761392891407,0.723731994629,0.00738720456138,2.0747756958,0.0419262647629,1.2206993103,0.0389898866415,30.4112224579,97.9710235596,49.4863014221,31.3081016541,123
1.63084204667015E+018,93,1.63084204667015E+018,base_footprint,0,1.63084204667015E+018,map,-11.7023438554,-2.20394417787,0,0,0,-0.722430109041,0.691443951128,0,65.9548721313,7.43944644928,33.5629692078,97.159942627,48.0034599304,48.0034599304,65.9548721313,65.9548721313,41.0254211426,0.0375236161053,0,0.0124988444149,0.258493870497,0.0525961555541,0.065094999969,22.4477653503,0.751082599163,0.788887023926,0.00805407296866,1.59978103638,0.0322515442967,-9.5917930603,-0.305144309998,29.8872127533,97.9488296509,49.6032409668,31.4336280823,141
1.63084204676995E+018,94,1.63084204676995E+018,base_footprint,0,1.63084204676995E+018,map,-11.7000210055,-2.13758149318,0,0,0,-0.721315343724,0.692606796753,0,66.1231842041,7.43944644928,32.3254203796,97.4525222778,48.5288505554,48.5288505554,66.1231842041,66.1231842041,44.7233009338,-0.0103001948446,0,0.013830607757,0.250311076641,0.0537960343063,0.0676266402006,22.3179702759,0.749996900558,0.506614685059,0.00517169386148,1.08578491211,0.0218843668699,-13.177110672,-0.417708456516,29.7574176788,97.9591369629,49.6146354675,31.5461902618,150
1.63084204686999E+018,95,1.63084204686999E+018,base_footprint,0,1.63084204686999E+018,map,-11.7000210055,-2.13758149318,0,0,0,-0.721315343724,0.692606796753,0,66.6159057617,10.23965168,31.1328430176,97.4525222778,49.0804100037,49.0804100037,66.6159057617,66.6159057617,41.8112449646,-0.0180920623243,0,0.00975120905787,0.233113780618,0.0402193889022,0.0499705970287,19.5177650452,0.655895769596,0.506614685059,0.00517169386148,0.534225463867,0.0107674971223,-10.2650547028,-0.325397610664,29.7574176788,97.9591369629,49.6146354675,31.5461902618,150
1.63084204696999E+018,96,1.63084204696999E+018,base_footprint,0,1.63084204696999E+018,map,-11.6921578961,-1.99278360978,0,0,0,-0.721775517734,0.692127229633,0,66.9236373901,24.4951705933,30.2240810394,97.4249267578,49.6178894043,49.6178894043,66.9236373901,66.9236373901,41.9775009155,0.394988030195,0,0.0106730405241,0.207070603967,0.0313597396016,0.0420327819884,4.93906974792,0.167800143361,0.522155761719,0.00533099845052,0.0291938781738,0.000588028051425,-11.0808925629,-0.35864430666,29.4342403412,97.9470825195,49.6470832825,30.8966083527,187
1.6308420470704E+018,97,1.6308420470704E+018,base_footprint,0,1.6308420470704E+018,map,-11.6921578961,-1.99278360978,0,0,0,-0.721775517734,0.692127229633,0,67.1845932007,12.8540306091,29.4640674591,97.4249267578,50.1983222961,50.1983222961,67.1845932007,67.1845932007,43.5489387512,0.0112707521766,0,0.00989709701389,0.172781154513,0.0245695821941,0.0344666801393,16.5802097321,0.563296675682,0.522155761719,0.00533099845052,-0.551239013672,-0.0111031504348,-12.6523303986,-0.409505486488,29.4342403412,97.9470825195,49.6470832825,30.8966083527,187
1.63084204717016E+018,98,1.63084204717016E+018,base_footprint,0,1.63084204717016E+018,map,-11.6874125943,-1.91316640407,0,0,0,-0.722154370584,0.691731931493,0,67.5735473633,14.9849720001,29.203950882,97.5825119019,50.7142562866,50.7142562866,67.5735473633,67.5735473633,42.6871757507,-0.0242362469435,0,0.00741134118289,0.151138886809,0.0205785464495,0.0279898885638,14.6878795624,0.49499386549,0.355339050293,0.00362820969895,-1.03931427002,-0.0209223050624,-12.0277442932,-0.392301619053,29.6728515625,97.9378509521,49.6749420166,30.6594314575,195
1.63084204727007E+018,99,1.63084204727007E+018,base_footprint,0,1.63084204727007E+018,map,-11.6835756693,-1.83521706982,0,0,0,-0.722741597734,0.691118356655,0,68.4201431274,17.5611858368,29.0997905731,97.3219833374,51.2107162476,51.2107162476,68.4201431274,68.4201431274,31.8723163605,0.0590280517936,0,0.0043289992027,0.129499271512,0.0216579735279,0.0259869731963,10.5021286011,0.37422978878,0.627136230469,0.00640267366543,-1.51760864258,-0.0305396206677,-0.733791351318,-0.0235653854907,28.0633144379,97.9491195679,49.693107605,31.1385250092,189
1.63084204736983E+018,100,1.63084204736983E+018,base_footprint,0,1.63084204736983E+018,map,-11.6805434697,-1.76417487748,0,0,0,-0.722342284606,0.691535699636,0,68.2768630981,18.6200790405,29.2565345764,97.3028411865,51.6279907227,51.6279907227,68.2768630981,68.2768630981,38.8889389038,-0.00259553082287,0,0.00435493467376,0.116325564682,0.0216320380569,0.0259869731963,9.03210830688,0.326632678509,0.641456604004,0.00654919818044,-1.85837936401,-0.0373396389186,-7.88351821899,-0.254262566566,27.6521873474,97.9442977905,49.7696113586,31.0054206848,191
1.6308420474707E+018,101,1.6308420474707E+018,base_footprint,0,1.6308420474707E+018,map,-11.6768105625,-1.69368841917,0,0,0,-0.723499034103,0.690325392589,0,68.8745040894,17.6470584869,29.9395751953,97.4604721069,51.9967308044,51.9967308044,68.8745040894,68.8745040894,32.6812782288,-0.0286244358867,0,0.00346107245423,0.106531582773,0.0222792159766,0.025740288198,10.0779476166,0.363496690989,0.463684082031,0.00473513500765,-2.20485687256,-0.0442814603448,-2.44496917725,-0.0808620229363,27.7250061035,97.924156189,49.7918739319,30.2363090515,197
1.63084204757036E+018,102,1.63084204757036E+018,base_footprint,0,1.63084204757036E+018,map,-11.6768105625,-1.69368841917,0,0,0,-0.723499034103,0.690325392589,0,69.1190567017,18.832649231,29.9395751953,97.4604721069,52.3040313721,52.3040313721,69.1190567017,69.1190567017,31.5981788635,-0.0398048311472,0,0.00325819430873,0.104652941227,0.0222232192755,0.0254814140499,8.89235687256,0.320734173059,0.463684082031,0.00473513500765,-2.51215744019,-0.0504531599581,-1.36186981201,-0.0450408756733,27.7250061035,97.924156189,49.7918739319,30.2363090515,197
1.63084204767039E+018,103,1.63084204767039E+018,base_footprint,0,1.63084204767039E+018,map,-11.6768105625,-1.69368841917,0,0,0,-0.723499034103,0.690325392589,0,69.6231002808,20.3619918823,31.0047073364,97.4604721069,52.5320892334,52.5320892334,69.6231002808,69.6231002808,24.988494873,0.0874920785427,0,0.00367233972065,0.100484110415,0.0218090731651,0.0254814140499,7.36301422119,0.265573054552,0.463684082031,0.00473513500765,-2.74021530151,-0.0550333820283,5.24781417847,0.173560008407,27.7250061035,97.924156189,49.7918739319,30.2363090515,197
1.63084204776979E+018,104,1.63084204776979E+018,base_footprint,0,1.63084204776979E+018,map,-11.6742678319,-1.60503139305,0,0,0,-0.721839428903,0.692060574575,0,69.4094924927,21.2669677734,31.0047073364,97.4935760498,52.7565727234,52.7565727234,69.4094924927,69.4094924927,31.376996994,-0.128904446959,0,0.00405475730076,0.0973792076111,0.0214266553521,0.0254814140499,5.99436378479,0.219885215163,0.401672363281,0.0041030831635,-3.03371810913,-0.0610125474632,-1.98332977295,-0.0674747303128,27.2613315582,97.8952484131,49.7228546143,29.3936672211,193
1.63084204787096E+018,105,1.63084204787096E+018,base_footprint,0,1.63084204787097E+018,map,-11.6710986409,-1.54208600974,0,0,0,-0.721241632337,0.6926835553,0,69.8036346436,16.7420806885,32.4591331482,97.4697494507,52.9332237244,52.9332237244,69.8036346436,69.8036346436,26.1044254303,0.0216440223157,0,0.00447336537763,0.0890546292067,0.0210080482066,0.0254814140499,10.3293151855,0.381558269262,0.436386108398,0.00445718877017,-3.25915145874,-0.0656107142568,3.02035903931,0.103704079986,27.071395874,97.9061355591,49.6740722656,29.1247844696,200
1.63084204797115E+018,106,1.63084204797115E+018,base_footprint,0,1.63084204797116E+018,map,-11.6710986409,-1.54208600974,0,0,0,-0.721241632337,0.6926835553,0,69.921836853,19.7446422577,32.4591331482,97.4697494507,53.0003662109,53.0003662109,69.921836853,69.921836853,24.7020263672,0.00868947058916,0,0.00378670101054,0.0826120376587,0.0216947123408,0.0254814140499,7.32675361633,0.270645588636,0.436386108398,0.00445718877017,-3.32629394531,-0.0669623762369,4.42275810242,0.151855483651,27.071395874,97.9061355591,49.6740722656,29.1247844696,200
1.63084204807116E+018,107,1.63084204807116E+018,base_footprint,0,1.63084204807116E+018,map,-11.6710986409,-1.54208600974,0,0,0,-0.721241632337,0.6926835553,0,69.5604782104,17.5544242859,34.086643219,97.4697494507,53.0782814026,53.0782814026,69.5604782104,69.5604782104,32.0479621887,-0.135724291205,0,0.00393899064511,0.0804583802819,0.0215424224734,0.0254814140499,9.51697158813,0.35155081749,0.436386108398,0.00445718877017,-3.40420913696,-0.0685309022665,-2.92317771912,-0.100367359817,27.071395874,97.9061355591,49.6740722656,29.1247844696,200
