%time,field.header.seq,field.header.stamp,field.header.frame_id,field.pose.header.seq,field.pose.header.stamp,field.pose.header.frame_id,field.pose.pose.position.x,field.pose.pose.position.y,field.pose.pose.position.z,field.pose.pose.orientation.x,field.pose.pose.orientation.y,field.pose.pose.orientation.z,field.pose.pose.orientation.w,field.label,field.main_output,field.scan_score,field.pose_score,field.cov_score,field.lhood_map_score,field.lhood_robot_score,field.lhood_map_score_all,field.lhood_robot_score_all,field.point_angle_diff,field.average_orientation,field.map_average_orientation,field.sensor_div,field.odom_div_x,field.odom_div_w,field.imu_div_w,field.kdtree_div,field.kdtree_div_p,field.cov_div,field.cov_div_p,field.likelihood_div,field.likelihood_div_p,field.normal_diff_div,field.normal_diff_div_p,field.kdtree_average,field.cov_average,field.likelihood_average,field.normal_diff_average,field.map_update_count
1.63085776565297E+018,0,1.63085776565297E+018,base_footprint,0,1.63085776565297E+018,map,-1.90842685671,5.15056719123,0,0,0,0.00326760313263,0.999994661371,0,60.4932823181,14.6834306717,100,96.6605072021,39.923664093,39.923664093,60.4932823181,60.4932823181,50.2743148804,-1.08605921268,0,0.00197270559147,4.0872964859,0.00256962049752,0.00454232608899,10.5627775192,0.418390661478,-0.853446960449,-0.00890797562897,8.21775054932,0.170700237155,-5.6085357666,-0.125566735864,25.2462081909,95.8070602417,48.1414146423,44.6657791138,322
1.63085776575261E+018,1,1.63085776575261E+018,base_footprint,0,1.63085776575261E+018,map,-1.78557567359,5.14886368661,0,0,0,0.00280788407909,0.999996057886,0,60.6601486206,22.8543872833,48.1037826538,96.159072876,40.3649024963,40.3649024963,60.6601486206,60.6601486206,50.2309608459,-1.6937391758,0,0.000849739008117,4.08630800247,0.00303468620405,0.00388442515396,1.90982246399,0.0771202668548,-0.382476806641,-0.0039934264496,7.50944519043,0.156857386231,-5.28204727173,-0.117512233555,24.7642097473,95.7765960693,47.8743476868,44.9489135742,301
1.63085776585257E+018,2,1.63085776585257E+018,base_footprint,0,1.63085776585257E+018,map,-1.70466475843,5.14671603473,0,0,0,0.00286478529057,0.999995896494,0,61.2248916626,20.3036060333,48.2534103394,97.08959198,40.6784133911,40.6784133911,61.2248916626,61.2248916626,46.8013305664,-2.0941836834,0,0.000298037892208,4.10699653625,0.00283532124013,0.00253728334792,3.82147789001,0.158402681351,-1.26522064209,-0.0132035370916,7.02587890625,0.147279798985,-1.3345489502,-0.0293521750718,24.1250839233,95.8243713379,47.7042922974,45.4667816162,271
1.63085776595282E+018,3,1.63085776595282E+018,base_footprint,0,1.63085776595282E+018,map,-1.63075506256,5.14450014031,0,0,0,0.00368277289389,0.999993218569,0,61.3323898315,24.7058830261,48.2534103394,97.0212249756,41.0913734436,41.0913734436,61.3323898315,61.3323898315,49.0802307129,-1.67590856552,0,0.00257981917821,4.10381650925,0.00425851205364,0.00167869287543,-1.38607788086,-0.0594378001988,-1.21517944336,-0.0126837445423,6.39250564575,0.134624749422,-3.23104476929,-0.0704711452127,23.3198051453,95.8060455322,47.4838790894,45.8491859436,246
1.63085776605338E+018,4,1.63085776605338E+018,base_footprint,0,1.63085776605338E+018,map,-1.45587556418,5.14590128681,0,0,0,0.00334679859326,0.999994399454,0,61.4208984375,21.882352829,48.4334182739,96.0442504883,41.5102348328,41.5102348328,61.4208984375,61.4208984375,48.4936637878,-1.41868698597,0,0.00162769760936,4.0974612236,0.00100781396031,0.000619883765467,1.74729347229,0.0739449709654,-0.256309509277,-0.00267580151558,5.91889572144,0.124794520438,-2.56038665771,-0.0557414330542,23.6296463013,95.787940979,47.4291305542,45.9332771301,241
1.63085776615373E+018,5,1.63085776615373E+018,base_footprint,0,1.63085776615373E+018,map,-1.36643416415,5.14354776102,0,0,0,0.00517562007145,0.999986606389,0,61.9757766724,23.1499042511,48.5807991028,96.9965820312,41.902759552,41.902759552,61.9757766724,61.9757766724,46.1735572815,-1.80872237682,0,0.00051987671759,4.09017944336,0.00015893157979,0.000678808311932,0.687307357788,0.028833379969,-1.24478912354,-0.0130001651123,5.53385925293,0.116657964885,0.0992202758789,0.00214424729347,23.8372116089,95.7517929077,47.4366188049,46.2727775574,234
1.63085776625304E+018,6,1.63085776625304E+018,base_footprint,0,1.63085776625304E+018,map,-1.22847626144,5.14360260962,0,0,0,0.00340647306165,0.999994197954,0,62.1130447388,22.8235301971,48.7448959351,97.4199295044,42.1852836609,42.1852836609,62.1130447388,62.1130447388,48.2780036926,-1.21314668655,0,0.000579018669669,4.10142755508,0.000278013845673,0.000301004794892,1.00994682312,0.0423751361668,-1.6110534668,-0.0168152842671,5.14770507812,0.108755126595,-1.94102096558,-0.0418892391026,23.8334770203,95.8088760376,47.332988739,46.3369827271,229
1.63085776635283E+018,7,1.63085776635283E+018,base_footprint,0,1.63085776635283E+018,map,-1.12345035062,5.14521391696,0,0,0,0.00491014917643,0.999987945145,0,62.0662918091,22.8543872833,48.9087715149,97.3527832031,42.4446258545,42.4446258545,62.0662918091,62.0662918091,51.6787147522,-0.874427855015,0,8.83232278284E-05,4.10296058655,0.00127780402545,0.00118948076852,1.29970359802,0.053808838129,-1.4234085083,-0.0148380883038,4.78239440918,0.101263947785,-5.57836151123,-0.121004745364,24.1540908813,95.9293746948,47.2270202637,46.100353241,263
1.63085776645271E+018,8,1.63085776645271E+018,base_footprint,0,1.63085776645271E+018,map,-1.04178323867,5.14689254741,0,0,0,0.00534529952249,0.999985713784,0,62.1335105896,19.9614276886,48.8120727539,97.2992019653,42.6796684265,42.6796684265,62.1335105896,62.1335105896,52.8143920898,-0.949869990349,0,0.00274170027114,4.08970499039,0.00233459356241,0.00507629383355,4.44421005249,0.182097688317,-1.35540771484,-0.0141271017492,4.56118774414,0.0965517610312,-6.68999099731,-0.145042344928,24.4056377411,95.9437942505,47.2408561707,46.1244010925,265
1.63085776655298E+018,9,1.63085776655298E+018,base_footprint,0,1.63085776655298E+018,map,-0.885517455379,5.14874785687,0,0,0,0.00465166751492,0.999989180936,0,62.344078064,17.6470584869,48.8658370972,96.7562789917,42.9133682251,42.9133682251,62.344078064,62.344078064,49.5935554504,-0.586230695248,0,0.00119953893591,4.09644699097,0.00444940617308,0.00564894499257,6.80374145508,0.278262525797,-0.82349395752,-0.00858407188207,4.29317092896,0.0909444093704,-3.60671615601,-0.0784293115139,24.450799942,95.9327850342,47.2065391541,45.9868392944,297
1.63085776665294E+018,10,1.63085776665294E+018,base_footprint,0,1.63085776665294E+018,map,-0.762366656859,5.15031325195,0,0,0,0.00277832740047,0.999996140441,0,62.5317802429,19.9209098816,48.9639549255,96.4938201904,43.1472434998,43.1472434998,62.5317802429,62.5317802429,47.7959442139,-1.61542797089,0,0.0014710027026,4.09274768829,0.00407026987523,0.00554127246141,4.48924827576,0.183909013867,-0.609825134277,-0.00636003073305,4.05614852905,0.0859291777015,-2.61075210571,-0.0577789321542,24.4101581573,95.8839950562,47.2033920288,45.1851921082,366
1.63085776675284E+018,11,1.63085776675284E+018,base_footprint,0,1.63085776675284E+018,map,-0.615988564308,5.15404627352,0,0,0,0.00181090247935,0.999998360315,0,62.9734916687,25.6965942383,49.7585105896,95.2638320923,43.5342712402,43.5342712402,62.9734916687,62.9734916687,39.5970458984,-1.59609663486,0,0.00125567161012,4.06427383423,0.00699097383767,0.00824664533138,-0.803010940552,-0.0322577469051,0.612884521484,0.00639242306352,3.43776321411,0.0731874480844,5.30504608154,0.118146970868,24.8935832977,95.8767166138,46.9720344543,44.90209198,473
1.63085776685302E+018,12,1.63085776685302E+018,base_footprint,0,1.63085776685302E+018,map,-0.523323599335,5.15481454848,0,0,0,0.0026181056083,0.999996572756,0,62.975025177,22.9567928314,53.7642784119,95.3645858765,43.8250923157,43.8250923157,62.975025177,62.975025177,43.0730743408,-1.01103281975,0,0.000176192843355,3.98505711555,0.0102867884561,0.0101105952635,1.91102409363,0.0768472775817,0.510620117188,0.00532588269562,3.13603591919,0.066779397428,1.91775512695,0.0426254682243,24.867816925,95.8752059937,46.9611282349,44.9908294678,474
1.63085776695355E+018,13,1.63085776695355E+018,base_footprint,0,1.63085776695355E+018,map,-0.427762824374,5.15480209447,0,0,0,0.00223201787752,0.999997509045,0,62.5290908813,19.607843399,53.8931846619,95.2465209961,43.8800849915,43.8800849915,62.5290908813,62.5290908813,51.2687301636,-0.834933578968,0,0.00144659343641,3.90499377251,0.00982789415866,0.00838130060583,4.76141166687,0.195386022329,0.618186950684,0.00644853524864,3.10398483276,0.0660646259785,-6.03745651245,-0.133479699492,24.3692550659,95.8647079468,46.9840698242,45.2312736511,415
1.6308577670534E+018,14,1.6308577670534E+018,base_footprint,0,1.6308577670534E+018,map,-0.304923567807,5.15510566876,0,0,0,0.00167273249617,0.999998600982,0,62.7450218201,15.6862745285,48.9648246765,95.6508789062,43.8770751953,43.8770751953,62.7450218201,62.7450218201,48.8052062988,-0.932447075844,0,0.00120940688066,3.69461560249,0.00705006020144,0.00825946684927,7.82107448578,0.332707643509,0.284057617188,0.0029609403573,3.31652450562,0.0702748820186,-3.294921875,-0.0723995044827,23.5073490143,95.9349365234,47.1935997009,45.5102844238,405
1.63085776715278E+018,15,1.63085776715278E+018,base_footprint,0,1.63085776715278E+018,map,-0.148576022842,5.15696076621,0,0,0,0.00330572462176,0.999994536077,0,62.8888969421,25.0474376678,48.8897972107,96.3363418579,44.0175933838,44.0175933838,62.8888969421,62.8888969421,50.2007102966,-1.16962039471,0,0.00390040269122,3.51790761948,0.00666949059814,0.010569893755,-2.02709960938,-0.0880568996072,-0.49893951416,-0.00520610436797,3.04382324219,0.0646776780486,-4.03592300415,-0.0874242708087,23.0203380585,95.8374023438,47.061416626,46.1647872925,341
1.63085776725263E+018,16,1.63085776725263E+018,base_footprint,0,1.63085776725263E+018,map,-0.0518823960699,5.1546096251,0,0,0,0.00261286186553,0.999996586471,0,62.7045974731,25.3945484161,48.8430099487,96.6004104614,44.193069458,44.193069458,62.7045974731,62.7045974731,56.3638763428,-1.76828789711,0,0.0089764771983,3.37127494812,0.00654397904873,0.015520456247,-2.37852859497,-0.103342309594,-0.775489807129,-0.00809277780354,2.80159378052,0.0596151463687,-9.99905776978,-0.215660452843,23.0160198212,95.8249206543,46.9946632385,46.364818573,331
1.63085776735272E+018,17,1.63085776735272E+018,base_footprint,0,1.63085776735272E+018,map,0.0287821591504,5.1534790428,0,0,0,0.00121259929183,0.999999264801,0,62.6880455017,20.9411773682,48.7108764648,96.4380569458,44.2305641174,44.2305641174,62.6880455017,62.6880455017,56.4822616577,-1.24550557137,0,0.00338924839161,3.13763713837,0.0131144020706,0.0165036506951,2.12875938416,0.0922741740942,-0.64134979248,-0.00669490452856,2.78034973145,0.0591426454484,-10.0134963989,-0.215488761663,23.0699367523,95.7967071533,47.0109138489,46.4687652588,336
1.63085776745285E+018,18,1.63085776745285E+018,base_footprint,0,1.63085776745285E+018,map,0.114544630425,5.15338170081,0,0,0,0.00267623788756,0.999996418869,0,63.8036804199,19.0588226318,48.7175521851,97.3037185669,44.3507080078,44.3507080078,63.8036804199,63.8036804199,40.8147659302,-2.44977092743,0,0.0051107048057,2.99062824249,0.0108941653743,0.0160048697144,3.83961105347,0.167680069804,-1.48086547852,-0.0154541991651,2.61273193359,0.0556333176792,5.65946578979,0.121776424348,22.8984336853,95.8228530884,46.9634399414,46.47423172,320
1.63085776755287E+018,19,1.63085776755287E+018,base_footprint,0,1.63085776755287E+018,map,0.190434616203,5.15701877713,0,0,0,0.00411055690821,0.999991551625,0,64.3194274902,17.0684661865,48.7112007141,97.5121002197,44.4189147949,44.4189147949,64.3194274902,64.3194274902,33.0181007385,-2.79393434525,0,0.0020842012018,2.80206775665,0.0106599023566,0.0127441035584,5.43446350098,0.241500258446,-1.66497802734,-0.0173711851239,2.50413513184,0.053366843611,13.868473053,0.295787721872,22.5029296875,95.8471221924,46.9230499268,46.8865737915,291
1.63085776765338E+018,20,1.63085776765338E+018,base_footprint,0,1.63085776765338E+018,map,0.266868116061,5.15861581764,0,0,0,0.00674262517864,0.999977268244,0,63.7294311523,11.2825460434,48.641204834,96.9904403687,44.2786636353,44.2786636353,63.7294311523,63.7294311523,40.2454223633,-2.75231385231,0,0.0040863188915,2.67221212387,0.0083089126274,0.0123952319846,10.9613733292,0.492780655622,-1.13807678223,-0.0118732256815,2.41373062134,0.0516943000257,6.72498321533,0.143174901605,22.2439193726,95.8523635864,46.6923942566,46.9704055786,310
1.63085776775359E+018,21,1.63085776775359E+018,base_footprint,0,1.63085776775359E+018,map,0.329069747408,5.15910920588,0,0,0,0.00671517143555,0.999977452982,0,62.9789466858,14.1755065918,48.7414779663,96.4046859741,44.2245674133,44.2245674133,62.9789466858,62.9789466858,51.0611457825,-2.53236746788,0,0.0028957342729,2.40483880043,0.00658940058202,0.00948513485491,7.85888290405,0.356664419174,-0.564353942871,-0.0058884806931,2.36669158936,0.0507968999445,-4.10034942627,-0.0873143076897,22.0343894958,95.8403320312,46.5912590027,46.9607963562,304
1.630857767853E+018,22,1.630857767853E+018,base_footprint,0,1.630857767853E+018,map,0.391447567894,5.15950993776,0,0,0,0.0064476682708,0.999979213571,0,63.4007339478,15.1398267746,48.7745018005,96.418800354,44.2439117432,44.2439117432,63.4007339478,63.4007339478,43.7287025452,3.03703022003,0,0.00460249977186,2.27866888046,0.00594109622762,0.00133859657217,6.74552249908,0.308220922947,-0.602783203125,-0.00629104860127,2.28108215332,0.0490291751921,3.30812835693,0.0703305974603,21.8853492737,95.8160171509,46.5249938965,47.0368309021,303
1.6308577679527E+018,23,1.6308577679527E+018,base_footprint,0,1.63085776795271E+018,map,0.458820649391,5.16211420752,0,0,0,0.00328828030688,0.999994593592,0,62.3068084717,12.2468662262,48.7555541992,95.8584136963,44.2391929626,44.2391929626,62.3068084717,62.3068084717,61.3509941101,-1.90787637234,0,0.00846517086029,2.11826109886,0.018466308713,0.0100011378527,9.76963043213,0.443741381168,-0.0568618774414,-0.00059353816323,2.30281448364,0.0494781956077,-14.3498573303,-0.30530872941,22.0164966583,95.8015518188,46.5420074463,47.0011367798,299
1.63085776805266E+018,24,1.63085776805266E+018,base_footprint,0,1.63085776805266E+018,map,0.508623764004,5.16277558964,0,0,0,-0.0131844739414,0.999913081046,0,62.1564369202,16.1041469574,48.7225227356,95.0382537842,44.3087158203,44.3087158203,62.1564369202,62.1564369202,61.8559837341,-2.33883714676,0,0.0150417415425,1.90456557274,0.0181560255587,0.00311428471468,5.88744544983,0.267713457346,0.754188537598,0.00787315238267,2.1947555542,0.047195520252,-14.8176879883,-0.315013289452,21.9915924072,95.7924423218,46.5034713745,47.0382957458,300
1.63085776815263E+018,25,1.63085776815263E+018,base_footprint,0,1.63085776815263E+018,map,0.560743386269,5.15996261879,0,0,0,-0.0262476500542,0.999655471083,0,62.7543983459,12.0038261414,48.7063064575,93.9052810669,44.0973587036,44.0973587036,62.7543983459,62.7543983459,44.7312698364,-2.48959541321,0,0.0142925316468,1.74151921272,0.0178304519504,0.00353791983798,10.2122001648,0.459677159786,1.86967468262,0.0195215400308,2.44715118408,0.0525765791535,2.38949203491,0.0507099628448,22.2160263062,95.7749557495,46.5445098877,47.1207618713,305
1.63085776825286E+018,26,1.63085776825286E+018,base_footprint,0,1.63085776825286E+018,map,0.61450091816,5.15707341948,0,0,0,-0.0415322864857,0.999137162345,0,62.6845054626,17.3553714752,48.6621856689,94.8332901001,44.1281166077,44.1281166077,62.6845054626,62.6845054626,49.6624031067,-1.71765518188,0,0.0140959881246,1.57387697697,0.0163210462779,0.0022250583861,4.27150344849,0.197509050369,0.955345153809,0.00997347105294,2.25894927979,0.0486978255212,-2.74258041382,-0.0584524907172,21.6268749237,95.7886352539,46.3870658875,46.9198226929,322
1.63085776835281E+018,27,1.63085776835281E+018,base_footprint,0,1.63085776835281E+018,map,0.618785302305,5.15642442024,0,0,0,-0.0434585435029,0.999055231204,0,62.4258995056,14.4385023117,48.6392593384,95.0431594849,44.1367950439,44.1367950439,62.4258995056,62.4258995056,55.1665916443,-1.09910202026,0,0.0141828572378,1.48349368572,0.0157435424626,0.00156068545766,6.83161449432,0.321183681488,0.768890380859,0.00802498590201,1.89981079102,0.0412673950195,-8.39844894409,-0.179576277733,21.270116806,95.8120498657,46.036605835,46.7681427002,364
1.63085776845298E+018,28,1.63085776845298E+018,base_footprint,0,1.63085776845299E+018,map,0.673842087118,5.15048057007,0,0,0,-0.0593271202425,0.998238595128,0,63.1961517334,17.9436473846,48.6907081604,95.3551025391,44.1861381531,44.1861381531,63.1961517334,63.1961517334,42.9579200745,-2.22844195366,0,0.0149502847344,1.23110437393,0.0140239568427,0.00092632760061,3.05307579041,0.145407244563,0.369338989258,0.00385835627094,1.28293228149,0.0282154940069,3.73292541504,0.0799498334527,20.996723175,95.7244415283,45.4690704346,46.6908454895,353
1.63085776885273E+018,29,1.63085776885273E+018,base_footprint,0,1.63085776885273E+018,map,0.788601823778,5.13583683798,0,0,0,-0.0882826800045,0.996095461495,0,63.4029769897,17.5465049744,48.7605819702,95.8128433228,44.1752166748,44.1752166748,63.4029769897,63.4029769897,40.7649688721,-1.12398791313,0,0.00729958061129,0.51313918829,0.0905805155635,0.0832809358835,3.0853805542,0.149544283748,-0.159240722656,-0.00166476448067,1.40755081177,0.0308790113777,6.19968795776,0.132007524371,20.6318855286,95.6536026001,45.5827674866,46.9646568298,333
1.6308577689526E+018,30,1.6308577689526E+018,base_footprint,0,1.6308577689526E+018,map,0.804572682302,5.13209621966,0,0,0,-0.0598876374245,0.998205124653,0,62.2606163025,11.764705658,48.8199653625,95.4585800171,44.1878700256,44.1878700256,62.2606163025,62.2606163025,60.1887817383,-0.794031083584,0,0.0114784855396,0.425583183765,0.101259678602,0.0897811949253,8.86717987061,0.429780393839,0.195022583008,0.00203884206712,1.39489746094,0.0306014213711,-13.2241249084,-0.281576097012,20.6318855286,95.6536026001,45.5827674866,46.9646568298,333
1.63085776905267E+018,31,1.63085776905267E+018,base_footprint,0,1.63085776905267E+018,map,0.802947353737,5.13208907708,0,0,0,-0.0210415504728,0.999778602068,0,63.0466384888,14.3446855545,48.8426055908,96.482170105,44.2304840088,44.2304840088,63.0466384888,63.0466384888,50.1855697632,-1.71733999252,0,0.0255076438189,0.088019348681,0.131076648831,0.105569012463,6.28719997406,0.304732203484,-0.828567504883,-0.00866216700524,1.35228347778,0.0296665504575,-3.22091293335,-0.0685816332698,20.6318855286,95.6536026001,45.5827674866,46.9646568298,333
1.63085776915279E+018,32,1.63085776915279E+018,base_footprint,0,1.63085776915279E+018,map,0.802947353737,5.13208907708,0,0,0,-0.0210415504728,0.999778602068,0,63.3867492676,12.8151264191,48.8426055908,96.482170105,44.2011871338,44.2011871338,63.3867492676,63.3867492676,43.7471237183,2.73569226265,0,0.0254473499954,0.0491783991456,0.130509927869,0.105062574148,7.8167591095,0.378867894411,-0.828567504883,-0.00866216700524,1.38158035278,0.0303092692047,3.21753311157,0.0685096681118,20.6318855286,95.6536026001,45.5827674866,46.9646568298,333
1.6308577692528E+018,33,1.6308577692528E+018,base_footprint,0,1.6308577692528E+018,map,0.795572059591,5.13384893806,0,0,0,0.049670485576,0.998765659633,0,63.0707397461,11.2487096786,48.8426055908,96.0567321777,44.2951049805,44.2951049805,63.0707397461,63.0707397461,48.9180717468,-2.65277791023,0,0.0249345228076,0.0901169329882,0.130878046155,0.105943530798,9.38317584991,0.454790025949,-0.403129577637,-0.00421447353438,1.2876625061,0.0282488875091,-1.95341491699,-0.041593298316,20.6318855286,95.6536026001,45.5827674866,46.9646568298,333
1.63085776935357E+018,34,1.63085776935357E+018,base_footprint,0,1.63085776935357E+018,map,0.796283372565,5.13320879148,0,0,0,0.0966842468659,0.995315104079,0,63.5641136169,11.5133228302,48.8683853149,96.1409378052,44.4784126282,44.4784126282,63.5641136169,63.5641136169,42.3201599121,2.26116466522,0,0.0283522438258,0.212488353252,0.132955729961,0.104603484273,9.11856269836,0.44196459651,-0.487335205078,-0.00509479176253,1.1043548584,0.0242274645716,4.64449691772,0.0988934487104,20.6318855286,95.6536026001,45.5827674866,46.9646568298,333
1.63085776945342E+018,35,1.63085776945342E+018,base_footprint,0,1.63085776945342E+018,map,0.792439582128,5.13278712664,0,0,0,0.136571014837,0.990630283156,0,62.471824646,11.5133228302,48.8547897339,95.6378631592,44.616897583,44.616897583,62.471824646,62.471824646,61.6659355164,0.104729361832,0,0.0336628481746,0.269634634256,0.137036114931,0.103373266757,9.11856269836,0.44196459651,0.015739440918,0.000164546247106,0.965869903564,0.021189365536,-14.7012786865,-0.313028544188,20.6318855286,95.6536026001,45.5827674866,46.9646568298,333
1.63085776955287E+018,36,1.63085776955287E+018,base_footprint,0,1.63085776955287E+018,map,0.785801814757,5.13135128476,0,0,0,0.176403629094,0.984317915941,0,63.3487243652,19.1815853119,48.8783493042,96.13306427,44.923034668,44.923034668,63.3487243652,63.3487243652,50.9708023071,-1.10878837109,0,0.0274663027376,0.254259377718,0.129713624716,0.102247327566,1.45030021667,0.0702941194177,-0.479461669922,-0.00501247914508,0.659732818604,0.0144732948393,-4.00614547729,-0.0853012800217,20.6318855286,95.6536026001,45.5827674866,46.9646568298,333
1.63085776965277E+018,37,1.63085776965277E+018,base_footprint,0,1.63085776965277E+018,map,0.786208543195,5.13156446998,0,0,0,0.207707846775,0.978190906924,0,63.8206138611,16.5409755707,48.8840637207,95.961151123,45.1486778259,45.1486778259,63.8206138611,63.8206138611,44.2948036194,-1.20805609226,0,0.0283651724458,0.250417739153,0.130112081766,0.10174690187,4.09090995789,0.198280960321,-0.307548522949,-0.0032152319327,0.434089660645,0.00952310860157,2.66985321045,0.0568481348455,20.6318855286,95.6536026001,45.5827674866,46.9646568298,333
1.63085776975255E+018,38,1.63085776975255E+018,base_footprint,0,1.63085776975255E+018,map,0.775442324291,5.1298289636,0,0,0,0.253811962638,0.967253579793,0,63.4364433289,16.3830814362,48.8840637207,95.9747085571,45.1032333374,45.1032333374,63.4364433289,63.4364433289,50.7679138184,-1.32781410217,0,0.0376672260463,0.224081993103,0.135628506541,0.0979612842202,4.24880409241,0.205933868885,-0.321105957031,-0.0033569666557,0.47953414917,0.0105200754479,-3.80325698853,-0.0809812545776,20.6318855286,95.6536026001,45.5827674866,46.9646568298,333
1.63085776985264E+018,39,1.63085776985264E+018,base_footprint,0,1.63085776985264E+018,map,0.771902911316,5.12984697224,0,0,0,0.292003900901,0.956417127544,0,63.3099365234,17.7427062988,48.8008460999,96.0625839233,45.1668930054,45.1668930054,63.3099365234,63.3099365234,54.0488853455,-1.30208003521,0,0.0323605649173,0.196653366089,0.128818705678,0.096458144486,2.88917922974,0.140034660697,-0.408981323242,-0.004275649786,0.415874481201,0.00912350229919,-7.08422851562,-0.15084169805,20.6318855286,95.6536026001,45.5827674866,46.9646568298,333
1.63085776995269E+018,40,1.63085776995269E+018,base_footprint,0,1.63085776995269E+018,map,0.77130156916,5.12952943406,0,0,0,0.330163889935,0.943923622854,0,63.4706726074,19.9614276886,48.8100166321,96.185760498,45.2887268066,45.2887268066,63.4706726074,63.4706726074,52.9148979187,-0.969745635986,0,0.0329848229885,0.166254252195,0.12507943809,0.0920946076512,0.670457839966,0.0324961990118,-0.532157897949,-0.00556338578463,0.294040679932,0.00645069824532,-5.95024108887,-0.126696154475,20.6318855286,95.6536026001,45.5827674866,46.9646568298,333
1.63085777005347E+018,41,1.63085777005347E+018,base_footprint,0,1.63085777005347E+018,map,0.771642808828,5.12953365767,0,0,0,0.367943926631,0.929847980508,0,64.0529785156,19.607843399,48.718963623,96.2408065796,45.334854126,45.334854126,64.0529785156,64.0529785156,43.1297721863,-0.787479877472,0,0.0331155769527,0.157467246056,0.12711250782,0.0939969345927,1.02404212952,0.0496339574456,-0.587203979492,-0.00613885885105,0.247913360596,0.00543875200674,3.83488464355,0.0816546902061,20.6318855286,95.6536026001,45.5827674866,46.9646568298,333
1.63085777015332E+018,42,1.63085777015332E+018,base_footprint,0,1.63085777015332E+018,map,0.771642808828,5.12953365767,0,0,0,0.367943926631,0.929847980508,0,63.7737350464,22.2168197632,48.6101074219,96.2408065796,45.2683105469,45.2683105469,63.7737350464,63.7737350464,47.4374084473,-1.3001023531,0,0.035885270685,0.147734433413,0.129976719618,0.094091437757,-1.58493423462,-0.0768196508288,-0.587203979492,-0.00613885885105,0.314456939697,0.00689859269187,-0.472751617432,-0.0100661143661,20.6318855286,95.6536026001,45.5827674866,46.9646568298,333
1.63085777025364E+018,43,1.63085777025364E+018,base_footprint,0,1.63085777025365E+018,map,0.772187788114,5.1299659562,0,0,0,0.432310180571,0.901724962377,0,63.5949554443,23.8754329681,48.6101074219,96.0946273804,45.3137512207,45.3137512207,63.5949554443,63.5949554443,50.6199989319,-0.748559772968,0,0.0354049280286,0.136328950524,0.130701139569,0.0952962040901,-3.24354743958,-0.157210424542,-0.441024780273,-0.00461064465344,0.269016265869,0.00590170966461,-3.65534210205,-0.0778317674994,20.6318855286,95.6536026001,45.5827674866,46.9646568298,333
1.63085777035271E+018,44,1.63085777035271E+018,base_footprint,0,1.63085777035271E+018,map,0.773035197625,5.12992288919,0,0,0,0.440068828893,0.897964044847,0,63.6958656311,19.2422733307,48.4489212036,96.242225647,45.3730545044,45.3730545044,63.6958656311,63.6958656311,49.975402832,-0.683703541756,0,0.0383788347244,0.133231252432,0.138734459877,0.100355632603,1.38961219788,0.0673526525497,-0.588623046875,-0.006153694354,0.209712982178,0.00460070744157,-3.0107460022,-0.0641066357493,20.6318855286,95.6536026001,45.5827674866,46.9646568298,333
1.63085777045261E+018,45,1.63085777045261E+018,base_footprint,0,1.63085777045261E+018,map,0.772645567702,5.12935881674,0,0,0,0.474755845825,0.8801175415,0,64.1000442505,26.4705886841,48.2289619446,96.3634643555,45.4765815735,45.4765815735,64.1000442505,64.1000442505,44.2547225952,-1.18145728111,0,0.0404917038977,0.128433197737,0.157495573163,0.117003872991,-5.83870315552,-0.282994151115,-0.709861755371,-0.00742117129266,0.106185913086,0.0023295187857,2.70993423462,0.0577015653253,20.6318855286,95.6536026001,45.5827674866,46.9646568298,333
1.63085777055281E+018,46,1.63085777055281E+018,base_footprint,0,1.63085777055281E+018,map,0.773791032289,5.1359227519,0,0,0,0.537255583441,0.843419491156,0,63.7494544983,23.5294113159,48.2289619446,96.3889007568,45.4547576904,45.4547576904,63.7494544983,63.7494544983,50.4212646484,-1.34405505657,0,0.0442848317325,0.125895306468,0.154541224241,0.110256396234,-2.89752578735,-0.140439212322,-0.735298156738,-0.00768709322438,0.128009796143,0.00280829356052,-3.4566078186,-0.0736001953483,20.6318855286,95.6536026001,45.5827674866,46.9646568298,333
1.63085777065287E+018,47,1.63085777065287E+018,base_footprint,0,1.63085777065287E+018,map,0.774304573003,5.13859085624,0,0,0,0.574545262198,0.818472810596,0,63.9597702026,23.8754329681,47.972820282,96.692741394,45.3907928467,45.3907928467,63.9597702026,63.9597702026,47.0385665894,-1.05518400669,0,0.0429634153843,0.120521828532,0.149004235864,0.10604082793,-3.24354743958,-0.157210424542,-1.03913879395,-0.0108635611832,0.191974639893,0.00421156175435,-0.0739097595215,-0.0015737315407,20.6318855286,95.6536026001,45.5827674866,46.9646568298,333
1.6308577707526E+018,48,1.6308577707526E+018,base_footprint,0,1.6308577707526E+018,map,0.776306104158,5.14008811387,0,0,0,0.597160041381,0.802122113508,0,64.4197769165,20.9095401764,47.7184371948,96.6377487183,45.3475112915,45.3475112915,64.4197769165,64.4197769165,38.0930023193,-0.739872634411,0,0.0400597192347,0.118436843157,0.144377753139,0.104318037629,-0.277654647827,-0.0134575506672,-0.984146118164,-0.0102886464447,0.235256195068,0.00516107771546,8.8716545105,0.188900649548,20.6318855286,95.6536026001,45.5827674866,46.9646568298,333
1.6308577708529E+018,49,1.6308577708529E+018,base_footprint,0,1.6308577708529E+018,map,0.775051119688,5.14006331222,0,0,0,0.621988021921,0.783026755984,0,64.3314666748,21.5686283112,47.4780311584,96.7304992676,45.1610946655,45.1610946655,64.3314666748,64.3314666748,38.0032691956,-1.4323939085,0,0.0383533835411,0.116657443345,0.139245733619,0.100892350078,-0.936742782593,-0.0454026758671,-1.07689666748,-0.0112582966685,0.421672821045,0.00925070699304,8.96138763428,0.190811306238,20.6318855286,95.6536026001,45.5827674866,46.9646568298,333
1.63085777095312E+018,50,1.63085777095312E+018,base_footprint,0,1.63085777095312E+018,map,0.775969029347,5.14010067394,0,0,0,0.626740207241,0.779228280177,0,64.2742233276,23.8754329681,47.33045578,96.7771682739,45.1853218079,45.1853218079,64.2742233276,64.2742233276,39.4633178711,-1.7796946764,0,0.0374662950635,0.116831347346,0.131470933557,0.0940046310425,-3.24354743958,-0.157210424542,-1.12356567383,-0.0117461932823,0.397445678711,0.00871920865029,7.50133895874,0.159723058343,20.6318855286,95.6536026001,45.5827674866,46.9646568298,333
1.6308577710531E+018,51,1.6308577710531E+018,base_footprint,0,1.63085777105311E+018,map,0.776608862366,5.14274111109,0,0,0,0.653493139636,0.756932438497,0,64.4537734985,23.5294113159,47.2265968323,96.7876815796,45.2742881775,45.2742881775,64.4537734985,64.4537734985,37.2300033569,-1.99587869644,0,0.0345951393247,0.10767133534,0.118730373681,0.0841352269053,-2.65211296082,-0.127033337951,-1.13613891602,-0.0118778944016,0.109523773193,0.0024132784456,9.25487136841,0.199094250798,20.8772983551,95.6515426636,45.3838119507,46.4848747253,393
1.6308577723527E+018,52,1.6308577723527E+018,base_footprint,0,1.6308577723527E+018,map,0.775842041788,5.14126431257,0,0,0,0.676767849399,0.736196494164,0,64.370880127,23.5294113159,47.1433944702,96.5837249756,45.2326927185,45.2326927185,64.370880127,64.370880127,37.5386199951,-1.70722472668,0,0.0271212123334,0.000330883864081,0.0869469866157,0.0598257742822,-2.65211296082,-0.127033337951,-0.932182312012,-0.00974560622126,0.151119232178,0.00332980463281,8.94625473022,0.192455172539,20.8772983551,95.6515426636,45.3838119507,46.4848747253,393
1.63085777245308E+018,53,1.63085777245308E+018,base_footprint,0,1.63085777245308E+018,map,0.775842041788,5.14126431257,0,0,0,0.676767849399,0.736196494164,0,64.5799026489,24.509803772,47.0913848877,96.5837249756,45.3627586365,45.3627586365,64.5799026489,64.5799026489,35.1809616089,-1.4457628727,0,0.0288332235068,0.0204186867923,0.14194111526,0.113107889891,-3.63250541687,-0.173993080854,-0.932182312012,-0.00974560622126,0.021053314209,0.000463894801214,11.3039131165,0.243174001575,20.8772983551,95.6515426636,45.3838119507,46.4848747253,393
1.63085777255347E+018,54,1.63085777255347E+018,base_footprint,0,1.63085777255347E+018,map,0.775842041788,5.14126431257,0,0,0,0.676767849399,0.736196494164,0,64.6744766235,20.9095401764,47.0913848877,96.5837249756,45.2634544373,45.2634544373,64.6744766235,64.6744766235,32.4061927795,-1.29167246819,0,0.0400389619172,0.0438432022929,0.184041783214,0.144002825022,-0.0322418212891,-0.00154434831347,-0.932182312012,-0.00974560622126,0.120357513428,0.00265199225396,14.0786819458,0.302865862846,20.8772983551,95.6515426636,45.3838119507,46.4848747253,393
1.6308577726538E+018,55,1.6308577726538E+018,base_footprint,0,1.6308577726538E+018,map,0.775842041788,5.14126431257,0,0,0,0.676767849399,0.736196494164,0,64.2971572876,26.8413238525,47.0913848877,96.5837249756,45.1303863525,45.1303863525,64.2971572876,64.2971572876,37.760799408,-1.38620316982,0,0.0482765287161,0.066259033978,0.195262208581,0.146985679865,-5.96402549744,-0.285670369864,-0.932182312012,-0.00974560622126,0.253425598145,0.00558405276388,8.72407531738,0.187675565481,20.8772983551,95.6515426636,45.3838119507,46.4848747253,393
1.63085777275315E+018,56,1.63085777275315E+018,base_footprint,0,1.63085777275315E+018,map,0.777378997127,5.15729010867,0,0,0,0.656986771009,0.753902104201,0,64.3115997314,21.2362918854,47.0913848877,96.4711456299,45.061416626,45.061416626,64.3115997314,64.3115997314,36.3506240845,-1.76948881149,0,0.0500243678689,0.0710720643401,0.196494475007,0.146470114589,-0.358993530273,-0.0171954017133,-0.819602966309,-0.00856863334775,0.322395324707,0.00710375141352,10.1342506409,0.218011781573,20.8772983551,95.6515426636,45.3838119507,46.4848747253,393
1.63085777285272E+018,57,1.63085777285272E+018,base_footprint,0,1.63085777285272E+018,map,0.784495884677,5.1914512319,0,0,0,0.62570220857,0.780062014324,0,64.0353851318,15.966386795,47.0913848877,96.8904571533,44.8468704224,44.8468704224,64.0353851318,64.0353851318,40.514881134,-1.06971871853,0,0.053002782166,0.0798052400351,0.196077466011,0.143074676394,5.19158935547,0.24537268281,-1.29191589355,-0.0135139711201,0.501235961914,0.0110530741513,5.66501235962,0.122672699392,21.1579761505,95.5985412598,45.3481063843,46.1798934937,409
1.63085777295295E+018,58,1.63085777295295E+018,base_footprint,0,1.63085777295295E+018,map,0.784495884677,5.1914512319,0,0,0,0.62570220857,0.780062014324,0,64.1705093384,14.7058820724,47.0913848877,96.8904571533,44.7838516235,44.7838516235,64.1705093384,64.1705093384,37.4021186829,-0.864755034447,0,0.0496035143733,0.0923831835389,0.165595695376,0.115992181003,6.45209407806,0.304948538542,-1.29191589355,-0.0135139711201,0.564254760742,0.0124427415431,8.77777481079,0.190077856183,21.1579761505,95.5985412598,45.3481063843,46.1798934937,409
1.63085777305285E+018,59,1.63085777305285E+018,base_footprint,0,1.63085777305285E+018,map,0.7958144554,5.23850762119,0,0,0,0.601305821337,0.79901896675,0,64.1868438721,16.3830814362,47.0913848877,96.7275314331,44.5963745117,44.5963745117,64.1868438721,64.1868438721,34.4968223572,-0.557861030102,0,0.0423792861402,0.0936193540692,0.147016063333,0.104636780918,4.77489471436,0.225678235292,-1.12899017334,-0.0118097011,0.751731872559,0.016576917842,11.6830711365,0.252990424633,21.1579761505,95.5985412598,45.3481063843,46.1798934937,409
1.63085777315276E+018,60,1.63085777315276E+018,base_footprint,0,1.63085777315276E+018,map,0.7958144554,5.23850762119,0,0,0,0.601305821337,0.79901896675,0,63.858833313,18.627450943,47.1979255676,96.7275314331,44.6509056091,44.6509056091,63.858833313,63.858833313,40.9899024963,-0.614849567413,0,0.0348253063858,0.0934347137809,0.131376564503,0.0965512618423,2.53052520752,0.119601480663,-1.12899017334,-0.0118097011,0.697200775146,0.0153744183481,5.18999099731,0.112386375666,21.1579761505,95.5985412598,45.3481063843,46.1798934937,409
1.63085777325397E+018,61,1.63085777325397E+018,base_footprint,0,1.63085777325398E+018,map,0.81351579625,5.29952294563,0,0,0,0.589034819121,0.808107654872,0,64.2544937134,15.6862745285,47.3300094604,96.667388916,44.6558151245,44.6558151245,64.2544937134,64.2544937134,33.7045669556,-0.609115421772,0,0.0311840213835,0.0936013385653,0.118133120239,0.0869491025805,5.4519777298,0.257919996977,-1.15532684326,-0.0120961358771,0.637554168701,0.0140761034563,12.342010498,0.268033176661,21.1382522583,95.5120620728,45.2933692932,46.0465774536,405
1.63085777335336E+018,62,1.63085777335336E+018,base_footprint,0,1.63085777335336E+018,map,0.830227631012,5.34882642756,0,0,0,0.591723598522,0.806140920033,0,63.8385696411,16.6666660309,47.6385650635,96.4600753784,44.5302314758,44.5302314758,63.8385696411,63.8385696411,39.08852005,-0.620807111263,0,0.0231031477451,0.0954144597054,0.100723147392,0.0776199996471,4.37908363342,0.208074495196,-0.959297180176,-0.0100449146703,0.685859680176,0.0151684870943,6.95682525635,0.151086390018,21.0457496643,95.5007781982,45.216091156,46.0453453064,389
1.63085777345358E+018,63,1.63085777345358E+018,base_footprint,0,1.63085777345359E+018,map,0.833433917797,5.35921773961,0,0,0,0.592467286381,0.805594510016,0,63.9968490601,17.7427062988,47.8716163635,96.5437011719,44.5723304749,44.5723304749,63.9968490601,63.9968490601,36.9951934814,-0.796154558659,0,0.0206616092473,0.0953501984477,0.0940485969186,0.0733869895339,3.30304336548,0.156945869327,-1.04292297363,-0.010920570232,0.643760681152,0.0142374243587,9.05015182495,0.196548685431,21.0457496643,95.5007781982,45.216091156,46.0453453064,389
1.63085777355252E+018,64,1.63085777355252E+018,base_footprint,0,1.63085777355252E+018,map,0.8470979136,5.41685124346,0,0,0,0.604594962702,0.796533069668,0,64.1427688599,17.3553714752,48.1728248596,96.7282333374,44.5101394653,44.5101394653,64.1427688599,64.1427688599,34.3612976074,-1.11869323254,0,0.0161314569414,0.094358459115,0.0805227383971,0.064391285181,3.64337158203,0.173504263163,-1.2253112793,-0.0128300916404,0.656074523926,0.0145257804543,11.6066665649,0.252494692802,20.9987430573,95.5029220581,45.1662139893,45.9679641724,377
1.63085777365313E+018,65,1.63085777365313E+018,base_footprint,0,1.63085777365313E+018,map,0.8470979136,5.41685124346,0,0,0,0.604594962702,0.796533069668,0,63.508605957,20.5882358551,48.4861221313,96.7282333374,44.532459259,44.532459259,63.508605957,63.508605957,46.0172729492,-0.757137656212,0,0.0123329563066,0.0940283536911,0.0744198486209,0.0620868913829,0.410507202148,0.0195491313934,-1.2253112793,-0.0128300916404,0.633754730225,0.0140316104516,-0.0493087768555,-0.00107267696876,20.9987430573,95.5029220581,45.1662139893,45.9679641724,377
1.63085777375284E+018,66,1.63085777375284E+018,base_footprint,0,1.63085777375284E+018,map,0.85783510446,5.47340461312,0,0,0,0.62310417787,0.782138851817,0,63.791847229,18.9971065521,48.7963943481,96.6091384888,44.5923271179,44.5923271179,63.791847229,63.791847229,41.1367912292,-0.735026538372,0,0.000132068162202,0.0953965485096,0.00780696328729,0.00767489522696,1.77431488037,0.0854209661484,-1.16321563721,-0.0121871698648,0.445804595947,0.00989838130772,4.69733428955,0.102485522628,20.7714214325,95.4459228516,45.0381317139,45.8341255188,346
1.63085777385291E+018,67,1.63085777385291E+018,base_footprint,0,1.63085777385291E+018,map,0.870514416798,5.53281481475,0,0,0,0.642641854141,0.766166722918,0,63.745059967,21.2445316315,48.9657897949,95.8014373779,44.5843353271,44.5843353271,63.745059967,63.745059967,38.9849052429,-1.41369259357,0,0.0108627947047,0.0964714586735,0.00561193097383,0.0164747256786,-0.943534851074,-0.046477265656,-0.393081665039,-0.00411999225616,0.236572265625,0.00527816778049,6.77482223511,0.148052066565,20.3009967804,95.4083557129,44.8209075928,45.759727478,314
1.63085777395256E+018,68,1.63085777395256E+018,base_footprint,0,1.63085777395256E+018,map,0.870514416798,5.53281481475,0,0,0,0.642641854141,0.766166722918,0,63.8319778442,14.4385023117,48.9657897949,95.8014373779,44.4804458618,44.4804458618,63.8319778442,63.8319778442,36.2983894348,-0.36631757021,0,0.00960408523679,0.0944651141763,0.0105516510084,0.0201557353139,5.86249446869,0.288778662682,-0.393081665039,-0.00411999225616,0.340461730957,0.00759604712948,9.46133804321,0.206761240959,20.3009967804,95.4083557129,44.8209075928,45.759727478,314
1.63085777405359E+018,69,1.63085777405359E+018,base_footprint,0,1.63085777405359E+018,map,0.882358878022,5.60801474752,0,0,0,0.662490428914,0.749070378267,0,63.833732605,11.5216331482,52.7212944031,96.1338119507,44.4100875854,44.4100875854,63.833732605,63.833732605,36.7034378052,-0.420192182064,0,0.00969662424177,0.0960022732615,0.0142333824188,0.0239300057292,8.87370300293,0.435084909201,-0.77458190918,-0.00812277849764,0.0229759216309,0.000517090666108,8.31772613525,0.184751465917,20.3953361511,95.3592300415,44.4330635071,45.0211639404,230
1.63085777415312E+018,70,1.63085777415312E+018,base_footprint,0,1.63085777415312E+018,map,0.888171135844,5.66458900436,0,0,0,0.678432663942,0.734662589558,0,64.0047302246,12.7134723663,57.3403396606,95.8362426758,44.451335907,44.451335907,64.0047302246,64.0047302246,32.9997138977,-1.33067846298,0,0.00889267306775,0.0953712388873,0.0213999319822,0.0302926041186,8.24110412598,0.393284201622,-0.644340515137,-0.0067688585259,-0.0132179260254,-0.000297445687465,11.6978149414,0.261710554361,20.9545764923,95.1919021606,44.438117981,44.6975288391,210
1.63085777425311E+018,71,1.63085777425311E+018,base_footprint,0,1.63085777425311E+018,map,0.889222885502,5.67467252223,0,0,0,0.680387714045,0.732852344321,0,63.8651123047,15.6862745285,57.3403396606,95.9449615479,44.534538269,44.534538269,63.8651123047,63.8651123047,36.8028640747,-0.818144083023,0,0.00884557142854,0.0961316153407,0.0292339660227,0.0380795374513,5.26830196381,0.251415342093,-0.753059387207,-0.00791096035391,-0.0964202880859,-0.00216976529919,7.8946647644,0.176624193788,20.9545764923,95.1919021606,44.438117981,44.6975288391,210
1.63085777435283E+018,72,1.63085777435283E+018,base_footprint,0,1.63085777435283E+018,map,0.896187423925,5.74620007447,0,0,0,0.694822788244,0.719180987608,0,63.0465164185,15.4107923508,62.2254066467,95.1126480103,44.5339775085,44.5339775085,63.0465164185,63.0465164185,48.5352096558,-0.789897680283,0,0.00726317288354,0.0987935811281,0.0320682562888,0.0393314287066,6.05196285248,0.281975120306,-0.10912322998,-0.00114862294868,-0.040168762207,-0.000902794417925,-4.24789047241,-0.0959166288376,21.4627552032,95.0035247803,44.4938087463,44.2873191833,212
1.63085777445266E+018,73,1.63085777445266E+018,base_footprint,0,1.63085777445267E+018,map,0.898542288214,5.81520594702,0,0,0,0.703354859041,0.710838900359,0,63.3164367676,15.6862745285,66.2362594604,95.5547180176,44.5339126587,44.5339126587,63.3164367676,63.3164367676,45.2673950195,-0.972174525261,0,0.00485440902412,0.0959098115563,0.0369852744043,0.0418396815658,5.93533229828,0.274509310722,-0.612411499023,-0.00645035412163,0.0018310546875,4.11142718804E-05,-1.0364074707,-0.0234317053109,21.6216068268,94.9423065186,44.5357437134,44.2309875488,210
1.63085777455268E+018,74,1.63085777455268E+018,base_footprint,0,1.63085777455268E+018,map,0.898776400284,5.88142837408,0,0,0,0.710079411382,0.704121601381,0,63.6545410156,19.607843399,68.0397796631,94.9317855835,44.6105194092,44.6105194092,63.6545410156,63.6545410156,37.7663116455,-0.959335923195,0,0.00403662119061,0.0969886705279,0.0386138260365,0.0426504462957,2.39894866943,0.109009467065,-0.0747146606445,-0.000787655124441,-0.0835113525391,-0.0018755212659,6.13892364502,0.139822140336,22.0067920685,94.8570709229,44.5270080566,43.9052352905,208
1.63085777465289E+018,75,1.63085777465289E+018,base_footprint,0,1.63085777465289E+018,map,0.898914204324,5.94577122052,0,0,0,0.712717386482,0.701451300524,0,63.2784233093,18.9971065521,68.0397796631,94.215423584,44.6396331787,44.6396331787,63.2784233093,63.2784233093,42.2719345093,-1.14688920975,0,0.00191276671831,0.0982821062207,0.0441405512393,0.0460533201694,3.45288085938,0.153803244233,0.534492492676,0.00564108649269,-0.0757865905762,-0.00170062948018,1.50623703003,0.0344061218202,22.4499874115,94.7499160767,44.5638465881,43.7781715393,203
1.63085777475265E+018,76,1.63085777475265E+018,base_footprint,0,1.63085777475265E+018,map,0.897845010894,5.99263757396,0,0,0,0.711785555017,0.702396842013,0,62.9293327332,23.8754329681,68.1932067871,94.0644378662,44.7218856812,44.7218856812,62.9293327332,62.9293327332,48.9003181458,-2.2802875042,0,0.00123422010802,0.0961948409677,0.050896871835,0.0496626496315,-1.14768028259,-0.0504968650639,0.638832092285,0.00674561830238,-0.192005157471,-0.00431182747707,-5.20166778564,-0.119034975767,22.7277526855,94.7032699585,44.5298805237,43.6986503601,200
1.63085777485349E+018,77,1.63085777485349E+018,base_footprint,0,1.63085777485349E+018,map,0.898173385298,6.00065309613,0,0,0,0.711037141023,0.703154452511,0,63.4015159607,19.5575656891,66.703338623,94.6590194702,44.7488441467,44.7488441467,63.4015159607,63.4015159607,42.832698822,-1.31478309631,0,0.00244709756225,0.0943058803678,0.0429644957185,0.0405173972249,3.17018699646,0.139485284686,0.0442504882812,0.000467254081741,-0.218963623047,-0.00491722906008,0.865951538086,0.0198164358735,22.7277526855,94.7032699585,44.5298805237,43.6986503601,200
1.63085777495344E+018,78,1.63085777495344E+018,base_footprint,0,1.63085777495344E+018,map,0.898904491652,6.06715381121,0,0,0,0.706391892619,0.707820947728,0,63.9517822266,20.9095401764,64.035774231,94.2870788574,44.8218574524,44.8218574524,63.9517822266,63.9517822266,32.3774299622,-0.99164712429,0,0.00150003097951,0.0774919316173,0.00468062097207,0.00618065195158,2.48488807678,0.106217086315,0.257568359375,0.00272430409677,-0.256767272949,-0.00576162338257,11.1646080017,0.256409853697,23.3944282532,94.5446472168,44.5650901794,43.5420379639,185
1.6308577750528E+018,79,1.6308577750528E+018,base_footprint,0,1.6308577750528E+018,map,0.898904491652,6.06715381121,0,0,0,0.706391892619,0.707820947728,0,63.17137146,18.627450943,61.7345085144,94.2870788574,44.9088401794,44.9088401794,63.17137146,63.17137146,47.3642272949,-1.55062615871,0,0.0114569095895,0.0499487072229,0.050750348717,0.0392934381962,4.76697731018,0.203765496612,0.257568359375,0.00272430409677,-0.34375,-0.00771343661472,-3.82218933105,-0.0877815932035,23.3944282532,94.5446472168,44.5650901794,43.5420379639,185
1.63085777515262E+018,80,1.63085777515262E+018,base_footprint,0,1.63085777515262E+018,map,0.898814934263,6.12585470772,0,0,0,0.702234385404,0.711945832178,0,63.1972465515,22.8868026733,59.5435523987,94.2661514282,45.0566101074,45.0566101074,63.1972465515,63.1972465515,48.4191360474,-1.70801925659,0,0.0188782233745,0.0274735148996,0.0656479746103,0.0467697530985,1.58646392822,0.0648243650794,-0.202972412109,-0.00215783063322,-0.18692779541,-0.00416601542383,-5.16098022461,-0.119306527078,24.4732666016,94.0631790161,44.869682312,43.2581558228,148
1.63085777945269E+018,81,1.63085777945269E+018,base_footprint,0,1.63085777945269E+018,map,0.905765768158,7.38718424679,0,0,0,0.706176081083,0.708036257903,0,63.776260376,22.2332992554,59.5435523987,95.7374572754,45.2170524597,45.2170524597,63.776260376,63.776260376,45.0263442993,-2.03651571274,0,0.00351123185828,0.00480293296278,0.0066553982906,0.0101666301489,-8.96453857422,-0.675612330437,-0.987083435059,-0.0104177258909,-3.87669372559,-0.0937750414014,-3.95699310303,-0.0963490530849,13.2687606812,94.7503738403,41.3403587341,41.0693511963,38
1.63085779835267E+018,82,1.63085779835267E+018,base_footprint,0,1.63085779835267E+018,map,0.906231256844,7.6173903089,0,0,0,0.70605534624,0.708156655017,0,62.9015579224,20.8556156158,48.9288444519,93.8528289795,44.708984375,44.708984375,62.9015579224,62.9015579224,48.4991531372,-2.43915057182,0,8.59593455971E-07,0.0267113205045,8.99584847502E-07,3.99913737681E-08,-9.57130241394,-0.848195374012,1.16247558594,0.0122346142307,-3.22880554199,-0.0778397172689,-7.4189491272,-0.18059669435,11.2843132019,95.0153045654,41.480178833,41.08020401,26
1.63085779845274E+018,83,1.63085779845274E+018,base_footprint,0,1.63085779845274E+018,map,0.906231256844,7.6173903089,0,0,0,0.70605534624,0.708156655017,0,62.7413330078,11.764705658,48.9288444519,93.8528289795,43.9327278137,43.9327278137,62.7413330078,62.7413330078,42.9996681213,-2.54320240021,0,0.00169811246451,0.0536807924509,0.00207352661528,0.00377163896337,-0.480392456055,-0.0425717048347,1.16247558594,0.0122346142307,-2.45254898071,-0.0591258071363,-1.91946411133,-0.0467247962952,11.2843132019,95.0153045654,41.480178833,41.08020401,26
1.63085779855279E+018,84,1.63085779855279E+018,base_footprint,0,1.63085779855279E+018,map,0.906231256844,7.6173903089,0,0,0,0.70605534624,0.708156655017,0,62.6589851379,9.90991020203,48.9288444519,93.8528289795,43.1169319153,43.1169319153,62.6589851379,62.6589851379,35.6713409424,-2.96651101112,0,0.00126051087864,0.086614228785,0.00165752891917,0.00291803968139,1.37440299988,0.121797665954,1.16247558594,0.0122346142307,-1.63675308228,-0.039458680898,5.40886306763,0.131665930152,11.2843132019,95.0153045654,41.480178833,41.08020401,26
1.63085779865276E+018,85,1.63085779865276E+018,base_footprint,0,1.63085779865276E+018,map,0.906231256844,7.6173903089,0,0,0,0.70605534624,0.708156655017,0,62.6276664734,8.61344528198,48.9288444519,93.8528289795,42.5177383423,42.5177383423,62.6276664734,62.6276664734,29.7637901306,-2.77171325684,0,0.000900221406482,0.103727526963,0.00115779624321,0.0020580177661,2.67086791992,0.236688569188,1.16247558594,0.0122346142307,-1.03755950928,-0.0250133816153,11.3164138794,0.27547121048,11.2843132019,95.0153045654,41.480178833,41.08020401,26
1.63085779875301E+018,86,1.63085779875301E+018,base_footprint,0,1.63085779875302E+018,map,0.904748723059,7.55491550369,0,0,0,0.705664541345,0.708546085366,0,62.4325447083,12.0296764374,48.9288444519,93.8393325806,41.9893875122,41.9893875122,62.4325447083,62.4325447083,27.5211696625,-2.98225331306,0,0.000998499104753,0.105683282018,0.00020506553119,0.00120356469415,-0.352234840393,-0.030163699761,1.03922271729,0.0109531888738,-0.656154632568,-0.0158747471869,13.6451358795,0.331463694572,11.677441597,94.8785552979,41.3332328796,41.166305542,31
1.63085779885342E+018,87,1.63085779885342E+018,base_footprint,0,1.63085779885343E+018,map,0.905212798628,7.50417127258,0,0,0,0.705647715229,0.708562842656,0,61.9118003845,13.0895605087,48.9288444519,94.1742630005,41.6318893433,41.6318893433,61.9118003845,61.9118003845,34.2393188477,-2.71688985825,0,0.00289181480184,0.106835253537,0.00121751532424,0.00167429936118,-1.06182479858,-0.0882813557982,0.735481262207,0.0077492701821,-0.204326629639,-0.00493214232847,7.04586791992,0.17066334188,12.0277357101,94.9097442627,41.4275627136,41.2851867676,32
1.63085779895254E+018,88,1.63085779895254E+018,base_footprint,0,1.63085779895255E+018,map,0.905212798628,7.50417127258,0,0,0,0.705647715229,0.708562842656,0,62.2850189209,12.5742044449,48.9288444519,94.1742630005,41.1861343384,41.1861343384,62.2850189209,62.2850189209,22.7072868347,-2.70787596703,0,0.00207824562676,0.106550246477,2.87178245344E-05,0.00210696342401,-0.546468734741,-0.045434050262,0.735481262207,0.0077492701821,0.241428375244,0.00582772353664,18.5778999329,0.449989497662,12.0277357101,94.9097442627,41.4275627136,41.2851867676,32
1.63085779905265E+018,89,1.63085779905265E+018,base_footprint,0,1.63085779905265E+018,map,0.90576177371,7.44635618163,0,0,0,0.706042329698,0.708169632697,0,61.2165908813,15.0326795578,48.6963424683,93.9643325806,40.9610366821,40.9610366821,61.2165908813,61.2165908813,38.7521438599,-2.33899068832,0,0.00191734964028,0.107887178659,0.000282433989923,0.00219978368841,-2.49597930908,-0.199093803763,0.859970092773,0.00906908977777,0.428039550781,0.0103418482468,2.4411239624,0.059260264039,12.5367002487,94.8243026733,41.3890762329,41.1932678223,34
1.63085779915266E+018,90,1.63085779915266E+018,base_footprint,0,1.63085779915266E+018,map,0.90576177371,7.44635618163,0,0,0,0.706042329698,0.708169632697,0,61.2609481812,11.4948730469,48.4146652222,93.9643325806,40.5429153442,40.5429153442,61.2609481812,61.2609481812,33.4380340576,-2.95556759834,0,0.00443373760208,0.108965307474,0.00059492822038,0.00383880943991,1.04182720184,0.0831021890044,0.859970092773,0.00906908977777,0.846160888672,0.0204440634698,7.75523376465,0.188264593482,12.5367002487,94.8243026733,41.3890762329,41.1932678223,34
1.63085779925282E+018,91,1.63085779925282E+018,base_footprint,0,1.63085779925282E+018,map,0.904852436504,7.39488212792,0,0,0,0.706352425987,0.707860332482,0,60.965221405,11.5044250488,48.4146652222,94.3115081787,40.2134017944,40.2134017944,60.965221405,60.965221405,36.4522132874,-2.98355007172,0,0.00443894322962,0.109894864261,0.00184200576041,0.00628094933927,1.76433563232,0.132969141006,0.438865661621,0.00463180942461,1.1269569397,0.0272604543716,4.61713790894,0.112422958016,13.2687606812,94.7503738403,41.3403587341,41.0693511963,38
1.6308577993527E+018,92,1.6308577993527E+018,base_footprint,0,1.6308577993527E+018,map,0.904672451035,7.32671560138,0,0,0,0.709116456085,0.70509137827,0,60.8428688049,11.2487096786,48.4146652222,94.1021194458,40.0578536987,40.0578536987,60.8428688049,60.8428688049,36.2208137512,-3.07918357849,0,0.00684280088171,0.11007437855,0.00355810206383,0.0104009024799,3.37905979156,0.231003075838,0.620887756348,0.00655477261171,1.35507202148,0.032720990479,4.7926902771,0.116856396198,14.6277694702,94.7230072021,41.4129257202,41.0135040283,42
1.63085779945253E+018,93,1.63085779945253E+018,base_footprint,0,1.63085779945253E+018,map,0.904672451035,7.32671560138,0,0,0,0.709116456085,0.70509137827,0,60.2563705444,6.69371175766,48.1691131592,94.1021194458,39.8744812012,39.8744812012,60.2563705444,60.2563705444,44.7973365784,-3.13806200027,0,0.00611500116065,0.109166927636,0.00531003344804,0.011425034143,7.93405771255,0.542396962643,0.620887756348,0.00655477261171,1.53844451904,0.0371488966048,-3.78383255005,-0.0922582149506,14.6277694702,94.7230072021,41.4129257202,41.0135040283,42
1.63085779955288E+018,94,1.63085779955288E+018,base_footprint,0,1.63085779955288E+018,map,0.906896032812,7.2652931397,0,0,0,0.709245756706,0.704961315673,0,60.2037811279,8.49673175812,47.9473800659,93.5508346558,39.836605072,39.836605072,60.2037811279,60.2037811279,43.3502807617,-3.11279606819,0,0.00602055154741,0.109054431319,0.0036498780828,0.00967042986304,7.1209564209,0.455954581499,1.12127685547,0.0118437921628,1.58801269531,0.0383349992335,-3.05843734741,-0.0759071111679,15.617688179,94.6721115112,41.4246177673,40.2918434143,47
1.63085779965381E+018,95,1.63085779965381E+018,base_footprint,0,1.63085779965381E+018,map,0.907328929059,7.21442347711,0,0,0,0.708826406852,0.705382963325,0,60.0623855591,11.02323246,47.8814048767,92.7814178467,39.9865570068,39.9865570068,60.0623855591,60.0623855591,44.7449569702,-3.13713216782,0,0.00539493793622,0.110898986459,0.00230197329074,0.00769691122696,5.4864358902,0.332316547632,1.82326507568,0.0192724615335,1.54862976074,0.0372847653925,-4.56773376465,-0.113689631224,16.5096683502,94.6046829224,41.5351867676,40.1772232056,50
1.63085779975312E+018,96,1.63085779975312E+018,base_footprint,0,1.63085779975312E+018,map,0.907328929059,7.21442347711,0,0,0,0.708826406852,0.705382963325,0,60.3576087952,16.6666660309,47.7964019775,92.7814178467,40.3395690918,40.3395690918,60.3576087952,60.3576087952,43.243473053,-3.11204361916,0,0.00433966657147,0.111908212304,0.00139365287032,0.00573331909254,-0.156997680664,-0.00950943864882,1.82326507568,0.0192724615335,1.19561767578,0.0287856571376,-3.06624984741,-0.076318114996,16.5096683502,94.6046829224,41.5351867676,40.1772232056,50
1.63085779985272E+018,97,1.63085779985272E+018,base_footprint,0,1.63085779985272E+018,map,0.905738564554,7.15239859224,0,0,0,0.707209597142,0.707003950279,0,60.4674720764,12.4939231873,47.7401046753,92.7785415649,40.5890846252,40.5890846252,60.4674720764,60.4674720764,43.9503860474,-3.12327241898,0,0.00429037306458,0.112664110959,0.00086780206766,0.00515817524865,19.8506202698,0.613723933697,-0.0188293457031,-0.000202990559046,7.36927032471,0.153659775853,-4.68383789062,-0.119283162057,32.344543457,92.7597122192,47.95835495,39.2665481567,137
1.63085779995279E+018,98,1.63085779995279E+018,base_footprint,0,1.63085779995279E+018,map,0.905738564554,7.15239859224,0,0,0,0.707209597142,0.707003950279,0,60.6426429749,14.1755065918,47.7401046753,92.7785415649,40.8350944519,40.8350944519,60.6426429749,60.6426429749,43.4541969299,-3.114610672,0,0.00430786889046,0.113112464547,3.70205925719E-05,0.00434488942847,18.1690368652,0.561734199524,-0.0188293457031,-0.000202990559046,7.12326049805,0.148530125618,-4.18764877319,-0.106646724045,32.344543457,92.7597122192,47.95835495,39.2665481567,137
1.63085780005284E+018,99,1.63085780005284E+018,base_footprint,0,1.63085780005284E+018,map,0.906887578102,7.09175719751,0,0,0,0.706229084327,0.707983389954,0,60.9482002258,18.6991863251,47.7290802002,92.9672012329,41.2865447998,41.2865447998,60.9482002258,60.9482002258,43.5090484619,-3.11633682251,0,0.00392554653808,0.111452952027,0.00238408264704,0.00154146412387,13.9908237457,0.427984684706,-0.20174407959,-0.00217477581464,6.60078048706,0.137839823961,-4.38842010498,-0.112176626921,32.6900100708,92.7654571533,47.8873252869,39.1206283569,140
1.63085780015269E+018,100,1.63085780015269E+018,base_footprint,0,1.63085780015269E+018,map,0.906217583693,7.0268710048,0,0,0,0.705552340444,0.708657812272,0,61.3181762695,19.354839325,47.7379837036,93.0998840332,41.571598053,41.571598053,61.3181762695,61.3181762695,40.4056892395,-3.10490179062,0,0.00313984509557,0.111791454256,0.00205733207986,0.00108251324855,14.5225906372,0.428680419922,-0.440490722656,-0.00475386995822,6.44336700439,0.134194970131,-1.28134918213,-0.0327506922185,33.8774299622,92.6593933105,48.0149650574,39.1243400574,142
1.63085780025259E+018,101,1.63085780025259E+018,base_footprint,0,1.63085780025259E+018,map,0.906217583693,7.0268710048,0,0,0,0.705552340444,0.708657812272,0,61.472442627,22.5023345947,47.7379837036,93.0998840332,42.0699958801,42.0699958801,61.472442627,61.472442627,43.0116081238,-3.10688829422,0,0.00260339560919,0.109177738428,0.00277180178091,0.000168406229932,11.3750953674,0.335772097111,-0.440490722656,-0.00475386995822,5.94496917725,0.123814925551,-3.88726806641,-0.0993567705154,33.8774299622,92.6593933105,48.0149650574,39.1243400574,142
1.63085780035283E+018,102,1.63085780035283E+018,base_footprint,0,1.63085780035283E+018,map,0.906217583693,7.0268710048,0,0,0,0.705552340444,0.708657812272,0,61.8735466003,24.7058830261,47.7815322876,93.0998840332,42.6669960022,42.6669960022,61.8735466003,61.8735466003,42.2393112183,-3.11238360405,0,0.00215685484,0.110071115196,0.002861489309,0.000704634469002,9.17154693604,0.270727366209,-0.440490722656,-0.00475386995822,5.34796905518,0.111381299794,-3.11497116089,-0.0796172171831,33.8774299622,92.6593933105,48.0149650574,39.1243400574,142
1.63085780045361E+018,103,1.63085780045361E+018,base_footprint,0,1.63085780045361E+018,map,0.906030516453,6.96263755782,0,0,0,0.705013646281,0.70919373838,0,61.9794616699,21.882352829,47.7815322876,92.883895874,43.0770950317,43.0770950317,61.9794616699,61.9794616699,43.9843139648,-3.12386536598,0,0.00198631174862,0.112490125,0.00323909288272,0.00125278125051,12.383020401,0.361385822296,-0.234527587891,-0.00253134570085,4.97333145142,0.103502340615,-4.84511566162,-0.123791895807,34.26537323,92.6493682861,48.0504264832,39.1391983032,142
1.63085780055276E+018,104,1.63085780055276E+018,base_footprint,0,1.63085780055276E+018,map,0.905772532192,6.89534105197,0,0,0,0.705135312371,0.709072768655,0,62.4229888916,24.9652614594,47.806678772,93.5227813721,43.4308013916,43.4308013916,62.4229888916,62.4229888916,42.1208457947,-3.12705850601,0,0.00293061509728,0.110133111477,0.00621550763026,0.00328489253297,9.4561252594,0.274716556072,-0.882545471191,-0.00952658895403,4.59163284302,0.0956143289804,-2.98099517822,-0.0761626586318,34.4213867188,92.6402359009,48.0224342346,39.1398506165,143
1.63085780065272E+018,105,1.63085780065272E+018,base_footprint,0,1.63085780065272E+018,map,0.907869351792,6.83230151097,0,0,0,0.707268945754,0.70694457942,0,62.8002510071,30.3529415131,47.838634491,93.5538024902,43.9869232178,43.9869232178,62.8002510071,62.8002510071,41.447933197,-3.12681531906,0,0.000573113793507,0.110202789307,0.00560499727726,0.00503188371658,4.49098014832,0.128888487816,-0.945930480957,-0.0102143632248,4.06238174438,0.0845461115241,-2.39577865601,-0.0613481812179,34.8439216614,92.6078720093,48.0493049622,39.052154541,146
1.63085780075288E+018,106,1.63085780075288E+018,base_footprint,0,1.63085780075288E+018,map,0.907869351792,6.83230151097,0,0,0,0.707268945754,0.70694457942,0,62.9390029907,36,47.838634491,93.5538024902,44.4354286194,44.4354286194,62.9390029907,62.9390029907,43.7942886353,-3.13165998459,0,0.000926777080167,0.11172670126,0.00702602602541,0.00609924877062,-1.15607833862,-0.0331787653267,-0.945930480957,-0.0102143632248,3.61387634277,0.0752118304372,-4.74213409424,-0.121430791914,34.8439216614,92.6078720093,48.0493049622,39.052154541,146
1.63085780085264E+018,107,1.63085780085264E+018,base_footprint,0,1.63085780085264E+018,map,0.908434255276,6.77268424269,0,0,0,0.707448926992,0.706764469748,0,63.462348938,32.0899085999,47.9212799072,93.8189239502,44.9496116638,44.9496116638,63.462348938,63.462348938,40.8816604614,-3.13119578362,0,0.000482017785544,0.0942597463727,0.00791937857866,0.00840139575303,3.10865402222,0.0883176401258,-1.23864746094,-0.013379172422,3.22005844116,0.0668482556939,-1.75859451294,-0.044950325042,35.1985626221,92.5802764893,48.169670105,39.1230659485,146
