%time,field.header.seq,field.header.stamp,field.header.frame_id,field.pose.header.seq,field.pose.header.stamp,field.pose.header.frame_id,field.pose.pose.position.x,field.pose.pose.position.y,field.pose.pose.position.z,field.pose.pose.orientation.x,field.pose.pose.orientation.y,field.pose.pose.orientation.z,field.pose.pose.orientation.w,field.label,field.main_output,field.scan_score,field.pose_score,field.cov_score,field.lhood_map_score,field.lhood_robot_score,field.lhood_map_score_all,field.lhood_robot_score_all,field.point_angle_diff,field.average_orientation,field.map_average_orientation,field.sensor_div,field.odom_div_x,field.odom_div_w,field.imu_div_w,field.kdtree_div,field.kdtree_div_p,field.cov_div,field.cov_div_p,field.likelihood_div,field.likelihood_div_p,field.normal_diff_div,field.normal_diff_div_p,field.kdtree_average,field.cov_average,field.likelihood_average,field.normal_diff_average,field.map_update_count
1.63085862321377E+018,0,1.63085862321377E+018,base_footprint,0,1.63085862321377E+018,map,-10.9698056934,3.11496432875,0,0,0,0.971378707641,0.237536115868,0,65.8507766724,14.9159660339,100,95.5649261475,47.0089302063,47.0089302063,65.8507766724,65.8507766724,26.4162330627,0.480804115534,0,0.0271405298263,0.187334358692,0.0857288911939,0.0585883632302,15.6521663666,0.512041985989,0.149208068848,0.00155889277812,3.04843521118,0.0608988329768,0.964910507202,0.0352399647236,30.5681324005,95.7141342163,50.0573654175,27.3811435699,16
1.6308586233138E+018,1,1.6308586233138E+018,base_footprint,0,1.6308586233138E+018,map,-11.1017612855,3.19096401485,0,0,0,0.954687420467,0.297610364742,0,66.1235733032,35.5498733521,47.7410774231,95.915763855,47.5749931335,47.5749931335,66.1235733032,66.1235733032,28.8823318481,-0.194325476885,0,0.0348785407841,0.195562630892,0.104504793882,0.0696262568235,-6.83206939697,-0.237903609872,0.181343078613,0.00188708154019,2.22094726562,0.0446009710431,-1.44431877136,-0.0526393353939,28.7178039551,96.0971069336,49.7959403992,27.4380130768,22
1.63085862341392E+018,2,1.63085862341392E+018,base_footprint,0,1.63085862341394E+018,map,-11.1667739809,3.23438256365,0,0,0,0.940934394865,0.338588931537,0,66.3721923828,28.1624145508,47.6391143799,96.7150344849,47.9679336548,47.9679336548,66.3721923828,66.3721923828,31.5283966064,-0.131961062551,0,0.0435605347157,0.202546626329,0.125250443816,0.08168990165,0.496603012085,0.017327984795,-0.601409912109,-0.00625728070736,1.80479431152,0.0362607054412,-4.10187911987,-0.149558871984,28.6590175629,96.1136245728,49.7727279663,27.4265174866,23
1.63085862351333E+018,3,1.63085862351333E+018,base_footprint,0,1.63085862351333E+018,map,-11.2299292556,3.29054511768,0,0,0,0.923743606887,0.383011421154,0,66.3874740601,28.1624145508,47.7643928528,96.3148345947,48.302116394,48.302116394,66.3874740601,66.3874740601,33.4217681885,0.0515311174095,0,0.0482576154172,0.204112157226,0.132463887334,0.0842062681913,0.496603012085,0.017327984795,-0.201210021973,-0.00209345994517,1.47061157227,0.0295465327799,-5.9952507019,-0.218593224883,28.6590175629,96.1136245728,49.7727279663,27.4265174866,23
1.63085862361411E+018,4,1.63085862361411E+018,base_footprint,0,1.63085862361411E+018,map,-11.3167659795,3.38776495925,0,0,0,0.890678853597,0.45463301657,0,66.712020874,28.3887462616,47.9995574951,96.077507019,48.6945114136,48.6945114136,66.712020874,66.712020874,30.963312149,-0.125590309501,0,0.0539138205349,0.203384146094,0.134068533778,0.0801547169685,-3.59866905212,-0.145165711641,0.26099395752,0.00270913448185,0.0593414306641,0.00121716386639,-3.12215232849,-0.112141601741,24.7900772095,96.3385009766,48.7538528442,27.8411598206,47
1.63085862371334E+018,5,1.63085862371334E+018,base_footprint,0,1.63085862371334E+018,map,-11.323219487,3.39383251685,0,0,0,0.888646170776,0.458593483562,0,66.6532516479,29.0060844421,48.0163459778,96.2590942383,49.0371284485,49.0371284485,66.6532516479,66.6532516479,36.3752593994,-0.00738763110712,0,0.0536935739219,0.204583793879,0.13159930706,0.0779057368636,-4.49289894104,-0.183284983039,0.0466079711914,0.000483958574478,-0.430038452148,-0.00884723756462,-8.63024330139,-0.311055630445,24.5131855011,96.3057022095,48.6070899963,27.745016098,48
1.63085862381353E+018,6,1.63085862381353E+018,base_footprint,0,1.63085862381353E+018,map,-11.4184112123,3.56221569495,0,0,0,0.835374696999,0.549680921639,0,67.1953887939,35.6460533142,48.1186065674,95.352142334,49.3060684204,49.3060684204,67.1953887939,67.1953887939,26.2562179565,0.0548322759569,0,0.0473069213331,0.199136480689,0.0967413261533,0.0494344010949,-10.6313362122,-0.425003260374,0.850997924805,0.00884584337473,-0.81859588623,-0.0168826263398,0.853136062622,0.0314701721072,25.0147171021,96.2031402588,48.4874725342,27.1093540192,49
1.63085862391361E+018,7,1.63085862391361E+018,base_footprint,0,1.63085862391361E+018,map,-11.4631169171,3.68651970422,0,0,0,0.798641280327,0.601807365656,0,67.6481628418,37.1884346008,48.1562919617,95.7229156494,49.5966453552,49.5966453552,67.6481628418,67.6481628418,22.5793113708,-0.0188506916165,0,0.0456327646971,0.198558852077,0.0883069038391,0.0426741428673,-11.2430210114,-0.433333665133,0.333099365234,0.00346776167862,-1.03964996338,-0.0214109197259,4.04498672485,0.151928395033,25.9454135895,96.0560150146,48.5569953918,26.6242980957,53
1.63085862401324E+018,8,1.63085862401324E+018,base_footprint,0,1.63085862401324E+018,map,-11.5016058594,3.87314907788,0,0,0,0.75091606803,0.660397652006,0,67.4894714355,33.5863380432,48.1075897217,94.4302368164,49.6756896973,49.6756896973,67.4894714355,67.4894714355,21.6358127594,-0.0418275222182,0,0.0401467941701,0.205557718873,0.082268320024,0.0421215258539,-4.34079551697,-0.148425877094,0.976089477539,0.0102308671921,-0.438667297363,-0.00890929810703,3.77666854858,0.148614704609,29.2455425262,95.4063262939,49.2370223999,25.412481308,32
1.63085862411328E+018,9,1.63085862411328E+018,base_footprint,0,1.63085862411328E+018,map,-11.5156732722,3.98267446428,0,0,0,0.728140455296,0.685427951985,0,67.3609619141,38.3753509521,48.2919807434,94.2470169067,49.7811393738,49.7811393738,67.3609619141,67.3609619141,24.428194046,-0.135199338198,0,0.0355534218252,0.207765698433,0.0861480981112,0.050594676286,-7.82720375061,-0.256225168705,0.988952636719,0.0103842345998,-0.4938621521,-0.0100200735033,0.0963039398193,0.0039268466644,30.5481472015,95.2359695435,49.2872772217,24.5244979858,36
1.63085862421338E+018,10,1.63085862421338E+018,base_footprint,0,1.63085862421339E+018,map,-11.520554245,4.07381354567,0,0,0,0.701175437762,0.712988783558,0,67.3668518066,35.3390197754,48.4143943787,93.9385375977,49.7205810547,49.7205810547,67.3668518066,67.3668518066,22.5576858521,-0.0615660473704,0,0.0402057953179,0.219892680645,0.0880606472492,0.0478548519313,-3.95789527893,-0.126123443246,0.791984558105,0.00836039427668,-0.594356536865,-0.0120985591784,0.9049243927,0.0385687872767,31.3811244965,94.7305221558,49.1262245178,23.4626102448,33
1.63085862431333E+018,11,1.63085862431333E+018,base_footprint,0,1.63085862431333E+018,map,-11.5191824921,4.17313674952,0,0,0,0.674814432891,0.737987453255,0,67.0165710449,33.424533844,48.4143943787,92.4698791504,49.8105392456,49.8105392456,67.0165710449,67.0165710449,24.5470809937,0.0123867141083,0,0.0418188720942,0.233132436872,0.086075052619,0.0442561767995,-0.65372467041,-0.0199483837932,2.11671447754,0.0223785880953,-0.687381744385,-0.0139930285513,-1.29803466797,-0.0558317378163,32.7708091736,94.5865936279,49.1231575012,23.2490463257,32
1.63085862441426E+018,12,1.63085862441426E+018,base_footprint,0,1.63085862441427E+018,map,-11.4895799547,4.35824197786,0,0,0,0.621620424108,0.783318612272,0,67.2212142944,32.1266975403,48.482673645,91.9763870239,49.7564086914,49.7564086914,67.2212142944,67.2212142944,18.5023975372,-0.060476180166,0,0.0426266007125,0.257799059153,0.109518781304,0.0668921843171,0.541179656982,0.0165661107749,2.23435211182,0.0237165335566,-0.481998443604,-0.00978192221373,3.97543907166,0.176860392094,32.6678771973,94.2107391357,49.2744102478,22.4778366089,32
1.63085862451326E+018,13,1.63085862451326E+018,base_footprint,0,1.63085862451326E+018,map,-11.4778115467,4.43155622128,0,0,0,0.601751664698,0.798683250127,0,67.1306762695,30.2832241058,48.5595436096,92.5672683716,49.7466926575,49.7466926575,67.1306762695,67.1306762695,22.154253006,-0.171248227358,0,0.0469765588641,0.269913107157,0.122075155377,0.0750986039639,1.91813087463,0.0595667734742,1.60457611084,0.0170388091356,-0.844310760498,-0.0172652285546,0.652345657349,0.0286033730954,32.2013549805,94.1718444824,48.902381897,22.8065986633,31
1.63085862461388E+018,14,1.63085862461388E+018,base_footprint,0,1.63085862461388E+018,map,-11.4161914699,4.59363664799,0,0,0,0.523676204906,0.85191738591,0,67.1000213623,32.2638130188,48.5560569763,92.8001251221,49.6212654114,49.6212654114,67.1000213623,67.1000213623,22.1897373199,0.0413017198443,0,0.0540476702154,0.3077006042,0.144577607512,0.0905299335718,4.84670257568,0.130601868033,2.2806854248,0.0239868108183,2.83791732788,0.0540976263583,3.51984596252,0.136907935143,37.1105155945,95.0808105469,52.4591827393,25.7095832825,72
1.63085862471371E+018,15,1.63085862471371E+018,base_footprint,0,1.63085862471371E+018,map,-11.366617485,4.68095323163,0,0,0,0.471580463259,0.881823035916,0,67.1140136719,29.5900173187,48.546672821,93.0955429077,49.5977745056,49.5977745056,67.1140136719,67.1140136719,22.7476501465,-0.265426129103,0,0.0582541525364,0.325008451939,0.151280745864,0.0930266007781,7.51355171204,0.202502131462,2.04280090332,0.0214718990028,3.18033218384,0.0602585487068,3.17607498169,0.122516147792,37.1035690308,95.138343811,52.7781066895,25.9237251282,92
1.63085862481332E+018,16,1.63085862481332E+018,base_footprint,0,1.63085862481332E+018,map,-11.3339234345,4.72786508097,0,0,0,0.438618179588,0.898673518323,0,67.2281417847,29.0525379181,48.5417671204,93.8640441895,49.4868545532,49.4868545532,67.2281417847,67.2281417847,22.2620639801,-0.10215844959,0,0.0605386868119,0.338478982449,0.153700873256,0.0931621864438,8.04700660706,0.216903105378,1.3957901001,0.0146524515003,3.34077835083,0.0632392242551,3.83787536621,0.147045373917,37.0995445251,95.2598342896,52.8276329041,26.0999393463,111
1.63085862491374E+018,17,1.63085862491374E+018,base_footprint,0,1.63085862491374E+018,map,-11.280881887,4.78687161198,0,0,0,0.381436779894,0.924394928017,0,67.1394195557,30.6409130096,48.5608673096,93.9007110596,49.3545875549,49.3545875549,67.1394195557,67.1394195557,22.5625305176,-0.11061245203,0,0.0619477108121,0.360748082399,0.146202415228,0.0842547044158,6.36169624329,0.171925619245,1.40557861328,0.014748015441,3.53929519653,0.0669131278992,3.70340538025,0.140996515751,37.0026092529,95.3062896729,52.8938827515,26.2659358978,124
1.63085862501336E+018,18,1.63085862501336E+018,base_footprint,0,1.63085862501336E+018,map,-11.1770529625,4.87855422505,0,0,0,0.284674914032,0.958624114719,0,67.3937225342,26.4705886841,48.5955352783,94.8805618286,49.1757469177,49.1757469177,67.3937225342,67.3937225342,19.5810718536,-0.0595551133156,0,0.0619206652045,0.40002143383,0.121698908508,0.059778239578,10.3353118896,0.280805855989,0.5380859375,0.00563921174034,3.8748550415,0.0730407387018,7.03008460999,0.264178097248,36.8059005737,95.4186477661,53.0506019592,26.6111564636,136
1.63085862511368E+018,19,1.63085862511368E+018,base_footprint,0,1.63085862511368E+018,map,-11.0935838603,4.92343059779,0,0,0,0.231829148791,0.972756519264,0,67.5499038696,25.4602603912,48.5897979736,95.4038619995,49.1581687927,49.1581687927,67.5499038696,67.5499038696,18.4637947083,-0.157199174166,0,0.0334732867777,0.452342420816,0.0466950088739,0.0132217230275,11.278131485,0.306984901428,0.0828247070312,0.000867395312525,3.85841369629,0.0727774873376,8.09991264343,0.304924041033,36.7383918762,95.4866867065,53.016582489,26.5637073517,139
1.63085862521384E+018,20,1.63085862521384E+018,base_footprint,0,1.63085862521384E+018,map,-10.9289842954,4.98905478307,0,0,0,0.14024468647,0.990116875887,0,67.0153198242,29.2279415131,48.5731964111,95.3104248047,48.9728240967,48.9728240967,67.0153198242,67.0153198242,25.7482757568,-0.0705295577645,0,0.00531308958307,0.479310572147,0.000611617404502,0.00592470727861,7.01107215881,0.193467527628,0.28507232666,0.00298206857406,3.76330184937,0.0713609829545,0.975582122803,0.0365060344338,36.2390136719,95.5954971313,52.736125946,26.7238578796,145
1.63085862531333E+018,21,1.63085862531333E+018,base_footprint,0,1.63085862531333E+018,map,-10.8324890644,5.0119300387,0,0,0,0.115153650279,0.993347691812,0,65.9702301025,3.7433154583,48.8427772522,94.8894042969,48.4507484436,48.4507484436,65.9702301025,65.9702301025,37.405796051,-0.227529272437,0,0.00940812844783,0.558554589748,0.0435650497675,0.034156922251,32.4337501526,0.896527886391,0.750640869141,0.00784860458225,4.26807785034,0.0809592753649,-10.363817215,-0.383249223232,36.177066803,95.640045166,52.7188262939,27.0419788361,146
1.63085862541363E+018,22,1.63085862541363E+018,base_footprint,0,1.63085862541363E+018,map,-10.7390169061,5.03496205631,0,0,0,0.0934679510443,0.995622288886,0,66.3670730591,1.79873597622,48.9252548218,94.8467178345,47.9387283325,47.9387283325,66.3670730591,66.3670730591,24.5792007446,0.116238728166,0,0.0178173594177,0.621297597885,0.0621067322791,0.0442893728614,34.5074386597,0.950456440449,0.796485900879,0.00832767877728,4.71935653687,0.0896226391196,2.44337272644,0.0904196873307,36.3061752319,95.6432037354,52.6580848694,27.0225734711,148
1.63085862551379E+018,23,1.63085862551379E+018,base_footprint,0,1.63085862551379E+018,map,-10.5393973982,5.07105133949,0,0,0,0.0598965096461,0.998204592322,0,65.4960250854,5.49662494659,48.8056526184,95.0252151489,47.6694488525,47.6694488525,65.4960250854,65.4960250854,37.9923324585,-0.235469922423,0,0.0212145894766,0.673211634159,0.0701297223568,0.0489151328802,31.4288406372,0.851142704487,0.672988891602,0.00703240884468,4.89087677002,0.0930526331067,-10.9430408478,-0.404559224844,36.9254646301,95.6982040405,52.5603256226,27.0492916107,154
1.63085862561363E+018,24,1.63085862561363E+018,base_footprint,0,1.63085862561363E+018,map,-10.4632128847,5.07846188003,0,0,0,0.0455589523492,0.998961651847,0,65.567741394,19.0588226318,48.3372650146,95.124786377,47.498500824,47.498500824,65.567741394,65.567741394,35.2136459351,-0.270652979612,0,0.0240672212094,0.739208757877,0.0903274863958,0.0662602633238,18.1763114929,0.488149493933,0.556327819824,0.00581439537928,4.97694396973,0.0948432907462,-8.11400604248,-0.29941380024,37.2351341248,95.6811141968,52.4754447937,27.0996398926,162
1.63085862571377E+018,25,1.63085862571377E+018,base_footprint,0,1.63085862571377E+018,map,-10.355610557,5.09102984754,0,0,0,0.0337187914052,0.999431359877,0,65.6223220825,20.2722415924,47.8227462769,94.6123580933,47.2949333191,47.2949333191,65.6223220825,65.6223220825,30.1879081726,0.0821822136641,0,0.0329523198307,0.805168747902,0.11914999038,0.0861976668239,17.1460170746,0.458225935698,1.09812164307,0.0114733688533,5.25266647339,0.0999601632357,-2.79861831665,-0.102179296315,37.418258667,95.7104797363,52.5475997925,27.389289856,165
1.63085862581315E+018,26,1.63085862581315E+018,base_footprint,0,1.63085862581315E+018,map,-10.1653862956,5.10533083447,0,0,0,0.0198952966428,0.999802068997,0,65.5110168457,24.509803772,47.1694107056,93.9973831177,47.2071075439,47.2071075439,65.5110168457,65.5110168457,29.0290603638,-0.149095758796,0,0.0474781394005,0.901502609253,0.162248283625,0.114770144224,13.2774276733,0.351373404264,1.68017578125,0.017560813576,5.18098068237,0.0988961607218,-1.16568374634,-0.0418356955051,37.7872314453,95.6775588989,52.3880882263,27.8633766174,163
1.63085862591313E+018,27,1.63085862591313E+018,base_footprint,0,1.63085862591313E+018,map,-10.0721460206,5.10562582097,0,0,0,0.0157692049057,0.999875658358,0,65.3114624023,19.7012138367,46.4845848083,94.4925460815,47.0935401917,47.0935401917,65.3114624023,65.3114624023,33.1770782471,-0.278372764587,0,0.051644589752,0.936539888382,0.175580829382,0.123936243355,18.2834968567,0.481338322163,1.21082305908,0.0126518327743,5.30964660645,0.101322971284,-5.010389328,-0.177883505821,37.9847106934,95.7033691406,52.4031867981,28.1666889191,165
1.63085862601367E+018,28,1.63085862601367E+018,base_footprint,0,1.63085862601368E+018,map,-9.97598235842,5.10459182656,0,0,0,0.0108156990793,0.999941508616,0,65.0301818848,22.8235301971,45.9274597168,94.6386795044,47.0073852539,47.0073852539,65.0301818848,65.0301818848,37.835735321,-0.197738438845,0,0.0578885488212,1.03455555439,0.185659617186,0.12777107954,14.9381694794,0.395590484142,1.09730529785,0.0114617850631,5.4169960022,0.103329710662,-9.3093624115,-0.326342314482,37.7616996765,95.7359848022,52.4243812561,28.5263729095,178
1.63085862611362E+018,29,1.63085862611362E+018,base_footprint,0,1.63085862611362E+018,map,-9.79127388589,5.10734846928,0,0,0,0.0014990373555,0.999998876443,0,65.5761947632,28.8425045013,45.3222427368,93.4428710938,46.9147109985,46.9147109985,65.5761947632,65.5761947632,22.7016849518,-0.179564133286,0,0.0628127232194,1.11345231533,0.190287441015,0.127474725246,8.80081367493,0.23379483819,2.32192230225,0.0242460947484,5.53212356567,0.105480596423,6.08327102661,0.211335077882,37.6433181763,95.764793396,52.4468345642,28.7849559784,176
1.63085862621386E+018,30,1.63085862621386E+018,base_footprint,0,1.63085862621386E+018,map,-9.68803466505,5.1079781706,0,0,0,0.00107084194644,0.999999426649,0,64.8503189087,25.6470584869,44.6691856384,93.2135314941,46.7784385681,46.7784385681,64.8503189087,64.8503189087,33.4700813293,-0.284845203161,0,0.0605193860829,1.18164217472,0.174852073193,0.114332683384,11.6156253815,0.31172272563,2.54875183105,0.0266154035926,5.56572723389,0.106329463422,-3.98078536987,-0.134990856051,37.2626838684,95.7622833252,52.344165802,29.4892959595,172
1.63085862631353E+018,31,1.63085862631353E+018,base_footprint,0,1.63085862631353E+018,map,-9.59366754881,5.1026318451,0,0,0,0.00123726664323,0.999999234585,0,64.9932479858,23.8187084198,44.1442947388,93.0899734497,46.5784645081,46.5784645081,64.9932479858,64.9932479858,28.2928619385,-0.158173069358,0,0.0607419647276,1.27600634098,0.151024013758,0.0902820527554,12.9793109894,0.352717638016,2.6569519043,0.027749735862,5.56842041016,0.106783375144,1.54256439209,0.0517024435103,36.7980194092,95.746925354,52.1468849182,29.8354263306,174
1.63085862641345E+018,32,1.63085862641345E+018,base_footprint,0,1.63085862641345E+018,map,-9.42684846267,5.10288643563,0,0,0,0.000266187478167,0.999999964572,0,64.4014434814,24.1613998413,43.8350601196,92.5458297729,46.2974777222,46.2974777222,64.4014434814,64.4014434814,33.9518203735,-0.446334570646,0,0.0533221885562,1.35660398006,0.139663428068,0.086341239512,11.1143226624,0.315070033073,3.22031402588,0.0336268544197,5.4312210083,0.104994349182,-3.03092765808,-0.0980219990015,35.2757225037,95.7661437988,51.7286987305,30.9208927155,178
1.63085862651359E+018,33,1.63085862651359E+018,base_footprint,0,1.63085862651359E+018,map,-9.38768597263,5.10167836946,0,0,0,0.000931907175818,0.999999565774,0,64.9485626221,27.0782699585,43.6020469666,92.9663009644,46.2065734863,46.2065734863,64.9485626221,64.9485626221,24.6355609894,-0.437039226294,0,0.0511180013418,1.46174013615,0.143476754427,0.0923587530851,8.19745254517,0.232382267714,2.79984283447,0.0292362496257,5.52212524414,0.106751672924,6.28533172607,0.203271359205,35.2757225037,95.7661437988,51.7286987305,30.9208927155,178
1.63085862661343E+018,34,1.63085862661343E+018,base_footprint,0,1.63085862661343E+018,map,-9.21559491347,5.10416606041,0,0,0,0.000856425417089,0.999999633268,0,63.922504425,24.7830276489,43.554309845,91.9103393555,45.9211616516,45.9211616516,63.922504425,63.922504425,36.2206764221,-0.30367898941,0,0.0496018305421,1.56622064114,0.139962181449,0.0903603434563,7.85025787354,0.240559831262,3.85737609863,0.0402784608305,4.82004165649,0.0949926525354,-4.35517501831,-0.136673673987,32.6332855225,95.7677154541,50.7412033081,31.8655014038,194
1.63085862671346E+018,35,1.63085862671346E+018,base_footprint,0,1.63085862671346E+018,map,-9.11749535582,5.1015772652,0,0,0,0.00283652774393,0.999995977047,0,64.7364120483,27.893737793,43.7237358093,93.8226852417,45.7242050171,45.7242050171,64.7364120483,64.7364120483,26.3276252747,-0.276161342859,0,0.0541607737541,1.64761161804,0.137285873294,0.0831251069903,4.48767471313,0.138587981462,1.92671966553,0.0201225243509,4.99462127686,0.0984766706824,5.88334655762,0.182650387287,32.3814125061,95.7494049072,50.7188262939,32.2109718323,196
1.63085862681387E+018,36,1.63085862681387E+018,base_footprint,0,1.63085862681387E+018,map,-8.94287453281,5.10204761127,0,0,0,0.00278898198832,0.999996110782,0,64.5208511353,20.9558830261,43.9983215332,92.6093063354,45.4330368042,45.4330368042,64.5208511353,64.5208511353,22.6949615479,-0.149088531733,0,0.0499841533601,1.70868301392,0.14001147449,0.0900273099542,10.926990509,0.342722892761,3.11345672607,0.0325257703662,5.10274887085,0.100972980261,10.0321998596,0.306540489197,31.8828735352,95.7227630615,50.535785675,32.7271614075,189
1.6308586269133E+018,37,1.6308586269133E+018,base_footprint,0,1.6308586269133E+018,map,-8.93208607442,5.10012455952,0,0,0,0.0031121017619,0.9999951574,0,63.943107605,23.0429019928,44.4168663025,93.4812927246,45.1822128296,45.1822128296,63.943107605,63.943107605,33.5245857239,-0.3685066998,0,0.0531999617815,1.81074512005,0.162788450718,0.109588481486,8.57577133179,0.271224886179,2.22303771973,0.0232281833887,5.18051528931,0.102864071727,-0.479362487793,-0.0145062562078,31.6186733246,95.7043304443,50.3627281189,33.0452232361,183
1.63085862701389E+018,38,1.63085862701389E+018,base_footprint,0,1.63085862701389E+018,map,-8.73540914875,5.1042616568,0,0,0,0.0012924539504,0.999999164781,0,63.6291351318,15.7155399323,44.8432312012,94.0813751221,44.7087669373,44.7087669373,63.6291351318,63.6291351318,36.2232093811,-0.274562090635,0,0.0593094751239,1.89816439152,0.182056009769,0.122746534646,15.2368011475,0.492266505957,1.65998840332,0.017338257283,5.46175384521,0.108863808215,-2.61825180054,-0.0779126659036,30.9523410797,95.7413635254,50.1705207825,33.6049575806,181
1.63085862711304E+018,39,1.63085862711304E+018,base_footprint,0,1.63085862711304E+018,map,-8.65010684114,5.10680549053,0,0,0,0.00159625036151,0.999998725992,0,63.91147995,20.6971683502,45.4294013977,94.9309616089,44.4067802429,44.4067802429,63.91147995,63.91147995,30.9380340576,-0.409512758255,0,0.06954767555,2.01271176338,0.210127353668,0.140579670668,9.85239219666,0.32250520587,0.777961730957,0.00812841393054,5.77368164062,0.115058362484,2.47688674927,0.0741251707077,30.5495605469,95.7089233398,50.1804618835,33.4149208069,185
1.63085862721334E+018,40,1.63085862721334E+018,base_footprint,0,1.63085862721334E+018,map,-8.47145612333,5.10753928364,0,0,0,0.000291393979455,0.999999957545,0,63.5335464478,17.8200683594,46.0274620056,94.7121200562,44.0631599426,44.0631599426,63.5335464478,63.5335464478,33.2418899536,-0.329134136438,0,0.0750881582499,2.08302593231,0.223266646266,0.148178488016,12.3995323181,0.410314232111,1.00344085693,0.0104835703969,6.02679443359,0.12031942606,0.332820892334,0.0099128447473,30.2196006775,95.7155609131,50.0899543762,33.5747108459,174
1.63085862731357E+018,41,1.63085862731357E+018,base_footprint,0,1.63085862731357E+018,map,-8.35951179982,5.10902142456,0,0,0,0.00237508824638,0.999997179474,0,63.3012466431,19.5501728058,46.8064155579,94.7033920288,43.8252258301,43.8252258301,63.3012466431,63.3012466431,34.8221740723,-0.465563565493,0,0.0806425437331,2.17285990715,0.224691316485,0.144048765302,10.2854290009,0.344736784697,0.949569702148,0.00992723740637,6.41089630127,0.127615272999,-1.38400650024,-0.0413900241256,29.8356018066,95.652961731,50.2361221313,33.438167572,175
1.63085862741343E+018,42,1.63085862741343E+018,base_footprint,0,1.63085862741343E+018,map,-8.25911427774,5.10921341657,0,0,0,0.00223619903644,0.999997499704,0,62.755405426,23.0103797913,47.7172660828,93.9331665039,43.5868225098,43.5868225098,62.755405426,62.755405426,39.2997779846,-0.332940489054,0,0.0836406126618,2.27704024315,0.191455736756,0.107815124094,7.03671264648,0.234189465642,1.67548370361,0.017524395138,6.76505279541,0.134355530143,-6.11030197144,-0.18410359323,30.0470924377,95.6086502075,50.3518753052,33.1894760132,171
1.63085862751358E+018,43,1.63085862751358E+018,base_footprint,0,1.63085862751358E+018,map,-8.16402233903,5.10916558854,0,0,0,0.00271324531071,0.999996319143,0,62.5738525391,17.7355155945,48.3522796631,94.0113677979,43.3642311096,43.3642311096,62.5738525391,62.5738525391,40.445274353,-0.204765722156,0,0.0544778965414,2.37103796005,0.129745572805,0.0752676725388,11.8989143372,0.401523321867,1.57134246826,0.0164396092296,6.89860153198,0.137250557542,-6.93467330933,-0.206939682364,29.6344299316,95.5827102661,50.2628326416,33.5106010437,165
1.63085862761411E+018,44,1.63085862761411E+018,base_footprint,0,1.63085862761411E+018,map,-7.99302872155,5.1130951041,0,0,0,0.00350579977773,0.999993854665,0,63.1248855591,18.0827884674,48.5570259094,94.3001174927,43.1929931641,43.1929931641,63.1248855591,63.1248855591,29.7167682648,-0.378544211388,0,0.029545456171,2.44519281387,0.0895656943321,0.0600202344358,10.5756225586,0.369023352861,1.18161010742,0.0123752485961,6.9005355835,0.137753039598,4.29290962219,0.126226112247,28.658411026,95.4817276001,50.0935287476,34.009677887,160
1.63085862771351E+018,45,1.63085862771351E+018,base_footprint,0,1.63085862771351E+018,map,-7.88021877863,5.11488948094,0,0,0,0.00486084380672,0.999988186029,0,63.0369873047,17.4714660645,48.7675170898,94.0525665283,42.9968261719,42.9968261719,63.0369873047,63.0369873047,28.2891979218,-0.389969021082,0,0.0212895087898,2.55050587654,0.0601680837572,0.0388785749674,9.92765617371,0.362334817648,1.43156433105,0.0149926934391,6.97130966187,0.13951510191,6.17186164856,0.17909668386,27.3991222382,95.4841308594,49.9681358337,34.4610595703,166
1.63085862781353E+018,46,1.63085862781353E+018,base_footprint,0,1.63085862781353E+018,map,-7.78184221285,5.11322748487,0,0,0,0.00372870585596,0.999993048352,0,62.9012947083,17.7355155945,48.9728393555,94.3299942017,42.8693237305,42.8693237305,62.9012947083,62.9012947083,30.3533687592,-0.432141542435,0,0.0158541500568,2.64113426208,0.0421690121293,0.0263148620725,9.23617744446,0.342439651489,1.09223937988,0.0114463828504,7.04626846313,0.141163676977,4.29772377014,0.124028518796,26.9716930389,95.4222335815,49.9155921936,34.6510925293,171
1.63085862791313E+018,47,1.63085862791313E+018,base_footprint,0,1.63085862791313E+018,map,-7.69218899055,5.11354200998,0,0,0,0.00218203670462,0.999997619355,0,62.3245925903,13.5472373962,57.3385353088,95.5135116577,42.5854225159,42.5854225159,62.3245925903,62.3245925903,41.928527832,-0.839500904083,0,0.0109234182164,2.71729803085,0.0335622951388,0.0226388778538,13.4333362579,0.497889190912,-0.119895935059,-0.00125685497187,7.40251159668,0.148085966706,-7.10750198364,-0.204115241766,26.9805736542,95.3936157227,49.9879341125,34.8210258484,167
1.63085862801326E+018,48,1.63085862801326E+018,base_footprint,0,1.63085862801326E+018,map,-7.51373076323,5.11354802181,0,0,0,0.00184708840056,0.999998294131,0,62.7762107849,14.4385023117,66.2549972534,96.3361587524,42.2859725952,42.2859725952,62.7762107849,62.7762107849,33.52684021,-0.818188607693,0,0.0136184953153,2.83366703987,0.0316153652966,0.0179968699813,12.1120004654,0.45618724823,-0.990707397461,-0.0103907147422,7.41664886475,0.149220481515,2.68620300293,0.0741777792573,26.5505027771,95.345451355,49.70262146,36.2130432129,170
1.63085862811325E+018,49,1.63085862811325E+018,base_footprint,0,1.63085862811325E+018,map,-7.41636983024,5.11070892899,0,0,0,0.00243626260771,0.999997032308,0,62.5775871277,18.8948307037,67.619468689,96.4428863525,42.3528289795,42.3528289795,62.5775871277,62.5775871277,38.2083625793,-1.20047926903,0,0.0117993019521,2.90080881119,0.0267812293023,0.0149819264188,7.52740478516,0.284889012575,-1.13640594482,-0.0119237005711,7.19322967529,0.145182684064,-1.16597366333,-0.031476739794,26.4222354889,95.3064804077,49.5460586548,37.042388916,159
1.63085862821315E+018,50,1.63085862821315E+018,base_footprint,0,1.63085862821315E+018,map,-7.31216010512,5.1079849065,0,0,0,0.00229743491363,0.999997360893,0,62.2262229919,19.7860965729,65.0536804199,96.1179428101,42.2289085388,42.2289085388,62.2262229919,62.2262229919,42.024810791,-1.51191282272,0,0.0062519623898,3.00164890289,0.0185598600656,0.0123078981414,6.94602966309,0.259838283062,-0.790466308594,-0.00829211436212,7.40938949585,0.149267598987,-4.30263137817,-0.114061050117,26.732126236,95.3274765015,49.6382980347,37.7221794128,162
1.6308586283134E+018,51,1.6308586283134E+018,base_footprint,0,1.6308586283134E+018,map,-7.13694149213,5.10743290637,0,0,0,0.00413291175344,0.999991459484,0,62.1396026611,16.593503952,64.5958251953,95.9615325928,42.0463180542,42.0463180542,62.1396026611,62.1396026611,41.0489044189,-0.849102914333,0,0.00428835116327,3.09729266167,0.0148028843105,0.0105145340785,10.1378211975,0.379248738289,-0.630027770996,-0.00660880981013,7.47269821167,0.150905624032,-2.21836853027,-0.05712948367,26.7313251495,95.3315048218,49.5190162659,38.8305358887,158
1.63085862841398E+018,52,1.63085862841398E+018,base_footprint,0,1.63085862841398E+018,map,-7.04242079004,5.110793113,0,0,0,0.0071571222203,0.999974387473,0,61.8737068176,15.7155399323,67.5049362183,95.7430267334,41.8095970154,41.8095970154,61.8737068176,61.8737068176,42.4918289185,-1.37767994404,0,0.00400122534484,3.12998628616,0.0150476265699,0.011046401225,11.3195762634,0.418698996305,-0.304512023926,-0.00319066178054,7.58202362061,0.153508290648,-3.19945144653,-0.081426769495,27.0351161957,95.4385147095,49.391620636,39.2923774719,157
1.63085862851329E+018,53,1.63085862851329E+018,base_footprint,0,1.63085862851329E+018,map,-6.9376013503,5.11362897652,0,0,0,0.00555954486134,0.999984545611,0,62.1299171448,17.8200683594,69.2198944092,96.3951873779,41.7506942749,41.7506942749,62.1299171448,62.1299171448,39.5916366577,-0.785502195358,0,0.00187779043335,3.24068212509,0.00856184214354,0.00668405136093,9.34661865234,0.34404706955,-0.946105957031,-0.00991215370595,7.62076950073,0.154355749488,0.281703948975,0.00706496974453,27.1666870117,95.4490814209,49.3714637756,39.8733406067,164
1.63085862861373E+018,54,1.63085862861373E+018,base_footprint,0,1.63085862861373E+018,map,-6.85118436684,5.11294475243,0,0,0,0.00355190815744,0.999993691954,0,61.8697090149,10.8996543884,66.8394622803,95.7205276489,41.4535675049,41.4535675049,61.8697090149,61.8697090149,38.6376724243,-0.479264229536,0,0.000669571396429,3.30941343307,0.00521631026641,0.00454673869535,16.6510372162,0.604378163815,-0.25707244873,-0.00269288849086,7.75427627563,0.157582119107,1.78887176514,0.0442499294877,27.5506916046,95.4634552002,49.2078437805,40.4265441895,173
1.6308586287137E+018,55,1.6308586287137E+018,base_footprint,0,1.6308586287137E+018,map,-6.67402708276,5.11694982458,0,0,0,0.00160165324295,0.999998717353,0,60.8216056824,14.9849720001,60.519985199,93.5721435547,41.2593040466,41.2593040466,60.8216056824,60.8216056824,47.6713218689,-1.33646178246,0,0.00210442161188,3.40179896355,0.00830160547048,0.0104060266167,12.2046051025,0.448870718479,1.9672164917,0.0205906387419,7.59659957886,0.155489906669,-6.37323760986,-0.154322832823,27.1895771027,95.5393600464,48.8559036255,41.298084259,173
1.63085862881396E+018,56,1.63085862881396E+018,base_footprint,0,1.63085862881396E+018,map,-6.56484881588,5.11944197289,0,0,0,0.0009908911592,0.999999509067,0,61.0031433105,13.4948101044,52.4811592102,94.4811935425,41.02161026,41.02161026,61.0031433105,61.0031433105,45.1091003418,-1.06660985947,0,0.00195544958115,3.47086071968,0.0107157072052,0.0126711567864,12.6618061066,0.484076619148,1.03706359863,0.010857229121,7.71238327026,0.158254697919,-3.76058578491,-0.0909485071898,26.1566162109,95.5182571411,48.7339935303,41.3485145569,181
1.63085862891319E+018,57,1.63085862891319E+018,base_footprint,0,1.63085862891319E+018,map,-6.4733155556,5.11795288814,0,0,0,0.00123485097947,0.999999237571,0,60.7845954895,13.1221723557,50.5175590515,94.9849090576,40.7348327637,40.7348327637,60.7845954895,60.7845954895,47.759147644,-1.23372709751,0,0.0020432297606,3.52626371384,0.0110838310793,0.0131270606071,12.4003248215,0.485858589411,0.561721801758,0.00587903289124,7.97575378418,0.16373758018,-6.23699569702,-0.150208875537,25.5224971771,95.5466308594,48.7105865479,41.522151947,171
1.63085862901308E+018,58,1.63085862901308E+018,base_footprint,0,1.63085862901308E+018,map,-6.37681564442,5.12111462152,0,0,0,0.00181330672463,0.999998355958,0,60.735294342,4.58545637131,50.3031959534,94.5195846558,40.3574142456,40.3574142456,60.735294342,60.735294342,42.8952980042,-1.67617857456,0,0.00132603128441,3.57500267029,0.0118879973888,0.0132140284404,20.018989563,0.813633024693,0.991912841797,0.0103852711618,8.16461181641,0.16826608777,-1.72397232056,-0.0418731309474,24.6044464111,95.5114974976,48.522026062,41.1713256836,171
1.63085862911356E+018,59,1.63085862911356E+018,base_footprint,0,1.63085862911356E+018,map,-6.2851850833,5.12045824898,0,0,0,0.0017694644809,0.999998434497,0,60.7223052979,7.69230747223,48.8830413818,94.7941894531,40.0378265381,40.0378265381,60.7223052979,60.7223052979,40.6661071777,-1.07560217381,0,0.0037204567343,3.64866280556,0.00933903362602,0.0130594903603,16.4631767273,0.681550264359,0.696601867676,0.00729496404529,8.34115219116,0.172412738204,0.539127349854,0.0130839534104,24.1554851532,95.4907913208,48.3789787292,41.2052345276,174
1.63085862921404E+018,60,1.63085862921404E+018,base_footprint,0,1.63085862921404E+018,map,-6.09927353721,5.1246987921,0,0,0,0.0020730261262,0.999997851279,0,60.8262252808,10.5882349014,48.8830413818,94.9485702515,39.8324432373,39.8324432373,60.8262252808,60.8262252808,37.1331710815,-1.09317708015,0,0.00267017888837,3.73526358604,0.00963776465505,0.0123079437762,12.4156713486,0.539720118046,0.505706787109,0.00529789552093,8.48489761353,0.175607711077,4.43253707886,0.106639280915,23.00390625,95.4542770386,48.3173408508,41.5657081604,167
1.63085862931302E+018,61,1.63085862931302E+018,base_footprint,0,1.63085862931302E+018,map,-5.94587319763,5.12397792709,0,0,0,0.00268357564269,0.999996399204,0,60.7468528748,8.08823490143,48.7874603271,94.9369430542,39.6906051636,39.6906051636,60.7468528748,60.7468528748,36.9881629944,-1.43136882782,0,0.00331843760796,3.75436687469,0.00855052098632,0.0118689583614,13.6066026688,0.627181589603,0.414741516113,0.0043495981954,8.30252075195,0.172993957996,4.25085830688,0.10307854414,21.6948375702,95.3516845703,47.9931259155,41.2390213013,162
1.63085862941411E+018,62,1.63085862941411E+018,base_footprint,0,1.63085862941411E+018,map,-5.87071062089,5.12452849024,0,0,0,0.00378042635707,0.999992854163,0,59.8547821045,8.80072975159,48.8113059998,94.6164627075,39.5401496887,39.5401496887,59.8547821045,59.8547821045,50.2668418884,-1.1483695507,0,0.00566630158573,3.80969882011,0.00474941171706,0.0104157133028,12.3760910034,0.584416866302,0.718284606934,0.0075343423523,8.4881477356,0.176732227206,-9.17390060425,-0.223247602582,21.176820755,95.3347473145,48.0282974243,41.0929412842,145
1.63085862951368E+018,63,1.63085862951368E+018,base_footprint,0,1.63085862951368E+018,map,-5.77352626325,5.12270466543,0,0,0,0.00342644319064,0.999994129726,0,60.7300949097,9.56979846954,48.733039856,94.9712142944,39.2980728149,39.2980728149,60.7300949097,60.7300949097,33.173828125,-2.01263642311,0,0.00637927884236,3.84117865562,0.00312333228067,0.00950261112303,11.9262742996,0.554811775684,0.308883666992,0.00324184866622,8.6902885437,0.181091591716,7.79490280151,0.190264686942,21.4960727692,95.2800979614,47.9883613586,40.9687309265,152
1.6308586296132E+018,64,1.6308586296132E+018,base_footprint,0,1.6308586296132E+018,map,-5.57996590582,5.12503660472,0,0,0,0.0024544928398,0.999996987728,0,60.5930213928,7.36452054977,48.7361526489,95.0838165283,39.2659034729,39.2659034729,60.5930213928,60.5930213928,35.6991577148,-1.41660439968,0,0.00386751140468,3.89649200439,0.00385352573358,0.00772103713825,15.3495750427,0.675773084164,0.213806152344,0.00224356236868,8.79828262329,0.183052778244,5.21635437012,0.127490878105,22.7140960693,95.2976226807,48.0641860962,40.915512085,145
1.63085862971363E+018,65,1.63085862971363E+018,base_footprint,0,1.63085862971363E+018,map,-5.5374006473,5.12576933832,0,0,0,0.00249355857446,0.999996891078,0,60.2902755737,14.6834306717,48.609336853,95.2125015259,39.3377876282,39.3377876282,60.2902755737,60.2902755737,42.3881530762,-1.66541028023,0,0.00515675684437,3.91882586479,0.00187639915384,0.00703315576538,8.03066539764,0.35355424881,0.0851211547852,0.000893213844392,8.72639846802,0.181557193398,-1.47264099121,-0.0359922423959,22.7140960693,95.2976226807,48.0641860962,40.915512085,145
1.63085862981325E+018,66,1.63085862981325E+018,base_footprint,0,1.63085862981325E+018,map,-5.35467031962,5.12798302638,0,0,0,0.00193545278058,0.99999812701,0,59.9073791504,18.1985301971,48.5572319031,93.7483901978,39.3805732727,39.3805732727,59.9073791504,59.9073791504,44.4715919495,-1.44987916946,0,0.00304805557244,3.96842908859,0.00396780343726,0.00701585877687,5.48153114319,0.231482982635,1.75594329834,0.0183860063553,8.51858139038,0.17784409225,-3.03764343262,-0.0733129158616,23.6800613403,95.5043334961,47.8991546631,41.4339485168,166
1.63085862991347E+018,67,1.63085862991347E+018,base_footprint,0,1.63085862991347E+018,map,-5.25508644255,5.12998555471,0,0,0,0.000867127938059,0.999999624044,0,59.4439659119,12.8872919083,48.5308456421,92.56199646,39.2990036011,39.2990036011,59.4439659119,59.4439659119,47.6610412598,-1.2739764452,0,0.00345153664239,3.98953533173,0.00471723033115,0.00816876720637,11.6182222366,0.47410646081,2.94020080566,0.0307867340744,8.85848236084,0.18394818902,-6.40303039551,-0.155194833875,24.5055141449,95.5021972656,48.1574859619,41.2580108643,163
1.63085863001363E+018,68,1.63085863001363E+018,base_footprint,0,1.63085863001363E+018,map,-5.16919838372,5.13296649492,0,0,0,-9.46303589248E-05,0.999999995523,0,59.466835022,18.5520362854,48.6158599854,92.9790039062,39.4121780396,39.4121780396,59.466835022,59.466835022,49.9729270935,-1.64886558056,0,0.000957037962507,4.0259437561,0.00723048439249,0.00818752218038,5.49316215515,0.228451520205,2.59104156494,0.027111440897,8.39616775513,0.175621375442,-8.83457565308,-0.214752793312,24.0451984406,95.5700454712,47.8083457947,41.1383514404,183
1.63085863011334E+018,69,1.63085863011334E+018,base_footprint,0,1.63085863011334E+018,map,-5.08416835894,5.1329106638,0,0,0,-0.000685347077426,0.99999976515,0,58.9428939819,14.5220584869,48.7039718628,92.0930938721,39.3443984985,39.3443984985,58.9428939819,58.9428939819,55.4825439453,-1.39418625832,0,0.004604392685,4.05518722534,0.0049028149806,0.00950720719993,9.32281112671,0.390977650881,3.47497558594,0.0363612622023,8.36423110962,0.175319045782,-14.4472198486,-0.352067887783,23.8448696136,95.568069458,47.7086296082,41.0353240967,193
1.6308586302136E+018,70,1.6308586302136E+018,base_footprint,0,1.6308586302136E+018,map,-4.98431364754,5.13156733684,0,0,0,-0.000242676830757,0.999999970554,0,59.3365936279,6.57439422607,48.7039718628,92.7577896118,39.1717224121,39.1717224121,59.3365936279,59.3365936279,48.9239883423,-1.39287781715,0,0.00461191870272,4.06583976746,0.00644314941019,0.0110550681129,16.9244766235,0.720225095749,2.82735443115,0.0295794345438,8.35677337646,0.175826594234,-7.93190765381,-0.193498536944,23.4988708496,95.585144043,47.5284957886,40.9920806885,198
1.63085863031329E+018,71,1.63085863031329E+018,base_footprint,0,1.63085863031329E+018,map,-4.79856575293,5.12856129574,0,0,0,-0.00105868085366,0.999999439597,0,60.0558700562,13.7254905701,48.7981796265,94.4175567627,39.1226997375,39.1226997375,60.0558700562,60.0558700562,41.4226760864,-1.60509443283,0,0.00158795539755,4.079246521,0.0151416547596,0.0167296100408,9.56003379822,0.410556942225,1.17993164062,0.0123427053913,8.28414154053,0.174745693803,-0.269931793213,-0.00655926577747,23.2855243683,95.5974884033,47.4068412781,41.1527442932,205
1.6308586304131E+018,72,1.6308586304131E+018,base_footprint,0,1.6308586304131E+018,map,-4.704321043,5.12979681264,0,0,0,-0.000257589966149,0.999999966824,0,60.6507301331,6.60080814362,48.9111366272,95.6438598633,39.097454071,39.097454071,60.6507301331,60.6507301331,34.8572731018,-1.72213768959,0,0.00175722956192,4.09275007248,0.0164114758372,0.0181687045842,16.4805717468,0.714020252228,-0.0530166625977,-0.000554620695766,8.35656738281,0.176098197699,5.93360137939,0.145463943481,23.0813789368,95.5908432007,47.4540214539,40.7908744812,203
1.63085863051357E+018,73,1.63085863051357E+018,base_footprint,0,1.63085863051357E+018,map,-4.61490975447,5.13069522257,0,0,0,5.10189701161E-05,0.999999998699,0,59.8356781006,11.9892234802,49.0788269043,96.0596847534,39.1854171753,39.1854171753,59.8356781006,59.8356781006,51.9751777649,-1.57117474079,0,0.00602956488729,4.09556770325,0.0111132729799,0.0171428378671,11.3637695312,0.486608684063,-0.44229888916,-0.00462571624666,8.40314865112,0.176579147577,-10.9736022949,-0.26763856411,23.3529930115,95.6173858643,47.5885658264,41.00157547,201
1.63085863061312E+018,74,1.63085863061312E+018,base_footprint,0,1.63085863061312E+018,map,-4.42718320119,5.12531894428,0,0,0,0.00440801211044,0.999990284667,0,60.361000061,7.49887752533,49.0727348328,96.3716583252,39.2798538208,39.2798538208,60.361000061,60.361000061,44.6623687744,-1.75043547153,0,0.00700725801289,4.09683084488,0.00880504120141,0.0158123001456,14.9048147202,0.665283858776,-0.896812438965,-0.00939318072051,8.09984588623,0.170956045389,-3.54355239868,-0.0861783623695,22.4036922455,95.4748458862,47.379699707,41.1188163757,184
1.63085863071354E+018,75,1.63085863071354E+018,base_footprint,0,1.63085863071354E+018,map,-4.33971406356,5.1268689853,0,0,0,0.00534368301292,0.999985722424,0,61.0040550232,10.8734407425,50.0624084473,96.4962768555,39.4336853027,39.4336853027,61.0040550232,61.0040550232,35.1973876953,-1.88262045383,0,0.00402765860781,4.10454177856,0.00908329430968,0.0131109524518,11.3833093643,0.511454224586,-0.988121032715,-0.0103459339589,7.9256439209,0.167351275682,5.51457595825,0.1354534477,22.2567501068,95.5081558228,47.3593292236,40.7119636536,187
1.63085863081407E+018,76,1.63085863081407E+018,base_footprint,0,1.63085863081407E+018,map,-4.18796965376,5.12638542561,0,0,0,0.00435365079895,0.999990522817,0,61.0521125793,3.7433154583,48.9684562683,96.7304229736,39.4797096252,39.4797096252,61.0521125793,61.0521125793,35.6723747253,-1.97427785397,0,0.00567940669134,4.10496091843,0.00610165949911,0.0117810657248,18.3463153839,0.830539703369,-1.17214202881,-0.0122662531212,7.82626342773,0.165439218283,5.62718582153,0.1362529248,22.089630127,95.5582809448,47.305973053,41.2995605469,184
1.63085863091384E+018,77,1.63085863091384E+018,base_footprint,0,1.63085863091384E+018,map,-4.0665270734,5.12969464059,0,0,0,0.00477055037108,0.99998862086,0,60.3197212219,7.16911745071,49.461566925,96.5242080688,39.5598640442,39.5598640442,60.3197212219,60.3197212219,48.9786987305,-1.96436023712,0,0.00514700822532,4.10163116455,0.00643467996269,0.011581688188,14.7997169495,0.67366874218,-1.01069641113,-0.0105817113072,7.93333816528,0.167041555047,-7.25610733032,-0.173913151026,21.9688339233,95.5135116577,47.4932022095,41.7225914001,174
1.6308586310135E+018,78,1.6308586310135E+018,base_footprint,0,1.6308586310135E+018,map,-4.06234972826,5.13308923268,0,0,0,0.00449834740621,0.999989882384,0,60.8165130615,14.0989732742,50.2873573303,96.2634277344,39.6618156433,39.6618156433,60.8165130615,60.8165130615,40.1987037659,-1.53559422493,0,0.00295851100236,4.11070203781,0.00779176224023,0.0107502732426,7.86986064911,0.358228415251,-0.74991607666,-0.00785141345114,7.83138656616,0.164894893765,1.52388763428,0.0365242809057,21.9688339233,95.5135116577,47.4932022095,41.7225914001,174
1.63085863111313E+018,79,1.63085863111313E+018,base_footprint,0,1.63085863111313E+018,map,-3.87497210006,5.13588140635,0,0,0,0.00481501330178,0.999988407756,0,60.0706748962,6.25,50.0701789856,95.6297073364,39.5518836975,39.5518836975,60.0706748962,60.0706748962,50.1551094055,-1.2768945694,0,0.0023639195133,4.10844182968,0.00360886403359,0.00597278354689,15.6275634766,0.714319169521,-0.175117492676,-0.00183456332888,8.00276565552,0.168285667896,-8.08361434937,-0.192139938474,21.8775634766,95.4545898438,47.554649353,42.0714950562,176
1.63085863121333E+018,80,1.63085863121333E+018,base_footprint,0,1.63085863121333E+018,map,-3.71148753007,5.13341402727,0,0,0,0.00520811586179,0.999986437673,0,59.8860054016,5.88235282898,50.2868614197,94.9492492676,39.7310943604,39.7310943604,59.8860054016,59.8860054016,52.9649848938,-1.15909016132,0,0.00302368099801,4.10120248795,1.73364423972E-05,0.00304101733491,16.3689689636,0.735640287399,0.575859069824,0.00602835277095,7.98974609375,0.167426764965,-10.0818939209,-0.235101848841,22.2513217926,95.5251083374,47.7208404541,42.8830909729,178
1.63085863131359E+018,81,1.63085863131359E+018,base_footprint,0,1.63085863131359E+018,map,-3.67960208169,5.13479127954,0,0,0,0.00498764470754,0.999987561623,0,60.4954681396,12.4486999512,49.9268379211,95.5354919434,39.6858940125,39.6858940125,60.4954681396,60.4954681396,43.6169662476,-1.39727151394,0,0.00187847274356,4.10684633255,0.00340276653878,0.00152429379523,9.70716285706,0.438130676746,-0.00132751464844,-1.38957057061E-05,7.96634292603,0.167176678777,-0.566295623779,-0.013154164888,22.1558628082,95.5341644287,47.6522369385,43.0506706238,180
1.63085863141339E+018,82,1.63085863141339E+018,base_footprint,0,1.63085863141339E+018,map,-3.49069826714,5.13631296987,0,0,0,0.00454460482578,0.99998967323,0,60.6638793945,12.8872919083,51.7884407043,96.1199569702,39.8318061829,39.8318061829,60.6638793945,60.6638793945,44.2655525208,-1.24085593224,0,0.00219325372018,4.10808372498,0.00504203699529,0.00284878327511,9.76187992096,0.431003838778,-0.592407226562,-0.00620142789558,7.93622207642,0.16614086926,-0.965599060059,-0.0223002340645,22.6491718292,95.5275497437,47.7680282593,43.2999534607,188
1.63085863151351E+018,83,1.63085863151351E+018,base_footprint,0,1.63085863151351E+018,map,-3.39059301972,5.13665424417,0,0,0,0.00472545954118,0.999988834954,0,60.7085571289,16.2210330963,52.9952011108,95.990776062,39.9251403809,39.9251403809,60.7085571289,60.7085571289,44.0043067932,-1.7270898819,0,0.00242909183726,4.11353254318,0.00664223823696,0.00421314639971,6.24111175537,0.277850210667,-0.473014831543,-0.00495211407542,7.78690338135,0.163206249475,-0.686031341553,-0.015836995095,22.4621448517,95.5177612305,47.7120437622,43.3182754517,192
1.63085863161369E+018,84,1.63085863161369E+018,base_footprint,0,1.63085863161369E+018,map,-3.20771862537,5.13470872234,0,0,0,0.00361977014585,0.999993448611,0,60.1879272461,18.6200790405,53.9056968689,95.9479904175,40.1205978394,40.1205978394,60.1879272461,60.1879272461,55.3325576782,-1.27888071537,0,0.000413796806242,4.10872554779,0.00571662560105,0.0053028287366,3.93640136719,0.174513101578,-0.42374420166,-0.00443598581478,7.43970108032,0.156426712871,-11.7177238464,-0.268663734198,22.5564804077,95.5242462158,47.5602989197,43.6148338318,200
1.63085863171333E+018,85,1.63085863171333E+018,base_footprint,0,1.63085863171333E+018,map,-3.20363131907,5.13206856528,0,0,0,0.00328679281789,0.999994598482,0,60.4850616455,15.2249135971,55.649848938,96.288520813,40.1695671082,40.1695671082,60.4850616455,60.4850616455,51.7389221191,-1.80295395851,0,0.00101030617952,4.11254549026,0.00410636560991,0.00309605943039,7.33156681061,0.325031518936,-0.764274597168,-0.00800084415823,7.39073181152,0.155397087336,-8.12408828735,-0.186268925667,22.5564804077,95.5242462158,47.5602989197,43.6148338318,200
1.6308586318137E+018,86,1.6308586318137E+018,base_footprint,0,1.6308586318137E+018,map,-3.01528151708,5.13093355246,0,0,0,0.000684492553899,0.999999765735,0,60.1687088013,14.1972579956,58.4917526245,94.3261947632,40.3962211609,40.3962211609,60.1687088013,60.1687088013,52.816696167,-1.34358525276,0,0.00266487360932,4.11728572845,0.00191343692131,0.000751436804421,8.45303153992,0.373197495937,1.28086853027,0.0133972167969,6.94410324097,0.146684736013,-8.87093353271,-0.201860949397,22.6502895355,95.6070632935,47.3403244019,43.9457626343,213
1.63085863191349E+018,87,1.63085863191349E+018,base_footprint,0,1.63085863191349E+018,map,-2.92202441116,5.13301255435,0,0,0,0.0016805865042,0.999998587814,0,60.433921814,8.00530719757,61.2162361145,95.6679534912,40.4881744385,40.4881744385,60.433921814,60.433921814,53.8663139343,-1.39635503292,0,0.00206249393523,4.11289405823,0.00445677479729,0.00239428086206,14.6810026169,0.647130489349,-0.0633163452148,-0.000662272737827,6.87212753296,0.145103111863,-9.82323455811,-0.223036959767,22.6863098145,95.604637146,47.3603019714,44.0430793762,208
1.63085863201315E+018,88,1.63085863201315E+018,base_footprint,0,1.63085863201315E+018,map,-2.83032133836,5.13267242932,0,0,0,0.00290562528729,0.999995778662,0,60.5080490112,9.77443599701,63.1555099487,94.4860229492,40.5190582275,40.5190582275,60.5080490112,60.5080490112,48.6106300354,-1.84281504154,0,0.00143551197834,4.1159529686,0.00418275175616,0.00561826396734,12.887793541,0.568690478802,1.20600128174,0.0126029448584,6.87389373779,0.145040422678,-4.56457519531,-0.103631876409,22.662229538,95.692024231,47.3929519653,44.0460548401,208
1.63085863211328E+018,89,1.63085863211328E+018,base_footprint,0,1.63085863211328E+018,map,-2.72639423568,5.13248851518,0,0,0,0.0041625132489,0.999991336704,0,60.531463623,5.70273923874,57.3817710876,95.3161849976,40.4801292419,40.4801292419,60.531463623,60.531463623,50.7573280334,-0.965851783752,0,0.000187475627172,4.11329698563,0.00650347303599,0.00669094873592,16.7702331543,0.746240079403,0.321403503418,0.00336064002477,6.69968414307,0.142003193498,-6.64640426636,-0.150674790144,22.4729728699,95.637588501,47.179813385,44.1109237671,211
1.63085863221334E+018,90,1.63085863221334E+018,base_footprint,0,1.63085863221334E+018,map,-2.53404349569,5.13327918572,0,0,0,0.00305551894007,0.999995331891,0,60.4721679688,15.1846780777,54.1773300171,94.5967330933,40.7700996399,40.7700996399,60.4721679688,60.4721679688,52.3662910461,-0.808899104595,0,0.00163229485042,4.11485624313,0.00565065536648,0.00728295044973,8.3043756485,0.353542357683,1.12672424316,0.0117706181481,6.50347137451,0.137570977211,-8.02439117432,-0.180966332555,23.4890537262,95.7234573364,47.2735710144,44.3418998718,231
1.63085863231325E+018,91,1.63085863231325E+018,base_footprint,0,1.63085863231325E+018,map,-2.43867400119,5.13297408232,0,0,0,0.00303075433459,0.999995407254,0,60.4159431458,11.9962949753,54.4225120544,93.4356536865,40.9970283508,40.9970283508,60.4159431458,60.4159431458,51.6493034363,-1.24647641182,0,0.00235450966284,4.11871004105,0.0055780839175,0.00793259311467,11.2714700699,0.484424263239,2.31396484375,0.0241668317467,6.21074295044,0.131561875343,-7.20077514648,-0.162002548575,23.2677650452,95.7496185303,47.2077713013,44.4485282898,240
1.63085863241405E+018,92,1.63085863241405E+018,base_footprint,0,1.63085863241405E+018,map,-2.26164422765,5.13408650377,0,0,0,0.00537057446774,0.999985578361,0,60.3049812317,13.165266037,55.8354187012,92.5687179565,41.1520881653,41.1520881653,60.3049812317,60.3049812317,52.2002677917,-1.01290297508,0,0.000340416794643,4.1174325943,0.00597897870466,0.00631939526647,10.4226531982,0.441864043474,3.22563934326,0.0336725413799,6.41248703003,0.134816452861,-7.64754104614,-0.171651467681,23.5879192352,95.7943572998,47.5645751953,44.5527267456,264
1.63085863251334E+018,93,1.63085863251334E+018,base_footprint,0,1.63085863251334E+018,map,-2.16603701524,5.13458426232,0,0,0,0.00693432850619,0.999975957255,0,60.8131141663,15.0326795578,59.0531654358,90.9334487915,41.3924331665,41.3924331665,60.8131141663,60.8131141663,39.7626190186,-1.76094424725,0,0.00083812372759,4.10598230362,0.00274701602757,0.00358513975516,9.10303783417,0.377160429955,4.89796447754,0.0511102192104,6.37069702148,0.133381068707,4.85902023315,0.108893811703,24.135717392,95.831413269,47.763130188,44.6216392517,288
1.6308586326139E+018,94,1.6308586326139E+018,base_footprint,0,1.6308586326139E+018,map,-2.06742862607,5.13784228529,0,0,0,0.00789089055278,0.999968866438,0,61.0457344055,18.117647171,62.8568763733,92.7167053223,41.7883911133,41.7883911133,61.0457344055,61.0457344055,46.2715606689,-1.28358244896,0,0.00167444639374,4.10398054123,0.00130615278613,0.000368293665815,6.30274581909,0.2580935359,3.07189178467,0.0320694930851,6.12288284302,0.127796292305,-1.82167434692,-0.0409826561809,24.4203929901,95.7885971069,47.9112739563,44.449886322,295
1.63085863271314E+018,95,1.63085863271314E+018,base_footprint,0,1.63085863271314E+018,map,-1.97588235831,5.13776424275,0,0,0,0.0066806668154,0.999977684096,0,61.5389060974,23.1499042511,66.6596755981,93.8306503296,42.1240692139,42.1240692139,61.5389060974,61.5389060974,45.0299873352,-1.79064071178,0,0.000190190257854,4.11105012894,0.00364050059579,0.0038306908682,1.44333457947,0.0586882680655,1.93016815186,0.0201561376452,5.7875328064,0.120796062052,-0.476638793945,-0.010698158294,24.5932388306,95.7608184814,47.9116020203,44.5533485413,294
1.63085863281314E+018,96,1.63085863281314E+018,base_footprint,0,1.63085863281314E+018,map,-1.87732268716,5.13897129518,0,0,0,0.00606321958293,0.999981618515,0,61.8433227539,19.7012138367,71.0595779419,95.2381362915,42.2854690552,42.2854690552,61.8433227539,61.8433227539,46.3605003357,-1.81366407871,0,0.0012754247291,4.11080121994,0.00606265151873,0.00478722713888,4.64991760254,0.190952837467,0.546966552734,0.00571035081521,5.46455383301,0.114440865815,-1.37316513062,-0.0305233709514,24.3511314392,95.7851028442,47.7500228882,44.9873352051,273
1.63085863291341E+018,97,1.63085863291341E+018,base_footprint,0,1.63085863291341E+018,map,-1.70128521261,5.14023895535,0,0,0,0.00604928351142,0.999981702917,0,61.9993286133,19.0588226318,70.171875,95.3750305176,42.5433235168,42.5433235168,61.9993286133,61.9993286133,46.8300857544,-1.42114317417,0,0.000698036106769,4.11781549454,0.00602861726657,0.00533058075234,5.11494445801,0.211590707302,0.439041137695,0.00458221975714,5.12861251831,0.107581377029,-1.34080505371,-0.0294751878828,24.1737670898,95.8140716553,47.6719360352,45.4892807007,267
1.63085863301337E+018,98,1.63085863301337E+018,base_footprint,0,1.63085863301337E+018,map,-1.59804433808,5.1399465837,0,0,0,0.00359139241345,0.999993550929,0,61.6855125427,14.8732662201,70.6715164185,94.8437957764,42.6898040771,42.6898040771,61.6855125427,61.6855125427,52.1483383179,-1.38112723827,0,0.00024054889218,4.11329555511,0.0058334893547,0.00607403786853,8.50937652588,0.36391851306,0.963066101074,0.0100521622226,4.78329849243,0.100758075714,-6.22674179077,-0.135595068336,23.382642746,95.8068618774,47.4731025696,45.9215965271,245
1.6308586331132E+018,99,1.6308586331132E+018,base_footprint,0,1.6308586331132E+018,map,-1.49670142257,5.14029863468,0,0,0,0.00285157729693,0.999995934245,0,61.8650779724,10.5882349014,70.6715164185,94.7791519165,42.7312240601,42.7312240601,61.8650779724,61.8650779724,49.130771637,-1.25823426247,0,0.00161382288206,4.11569786072,0.0022989443969,0.00391276739538,12.6558866501,0.544476866722,1.01176452637,0.0105622177944,4.60931777954,0.0973651260138,-3.16170883179,-0.0687790587544,23.2441215515,95.7909164429,47.3405418396,45.9690628052,245
1.630858633214E+018,100,1.630858633214E+018,base_footprint,0,1.630858633214E+018,map,-1.4046295621,5.1453254641,0,0,0,0.00481222664205,0.99998842117,0,62.1646842957,10.8159389496,69.9923400879,95.3106384277,42.8008422852,42.8008422852,62.1646842957,62.1646842957,46.4030647278,-1.24768328667,0,0.00137425109278,4.11066865921,0.00264929514378,0.001275044051,12.907743454,0.544086813927,0.438400268555,0.00457863882184,4.66648864746,0.0983094796538,-0.334674835205,-0.00726473936811,23.7236824036,95.7490386963,47.4673309326,46.0683898926,237
1.63085863331345E+018,101,1.63085863331345E+018,base_footprint,0,1.63085863331345E+018,map,-1.22807209274,5.14658162869,0,0,0,0.00369460764911,0.999993174914,0,62.5282058716,16.5085391998,63.8842658997,95.4247360229,42.8360824585,42.8360824585,62.5282058716,62.5282058716,40.6510429382,-1.57751393318,0,0.000745070865378,4.12023591995,0.000441320473328,0.00118639133871,7.32493782043,0.30733820796,0.384140014648,0.00400944100693,4.49690628052,0.0950057506561,5.68593978882,0.122708462179,23.8334770203,95.8088760376,47.332988739,46.3369827271,229
1.63085863341364E+018,102,1.63085863341364E+018,base_footprint,0,1.63085863341364E+018,map,-1.13510035224,5.14976935929,0,0,0,0.00263411850638,0.999996530704,0,62.7919197083,10.5493440628,58.7343826294,95.4577255249,42.8375968933,42.8375968933,62.7919197083,62.7919197083,36.03931427,-0.709255516529,0,9.54172064667E-05,4.11387681961,0.000545187445823,0.000449770217529,13.7561883926,0.565969407558,0.456428527832,0.00475871935487,4.45682907104,0.0942358225584,9.9617729187,0.216555163264,24.3055324554,95.9141540527,47.2944259644,46.0010871887,257
1.63085863351322E+018,103,1.63085863351322E+018,base_footprint,0,1.63085863351322E+018,map,-0.936397165257,5.14924982725,0,0,0,0.00130546977347,0.999999147874,0,62.5684509277,14.1755065918,57.1704673767,95.4065856934,42.7628555298,42.7628555298,62.5684509277,62.5684509277,39.0704078674,-1.30923545361,0,0.00101998809259,4.11060094833,0.000280635926174,0.00130062398966,10.1603164673,0.417504519224,0.556144714355,0.00579542387277,4.43946838379,0.0940519049764,7.09761428833,0.153734430671,24.3358230591,95.9627304077,47.2023239136,46.1680221558,275
1.63085863361328E+018,104,1.63085863361328E+018,base_footprint,0,1.63085863361328E+018,map,-0.839352035124,5.14669632584,0,0,0,-0.000853226397348,0.999999636002,0,61.9745368958,12.745098114,53.8394088745,94.7830734253,42.7474021912,42.7474021912,61.9745368958,61.9745368958,47.3493232727,-0.876371145248,0,0.00060245662462,4.11641311646,0.00525710405782,0.00465464731678,11.6429023743,0.477402895689,1.14205932617,0.0119057362899,4.43911361694,0.0940758958459,-1.64070129395,-0.0358947888017,24.3880004883,95.9251327515,47.1865158081,45.7086219788,323
1.63085863371345E+018,105,1.63085863371345E+018,base_footprint,0,1.63085863371345E+018,map,-0.728620824152,5.14488551997,0,0,0,-0.000713684396606,0.999999745327,0,61.5143814087,9.57705402374,48.9169502258,94.2704238892,42.7354698181,42.7354698181,61.5143814087,61.5143814087,53.6577033997,-1.25394880772,0,0.000963732250966,4.11347103119,0.00796907022595,0.00893280282617,15.1492147446,0.612676918507,1.61949920654,0.0168891493231,4.32231140137,0.0918511524796,-8.67342758179,-0.192810207605,24.7262687683,95.8899230957,47.0577812195,44.9842758179,399
1.63085863381387E+018,106,1.63085863381387E+018,base_footprint,0,1.63085863381387E+018,map,-0.636884970669,5.14797687422,0,0,0,0.000357378144695,0.99999993614,0,62.4311332703,12.0118637085,48.7525444031,94.7396621704,42.7022590637,42.7022590637,62.4311332703,62.4311332703,38.4867630005,-1.28205895424,0,0.00101710448507,4.11205244064,0.009252499789,0.0102696046233,12.914899826,0.518113791943,1.1403503418,0.0118935145438,4.21085357666,0.0897585600615,6.5358505249,0.145168170333,24.9267635345,95.8800125122,46.9131126404,45.0226135254,453
1.63085863391321E+018,107,1.63085863391321E+018,base_footprint,0,1.63085863391321E+018,map,-0.45323329575,5.15134864476,0,0,0,0.00405728789534,0.999991769174,0,61.862247467,11.5133228302,48.5712165833,95.5614776611,42.6397285461,42.6397285461,61.862247467,61.862247467,51.0099563599,-1.11585378647,0,0.00268792104907,4.1114487648,0.00682582147419,0.00951374229044,13.1316337585,0.532832503319,0.314292907715,0.00327812647447,4.21935653687,0.0900435075164,-5.97190475464,-0.132596865296,24.6449565887,95.8757705688,46.859085083,45.0380516052,453
