%time,field.header.seq,field.header.stamp,field.header.frame_id,field.pose.header.seq,field.pose.header.stamp,field.pose.header.frame_id,field.pose.pose.position.x,field.pose.pose.position.y,field.pose.pose.position.z,field.pose.pose.orientation.x,field.pose.pose.orientation.y,field.pose.pose.orientation.z,field.pose.pose.orientation.w,field.label,field.main_output,field.scan_score,field.pose_score,field.cov_score,field.lhood_map_score,field.lhood_robot_score,field.lhood_map_score_all,field.lhood_robot_score_all,field.point_angle_diff,field.average_orientation,field.map_average_orientation,field.sensor_div,field.odom_div_x,field.odom_div_w,field.imu_div_w,field.kdtree_div,field.kdtree_div_p,field.cov_div,field.cov_div_p,field.likelihood_div,field.likelihood_div_p,field.normal_diff_div,field.normal_diff_div_p,field.kdtree_average,field.cov_average,field.likelihood_average,field.normal_diff_average,field.map_update_count
1.6308465576293E+018,0,1.6308465576293E+018,base_footprint,0,1.6308465576293E+018,map,-13.0841408198,-2.2057430601,0,0,0,-0.710717393176,0.703477637909,0,68.8527450562,49.1525421143,100,97.0765304565,50.889831543,50.889831543,68.8527450562,68.8527450562,19.7362422943,0.200530663133,0,0.00239657983184,0.0596413314342,0.00784711912274,0.0102436989546,-19.2269763947,-0.64249330759,0.726341247559,0.00742658413947,-1.07855606079,-0.0216528493911,11.0258464813,0.35842320323,29.9255657196,97.8028717041,49.8112754822,30.7620887756,23
1.63084655932828E+018,1,1.63084655932828E+018,base_footprint,0,1.63084655932828E+018,map,-13.090783111,-2.42607430901,0,0,0,-0.710345333126,0.703853328262,0,69.2359085083,45.7013587952,49.213886261,96.9538269043,50.9686813354,50.9686813354,69.2359085083,69.2359085083,13.249256134,1.06194806099,0,0.00891209207475,0.140085861087,0.0212263464928,0.0301384385675,-11.7178649902,-0.34481048584,0.789131164551,0.0080735348165,-1.37607955933,-0.0277476776391,16.5316963196,0.555109739304,33.9834938049,97.7429580688,49.5926017761,29.7809524536,14
1.63084655942809E+018,2,1.63084655942809E+018,base_footprint,0,1.63084655942809E+018,map,-13.090783111,-2.42607430901,0,0,0,-0.710345333126,0.703853328262,0,68.1362609863,32.8976020813,57.6473922729,96.9538269043,50.6392173767,50.6392173767,68.1362609863,68.1362609863,29.4846115112,0.797460377216,0,0.00878007989377,0.184092134237,0.0170734580606,0.0258535388857,1.08589172363,0.0319535061717,0.789131164551,0.0080735348165,-1.04661560059,-0.0211042687297,0.296340942383,0.00995068717748,33.9834938049,97.7429580688,49.5926017761,29.7809524536,14
1.63084655952797E+018,3,1.63084655952797E+018,base_footprint,0,1.63084655952797E+018,map,-13.090783111,-2.42607430901,0,0,0,-0.710345333126,0.703853328262,0,67.840423584,26.6837177277,66.2181091309,96.9538269043,50.2984848022,50.2984848022,67.840423584,67.840423584,31.1297950745,0.788949608803,0,0.00750901643187,0.225058540702,0.0156271383166,0.0231361556798,7.29977607727,0.214803576469,0.789131164551,0.0080735348165,-0.705883026123,-0.0142336357385,-1.34884262085,-0.0452921241522,33.9834938049,97.7429580688,49.5926017761,29.7809524536,14
1.63084655962833E+018,4,1.63084655962833E+018,base_footprint,0,1.63084655962833E+018,map,-13.090783111,-2.42607430901,0,0,0,-0.710345333126,0.703853328262,0,67.8657226562,28.9039363861,72.0059661865,96.9538269043,49.9715156555,49.9715156555,67.8657226562,67.8657226562,27.1430854797,0.730025827885,0,0.00975302793086,0.255064547062,0.0138245932758,0.0235776212066,5.07955741882,0.149471312761,0.789131164551,0.0080735348165,-0.378913879395,-0.00764053221792,2.63786697388,0.0885756388307,33.9834938049,97.7429580688,49.5926017761,29.7809524536,14
1.6308465597291E+018,5,1.6308465597291E+018,base_footprint,0,1.6308465597291E+018,map,-13.090783111,-2.42607430901,0,0,0,-0.710345333126,0.703853328262,0,67.7459716797,19.0654983521,76.1335220337,96.9538269043,49.6871299744,49.6871299744,67.7459716797,67.7459716797,26.227306366,0.643142223358,0,0.0133716091514,0.267401367426,0.0136560164392,0.0270276255906,14.9179954529,0.438977688551,0.789131164551,0.0080735348165,-0.0945281982422,-0.00190609472338,3.55364608765,0.119326137006,33.9834938049,97.7429580688,49.5926017761,29.7809524536,14
1.63084655982889E+018,6,1.63084655982889E+018,base_footprint,0,1.63084655982889E+018,map,-13.0932696959,-2.35336037571,0,0,0,-0.710298292618,0.703900799477,0,68.4414672852,10.924369812,79.2135391235,97.1664428711,49.4298439026,49.4298439026,68.4414672852,68.4414672852,11.6950426102,0.108114056289,0,0.0123741505668,0.267545670271,0.0126693649217,0.0250435154885,23.4552192688,0.682242572308,0.54532623291,0.00558096775785,0.334232330322,0.00671633752063,17.4115066528,0.598198890686,34.3795890808,97.711769104,49.7640762329,29.1065502167,15
1.630846559929E+018,7,1.630846559929E+018,base_footprint,0,1.630846559929E+018,map,-13.099433154,-2.27804541913,0,0,0,-0.710396219415,0.70380196891,0,68.087638855,9.24369716644,81.5956192017,97.1108322144,49.2768592834,49.2768592834,68.087638855,68.087638855,16.2116031647,0.0696188285947,0,0.010207769461,0.259560197592,0.0125480573624,0.0227558277547,22.7829666138,0.711374938488,0.637649536133,0.00652337027714,0.462856292725,0.00930556748062,14.9701576233,0.48009338975,32.0266647339,97.7484817505,49.7397155762,31.181760788,20
1.63084656002971E+018,8,1.63084656002971E+018,base_footprint,0,1.63084656002971E+018,map,-13.1013427117,-2.26695724832,0,0,0,-0.709836210318,0.704366775566,0,68.0455322266,4.04672527313,83.4910583496,97.1586990356,49.1739959717,49.1739959717,68.0455322266,68.0455322266,16.0308933258,-0.0637304261327,0,0.0101834498346,0.252160698175,0.0118632977828,0.0220467466861,27.9799385071,0.873645067215,0.589782714844,0.00603367667645,0.565719604492,0.0113735990599,15.1508674622,0.485888779163,32.0266647339,97.7484817505,49.7397155762,31.181760788,20
1.63084656012862E+018,9,1.63084656012862E+018,base_footprint,0,1.63084656012862E+018,map,-13.1040580616,-2.19181887023,0,0,0,-0.709784529912,0.704418853451,0,67.6083831787,5.71547746658,85.0343093872,97.3783950806,48.9367408752,48.9367408752,67.6083831787,67.6083831787,22.1280994415,0.0207123402506,0,0.0145733915269,0.240030676126,0.00775776570663,0.0223311576992,24.2100887299,0.809010207653,0.424476623535,0.00434012431651,0.874534606934,0.0175569616258,8.63398933411,0.280669808388,29.9255657196,97.8028717041,49.8112754822,30.7620887756,23
1.63084656022822E+018,10,1.63084656022822E+018,base_footprint,0,1.63084656022822E+018,map,-13.1062770887,-2.11910001409,0,0,0,-0.709843536313,0.704359392608,0,67.4607391357,7.56302499771,84.8297729492,97.3745651245,48.980922699,48.980922699,67.4607391357,67.4607391357,25.2491588593,0.0330536104739,0,0.0146692292765,0.23273101449,0.0150659652427,0.0297351945192,22.3625411987,0.747272133827,0.42830657959,0.00437928410247,0.830352783203,0.0166699755937,5.51292991638,0.179211825132,29.9255657196,97.8028717041,49.8112754822,30.7620887756,23
1.63084656032807E+018,11,1.63084656032807E+018,base_footprint,0,1.63084656032807E+018,map,-13.1062770887,-2.11910001409,0,0,0,-0.709843536313,0.704359392608,0,67.9156188965,10.2835378647,76.1193084717,97.3745651245,49.0504570007,49.0504570007,67.9156188965,67.9156188965,17.8122463226,0.374874800444,0,0.00865633413196,0.221576958895,0.0126982219517,0.0213545560837,19.6420288086,0.656362831593,0.42830657959,0.00437928410247,0.760818481445,0.0152740208432,12.949842453,0.420967578888,29.9255657196,97.8028717041,49.8112754822,30.7620887756,23
1.63084656042793E+018,12,1.63084656042793E+018,base_footprint,0,1.63084656042793E+018,map,-13.1130654711,-2.04057354873,0,0,0,-0.711237481747,0.702951808134,0,68.016242981,12.8226833344,63.2627182007,97.22996521,49.2331809998,49.2331809998,68.016242981,68.016242981,17.4538269043,0.309065461159,0,0.00679625943303,0.202452033758,0.000821368943434,0.00761762820184,15.316204071,0.544307351112,0.575340270996,0.00588250579312,0.70662689209,0.0141495717689,12.594455719,0.419140607119,28.1388874054,97.805305481,49.9398078918,30.0482826233,30
1.63084656052853E+018,13,1.63084656052853E+018,base_footprint,0,1.63084656052853E+018,map,-13.0984879337,-1.97643575858,0,0,0,-0.709735960637,0.704467789312,0,68.2925643921,7.74439287186,54.1901779175,97.2899246216,49.3947525024,49.3947525024,68.2925643921,68.2925643921,14.4408483505,0.10543359071,0,0.0085896551609,0.180461958051,0.00324125704356,0.00534839788452,20.8611316681,0.729269325733,0.501304626465,0.00512627372518,0.561363220215,0.0112371267751,15.3632593155,0.515474557877,28.6055240631,97.791229248,49.9561157227,29.804107666,33
1.6308465606288E+018,14,1.6308465606288E+018,base_footprint,0,1.6308465606288E+018,map,-13.1128799371,-1.90188562912,0,0,0,-0.712411423743,0.701762041806,0,67.9131851196,14.7485084534,52.1876068115,97.0614852905,49.5755691528,49.5755691528,67.9131851196,67.9131851196,22.4002285004,0.352812051773,0,0.0104068946093,0.149195000529,0.00837594643235,0.00203094794415,13.3730640411,0.475544661283,0.752464294434,0.00769281154498,0.106754302979,0.00214873813093,7.24365234375,0.244355738163,28.1215724945,97.813949585,49.6823234558,29.6438808441,39
1.63084656072892E+018,15,1.63084656072892E+018,base_footprint,0,1.63084656072892E+018,map,-13.1128799371,-1.90188562912,0,0,0,-0.712411423743,0.701762041806,0,68.1376800537,11.3384485245,53.396686554,97.0614852905,49.8230857849,49.8230857849,68.1376800537,68.1376800537,21.0324802399,-0.000849974516314,0,0.00375526072457,0.124592803419,0.00444621965289,0.000690959044732,16.7831230164,0.596805989742,0.752464294434,0.00769281154498,-0.140762329102,-0.00283324765041,8.61140060425,0.290495038033,28.1215724945,97.813949585,49.6823234558,29.6438808441,39
1.63084656082864E+018,16,1.63084656082864E+018,base_footprint,0,1.63084656082864E+018,map,-13.110841537,-1.82104639687,0,0,0,-0.711657662445,0.702526420488,0,68.096824646,11.3384485245,49.2267303467,97.133140564,50.0117912292,50.0117912292,68.096824646,68.096824646,24.0638046265,-0.104374468327,0,0.00247484981082,0.110584951937,0.00421931175515,0.00174446194433,15.2855234146,0.574126362801,0.686325073242,0.00701624248177,-0.0662574768066,-0.00132659461815,5.88424873352,0.196481838822,26.6239719391,97.8194656372,49.9455337524,29.94805336,37
1.63084656092803E+018,17,1.63084656092803E+018,base_footprint,0,1.63084656092803E+018,map,-13.110841537,-1.82104639687,0,0,0,-0.711657662445,0.702526420488,0,68.2407302856,11.3384485245,49.1342163086,97.133140564,50.1664085388,50.1664085388,68.2407302856,68.2407302856,23.1434116364,-0.0431509055197,0,0.00175627390854,0.106110669672,0.00350073585287,0.00174446194433,15.2855234146,0.574126362801,0.686325073242,0.00701624248177,-0.220874786377,-0.00442231306806,6.80464172363,0.227214828134,26.6239719391,97.8194656372,49.9455337524,29.94805336,37
1.63084656102844E+018,18,1.63084656102844E+018,base_footprint,0,1.63084656102844E+018,map,-13.1065600889,-1.76253642952,0,0,0,-0.712330356019,0.701844330243,0,68.592414856,11.764705658,49.1226043701,96.954208374,50.3784446716,50.3784446716,68.592414856,68.592414856,18.4588756561,-0.212414562702,0,0.00205813883804,0.101762108505,0.00380260078236,0.00174446194433,14.0268173218,0.543853759766,0.847557067871,0.00866607110947,-0.354446411133,-0.00708552729338,11.0224571228,0.37387919426,25.7915229797,97.8017654419,50.0239982605,29.4813327789,40
1.63084656112803E+018,19,1.63084656112803E+018,base_footprint,0,1.63084656112803E+018,map,-13.1159172579,-1.66994327597,0,0,0,-0.712142713863,0.70203472499,0,68.5985565186,16.3398685455,49.1193962097,96.968421936,50.6539344788,50.6539344788,68.5985565186,68.5985565186,21.3748626709,-0.209927931428,0,0.00201195734553,0.0900840014219,0.00312001840211,0.00110806094017,9.12736701965,0.358396470547,0.864891052246,0.00884045567364,-0.517601013184,-0.0103238709271,8.05714416504,0.273754507303,25.4672355652,97.8333129883,50.1363334656,29.4320068359,43
1.630846561228E+018,20,1.630846561228E+018,base_footprint,0,1.630846561228E+018,map,-13.1071715717,-1.60004457349,0,0,0,-0.711561105856,0.702624218649,0,68.7560577393,13.5472373962,49.1190490723,96.897605896,50.753692627,50.753692627,68.7560577393,68.7560577393,19.3622150421,-0.238427087665,0,0.00292750867084,0.0786900147796,0.00410911953077,0.00118161085993,10.6300430298,0.439670741558,1.00319671631,0.0102470731363,-0.557167053223,-0.0110997138545,10.2052459717,0.345151245594,24.177280426,97.9008026123,50.1965255737,29.5674610138,48
1.6308465613288E+018,21,1.6308465613288E+018,base_footprint,0,1.6308465613288E+018,map,-13.1071715717,-1.60004457349,0,0,0,-0.711561105856,0.702624218649,0,68.7110519409,15.1846780777,49.0436286926,96.897605896,50.8380126953,50.8380126953,68.7110519409,68.7110519409,21.0829162598,-0.207191303372,0,0.00224031344987,0.0755930319428,0.00342192430981,0.00118161085993,8.99260234833,0.371944338083,1.00319671631,0.0102470731363,-0.641487121582,-0.0127795124426,8.48454475403,0.286955475807,24.177280426,97.9008026123,50.1965255737,29.5674610138,48
1.63084656142892E+018,22,1.63084656142892E+018,base_footprint,0,1.63084656142892E+018,map,-13.1048391539,-1.5243396676,0,0,0,-0.711294747525,0.702893862644,0,68.5594482422,19.117647171,49.0092582703,96.7963027954,50.978427887,50.978427887,68.5594482422,68.5594482422,24.9637107849,-0.192082941532,0,0.0027130022645,0.0734243094921,0.00389461312443,0.00118161085993,3.75713157654,0.164247781038,1.07621002197,0.0109960399568,-0.900886535645,-0.0179898310453,5.13388442993,0.170574575663,22.8747787476,97.8725128174,50.0775413513,30.0975952148,49
1.63084656152865E+018,23,1.63084656152865E+018,base_footprint,0,1.63084656152865E+018,map,-13.1147162123,-1.45151293963,0,0,0,-0.712230093961,0.701946075747,0,68.9340591431,17.2794113159,48.9748878479,96.8560256958,51.1688690186,51.1688690186,68.9340591431,68.9340591431,20.492433548,-0.155753612518,0,0.0025185290724,0.0650346949697,0.00433247536421,0.00181394640822,5.31789207458,0.235333040357,1.02738189697,0.0104959756136,-1.26391601562,-0.0253264643252,9.22193717957,0.310352772474,22.5973033905,97.8834075928,49.9049530029,29.7143707275,47
1.63084656162898E+018,24,1.63084656162898E+018,base_footprint,0,1.63084656162898E+018,map,-13.1147162123,-1.45151293963,0,0,0,-0.712230093961,0.701946075747,0,69.1992340088,16.9000930786,48.9775085449,96.8560256958,51.4313468933,51.4313468933,69.1992340088,69.1992340088,18.5539741516,-0.158411681652,0,0.00243527442217,0.0648334994912,0.00468827690929,0.00225300271995,5.69721031189,0.252119034529,1.02738189697,0.0104959756136,-1.52639389038,-0.0305860191584,11.1603965759,0.375589191914,22.5973033905,97.8834075928,49.9049530029,29.7143707275,47
1.63084656172899E+018,25,1.63084656172899E+018,base_footprint,0,1.63084656172899E+018,map,-13.1104919333,-1.36158197531,0,0,0,-0.713017420933,0.701146316717,0,69.1096725464,20.3334884644,48.97631073,96.7922210693,51.7275810242,51.7275810242,69.1096725464,69.1096725464,23.1358184814,-0.212302193046,0,5.64161455259E-05,0.0548965781927,0.00298240105622,0.0029259850271,2.26381492615,0.100180752575,1.09118652344,0.0111478194594,-1.82262802124,-0.0365219861269,6.57855224609,0.221392944455,22.5973033905,97.8834075928,49.9049530029,29.7143707275,47
1.63084656182833E+018,26,1.63084656182833E+018,base_footprint,0,1.63084656182833E+018,map,-13.1158650876,-1.28454993697,0,0,0,-0.712947669107,0.701217242454,0,69.011138916,20.3619918823,48.9323387146,96.7401885986,51.9386711121,51.9386711121,69.011138916,69.011138916,27.0018482208,-0.177272334695,0,0.000309363473207,0.0520299822092,0.0036074379459,0.0032980744727,0.846103668213,0.0398953147233,1.16409301758,0.0118901133537,-2.23239517212,-0.0449117347598,2.56396865845,0.0867207124829,21.2080955505,97.9042816162,49.7062759399,29.5658168793,44
1.63084656192802E+018,27,1.63084656192802E+018,base_footprint,0,1.63084656192802E+018,map,-13.1095720874,-1.19591878892,0,0,0,-0.712526053933,0.701645653066,0,69.2450714111,23.1125526428,48.881149292,96.9474487305,52.0014953613,52.0014953613,69.2450714111,69.2450714111,24.2156543732,-0.0684394463897,0,0.00104838865809,0.0368795655668,0.00434646289796,0.0032980744727,-2.80430030823,-0.138086736202,0.856246948242,0.00875475071371,-2.42065048218,-0.0488222911954,6.75345420837,0.218070670962,20.3082523346,97.8036956787,49.5808448792,30.9691085815,50
1.63084656202798E+018,28,1.63084656202798E+018,base_footprint,0,1.63084656202798E+018,map,-13.1179811426,-1.18651250896,0,0,0,-0.714594676956,0.699538739217,0,69.6069564819,24.632352829,48.7954025269,97.0799026489,52.1896286011,52.1896286011,69.6069564819,69.6069564819,20.2104034424,-0.00474254321307,0,0.000267428549705,0.0589614659548,0.00361589016393,0.00334846158512,-4.32410049438,-0.212923318148,0.723793029785,0.00740046706051,-2.60878372192,-0.0526167675853,10.7587051392,0.347401201725,20.3082523346,97.8036956787,49.5808448792,30.9691085815,50
1.63084656212957E+018,29,1.63084656212957E+018,base_footprint,0,1.63084656212957E+018,map,-13.1059242274,-1.10532869977,0,0,0,-0.71248966401,0.70168260537,0,69.4374160767,26.4705886841,48.7295036316,96.957862854,52.3683204651,52.3683204651,69.4374160767,69.4374160767,24.7526245117,-0.0537728592753,0,0.00201525795273,0.0847619026899,0.00334230624139,0.00132704817224,-6.29099655151,-0.31175044179,0.184997558594,0.00190438656136,-3.15910339355,-0.0641973912716,8.14054870605,0.247484445572,20.1795921326,97.1428604126,49.2092170715,32.8931732178,84
1.63084656222889E+018,30,1.63084656222889E+018,base_footprint,0,1.63084656222889E+018,map,-13.10419568,-1.03748336888,0,0,0,-0.712312092401,0.701862866249,0,69.5706481934,28.3088226318,48.6876754761,96.9100952148,52.6447715759,52.6447715759,69.5706481934,69.5706481934,25.1682510376,-0.0622444301844,0,0.00267711444758,0.116108283401,0.00407259585336,0.00139548175503,-8.11566734314,-0.401901900768,0.0444412231445,0.000458371767309,-3.37149429321,-0.0684243962169,7.85448455811,0.237850815058,20.1931552887,96.954536438,49.2732772827,33.0227355957,87
1.63084656232866E+018,31,1.63084656232866E+018,base_footprint,0,1.63084656232866E+018,map,-13.1034394386,-1.04866654679,0,0,0,-0.712382991176,0.701790904674,0,69.512512207,29.5970363617,48.6017150879,96.9075012207,52.8125762939,52.8125762939,69.512512207,69.512512207,28.0176753998,-0.0247501209378,0,0.00279310997576,0.137797623873,0.0034295108635,0.00622262060642,-9.403881073,-0.465696454048,0.0470352172852,0.000485126511194,-3.53929901123,-0.0718299895525,5.00506019592,0.151564076543,20.1931552887,96.954536438,49.2732772827,33.0227355957,87
1.63084656242878E+018,32,1.63084656242878E+018,base_footprint,0,1.63084656242878E+018,map,-13.1024161433,-0.975865679084,0,0,0,-0.712356757106,0.701817533698,0,69.6569900513,31.0661773682,48.6125335693,96.9452896118,52.9813194275,52.9813194275,69.6569900513,69.6569900513,27.3755321503,-0.0454665571451,0,0.00419936515391,0.155014947057,0.00303994794376,0.0072393133305,-11.1494445801,-0.559802889824,-0.120986938477,-0.00124955130741,-3.75908660889,-0.0763696879148,5.83381080627,0.175667762756,19.9167327881,96.8243026733,49.2222328186,33.2093429565,89
1.63084656262803E+018,33,1.63084656262803E+018,base_footprint,0,1.63084656262803E+018,map,-13.1023399804,-0.905587335357,0,0,0,-0.712620875099,0.701549348494,0,69.6929244995,32.9044113159,48.7367591858,97.0397033691,53.0738105774,53.0738105774,69.6929244995,69.6929244995,28.0674419403,-0.00250790268183,0,0.00330605707131,0.153696343303,0.00398016395047,0.00728622078896,-13.0765361786,-0.659502625465,-0.371971130371,-0.00384793477133,-3.65035247803,-0.0738587006927,5.23269844055,0.157137423754,19.8278751373,96.6677322388,49.4234580994,33.3001403809,88
1.63084656272821E+018,34,1.63084656272821E+018,base_footprint,0,1.63084656272821E+018,map,-13.1099056119,-0.819538450047,0,0,0,-0.713844622611,0.700304115917,0,70.0388259888,35.1551628113,48.8397445679,97.0301895142,53.2624931335,53.2624931335,70.0388259888,70.0388259888,23.8447399139,-0.0463057048619,0,0.00523342518136,0.154453769326,0.0020527956076,0.00728622078896,-15.5089378357,-0.789410591125,-0.448219299316,-0.00464081764221,-3.84794616699,-0.0778707191348,9.7697429657,0.290640890598,19.6462249756,96.5819702148,49.4145469666,33.6144828796,89
1.6308465628282E+018,35,1.6308465628282E+018,base_footprint,0,1.6308465628282E+018,map,-13.1098584271,-0.743870142529,0,0,0,-0.714390057599,0.699747701392,0,70.3683929443,27.1708679199,48.8847541809,96.9430847168,53.3862457275,53.3862457275,70.3683929443,70.3683929443,18.9354152679,-0.0221404470503,0,0.00119800237007,0.15747204423,0.00612148409709,0.0073194867,-7.29899406433,-0.367302745581,-0.441062927246,-0.00457050465047,-4.05581283569,-0.0822172537446,14.9362239838,0.440965503454,19.8718738556,96.5020217896,49.3304328918,33.8716392517,84
1.6308465629285E+018,36,1.6308465629285E+018,base_footprint,0,1.6308465629285E+018,map,-13.1095317338,-0.745324443005,0,0,0,-0.714525165147,0.699609740049,0,70.0621414185,33.3024559021,49.049156189,97.1106185913,53.4940757751,53.4940757751,70.0621414185,70.0621414185,26.2157402039,-0.0767424553633,0,0.000167370919371,0.157795876265,0.00576500361785,0.0059323743917,-13.4305820465,-0.675858855247,-0.608596801758,-0.00630657048896,-4.1636428833,-0.0844031274319,7.65589904785,0.226026818156,19.8718738556,96.5020217896,49.3304328918,33.8716392517,84
1.63084656302861E+018,37,1.63084656302861E+018,base_footprint,0,1.63084656302862E+018,map,-13.1017124852,-0.607859068634,0,0,0,-0.713905967335,0.700241579602,0,70.2469940186,35.5742301941,49.0954017639,96.8868713379,53.6478424072,53.6478424072,70.2469940186,70.2469940186,23.7435455322,-0.0307659227401,0,3.16773512168E-05,0.156154498458,0.00428493414074,0.00431661168113,-15.996383667,-0.817065536976,-0.634941101074,-0.00659665837884,-4.51816177368,-0.0919639989734,10.6187896729,0.309024095535,19.5778465271,96.2519302368,49.1296806335,34.3623352051,72
1.63084656312862E+018,38,1.63084656312862E+018,base_footprint,0,1.63084656312862E+018,map,-13.0997726393,-0.61135055222,0,0,0,-0.713321613457,0.700836839625,0,70.3755645752,29.971988678,49.000793457,96.9837112427,53.7862319946,53.7862319946,70.3755645752,70.3755645752,23.272480011,-0.0625555664301,0,0.00145180884283,0.155822098255,0.000492456310894,0.00194426521193,-10.529750824,-0.541591525078,-0.637512207031,-0.00661688996479,-4.54273986816,-0.0922505632043,11.0917015076,0.322769254446,19.442237854,96.3461990356,49.2434921265,34.3641815186,76
1.6308465632289E+018,39,1.6308465632289E+018,base_footprint,0,1.6308465632289E+018,map,-13.0997726393,-0.61135055222,0,0,0,-0.713321613457,0.700836839625,0,70.4740447998,29.971988678,48.9440002441,96.9837112427,53.8877677917,53.8877677917,70.4740447998,70.4740447998,22.5963973999,0.00524073233828,0,0.00244704424404,0.150583028793,0.000942101702094,0.00150494242553,-10.529750824,-0.541591525078,-0.637512207031,-0.00661688996479,-4.64427566528,-0.0943124741316,11.7677841187,0.342443317175,19.442237854,96.3461990356,49.2434921265,34.3641815186,76
1.6308465633286E+018,40,1.6308465633286E+018,base_footprint,0,1.6308465633286E+018,map,-13.0946317691,-0.526112503546,0,0,0,-0.712516584705,0.701655269004,0,70.3018722534,25.8916168213,48.9283370972,97.0539627075,53.797416687,53.797416687,70.3018722534,70.3018722534,24.9726791382,-0.0192495789379,0,0.00179757317528,0.14958229661,0.00330251571722,0.00150494242553,-6.11591911316,-0.309264391661,-0.84156036377,-0.00874690059572,-4.62656021118,-0.0940915122628,9.48765182495,0.275320976973,19.7756977081,96.2124023438,49.1708564758,34.4603309631,69
1.63084656462871E+018,41,1.63084656462871E+018,base_footprint,0,1.63084656462872E+018,map,-13.0911983261,-0.401332026125,0,0,0,-0.713997198617,0.700148555928,0,70.2545623779,30.1470584869,49.0307540894,97.138633728,53.8442382812,53.8442382812,70.2545623779,70.2545623779,26.6347312927,-0.0234761480242,0,0.00497857900336,0.257695972919,0.0175906643271,0.0126120857894,-10.3932228088,-0.526136934757,-0.887405395508,-0.00921967905015,-4.64656829834,-0.0944469198585,7.80489349365,0.226625397801,19.7538356781,96.2512283325,49.1976699829,34.4396247864,66
1.63084656472889E+018,42,1.63084656472889E+018,base_footprint,0,1.63084656472889E+018,map,-13.0911983261,-0.401332026125,0,0,0,-0.713997198617,0.700148555928,0,70.1158065796,31.6888046265,49.045879364,97.138633728,53.7170715332,53.7170715332,70.1158065796,70.1158065796,27.7589874268,0.00458015315235,0,0.00688188476488,0.261036127806,0.0322615094483,0.0253796223551,-11.9349689484,-0.604184865952,-0.887405395508,-0.00921967905015,-4.51940155029,-0.0918621048331,6.68063735962,0.193981125951,19.7538356781,96.2512283325,49.1976699829,34.4396247864,66
1.63084656482883E+018,43,1.63084656482883E+018,base_footprint,0,1.63084656482883E+018,map,-13.0900783776,-0.407082899238,0,0,0,-0.696105492705,0.717939512094,0,69.7464447021,23.4360408783,49.0610046387,97.0486373901,53.4842529297,53.4842529297,69.7464447021,69.7464447021,31.5689563751,-0.0290185566992,0,0.0103894257918,0.260468304157,0.0469681471586,0.0365787222981,-3.6822052002,-0.186404570937,-0.797409057617,-0.00828466378152,-4.28658294678,-0.0871297940612,2.87066841125,0.0833536460996,19.7538356781,96.2512283325,49.1976699829,34.4396247864,66
1.63084656492845E+018,44,1.63084656492845E+018,base_footprint,0,1.63084656492845E+018,map,-13.089895873,-0.448717407737,0,0,0,-0.674552882564,0.738226529342,0,69.6851043701,27.389705658,49.1192855835,97.2047805786,53.2498893738,53.2498893738,69.6851043701,69.6851043701,30.7041683197,0.0183544848114,0,0.0156616587192,0.259688943624,0.0651370361447,0.0494753792882,-7.71880722046,-0.392397284508,-0.986785888672,-0.0102557316422,-4.03903579712,-0.0820761173964,3.72102165222,0.108090080321,19.6708984375,96.2179946899,49.2108535767,34.4251899719,67
1.63084656502822E+018,45,1.63084656502822E+018,base_footprint,0,1.63084656502822E+018,map,-13.0857958404,-0.439049317251,0,0,0,-0.675379581573,0.737470284686,0,69.3726882935,17.0684661865,49.1701774597,96.9962768555,52.7576904297,52.7576904297,69.3726882935,69.3726882935,30.2613258362,0.0539693981409,0,0.0175136197358,0.256138414145,0.0960702374578,0.078556612134,2.60243225098,0.132298603654,-0.778282165527,-0.00808873772621,-3.54683685303,-0.0720742791891,4.16386413574,0.120953992009,19.6708984375,96.2179946899,49.2108535767,34.4251899719,67
1.6308465651286E+018,46,1.6308465651286E+018,base_footprint,0,1.6308465651286E+018,map,-13.079094497,-0.48148060701,0,0,0,-0.646268680506,0.763109947909,0,68.9526443481,13.6622390747,49.1789474487,97.0240859985,52.1262741089,52.1262741089,68.9526443481,68.9526443481,31.1028194427,0.159821614623,0,0.0190949589014,0.254554778337,0.109900988638,0.090806029737,6.09159660339,0.308375388384,-0.772857666016,-0.00802958756685,-2.92860412598,-0.0595272928476,3.33680534363,0.0968885496259,19.7538356781,96.2512283325,49.1976699829,34.4396247864,66
1.63084656522808E+018,47,1.63084656522808E+018,base_footprint,0,1.63084656522808E+018,map,-13.0725927104,-0.517283747047,0,0,0,-0.617944284243,0.786221890799,0,68.3657073975,18.032787323,49.0679702759,96.9947052002,51.6111869812,51.6111869812,68.3657073975,68.3657073975,35.9990196228,0.378878355026,0,0.025866581127,0.251248031855,0.146407976747,0.120541401207,1.50925254822,0.0772310644388,-0.700866699219,-0.00727841677144,-2.32115936279,-0.0470918640494,-1.73770904541,-0.0507192797959,19.5420398712,96.293838501,49.2900276184,34.2613105774,70
1.63084656532874E+018,48,1.63084656532874E+018,base_footprint,0,1.63084656532874E+018,map,-13.0615163716,-0.545321101848,0,0,0,-0.588718636722,0.808338027546,0,68.0831680298,15.4107923508,48.766254425,96.9065704346,51.1806488037,51.1806488037,68.0831680298,68.0831680298,36.1175575256,0.377388834953,0,0.0316618867218,0.251781582832,0.16060103476,0.128939151764,4.13124752045,0.211403086782,-0.612731933594,-0.00636314786971,-1.8906211853,-0.0383570715785,-1.85624694824,-0.0541790984571,19.5420398712,96.293838501,49.2900276184,34.2613105774,70
1.6308465654284E+018,49,1.6308465654284E+018,base_footprint,0,1.6308465654284E+018,map,-13.0197345049,-0.606811188257,0,0,0,-0.49867679506,0.866788009878,0,67.5594024658,18.2452640533,48.5353927612,96.6648178101,50.6905479431,50.6905479431,67.5594024658,67.5594024658,39.3819694519,0.394751816988,0,0.0378151014447,0.25022700429,0.178358852863,0.140543743968,1.10306930542,0.0570110753179,-0.47240447998,-0.00491103669629,-1.35373687744,-0.0274386778474,-4.99049377441,-0.145108446479,19.3483333588,96.1924133301,49.3368110657,34.3914756775,76
1.63084656552897E+018,50,1.63084656552897E+018,base_footprint,0,1.63084656552897E+018,map,-13.0066871187,-0.618095684576,0,0,0,-0.470623901304,0.882333918378,0,67.6585922241,12.0204601288,48.1433410645,97.0231323242,50.4284515381,50.4284515381,67.6585922241,67.6585922241,36.0559577942,0.418024927378,0,0.0406224951148,0.248791307211,0.1731377244,0.132515236735,7.51176643372,0.384583204985,-0.771209716797,-0.00801240839064,-1.07326507568,-0.0217457413673,-2.23431015015,-0.0660615414381,19.5322265625,96.2519226074,49.3551864624,33.821647644,80
1.63084656562863E+018,51,1.63084656562863E+018,base_footprint,0,1.63084656562863E+018,map,-12.9760006115,-0.653397328765,0,0,0,-0.409294043471,0.912402535058,0,67.3971252441,12.5188541412,47.7371368408,96.9146652222,50.2821884155,50.2821884155,67.3971252441,67.3971252441,38.7921257019,0.431787699461,0,0.038229893893,0.245685055852,0.158313006163,0.120083108544,6.38144493103,0.337637245655,-0.73836517334,-0.00767720490694,-1.04485702515,-0.0212208293378,-4.34975814819,-0.126290917397,18.9002990723,96.1763000488,49.2373313904,34.4423675537,79
1.63084656572878E+018,52,1.63084656572878E+018,base_footprint,0,1.63084656572878E+018,map,-12.9377246215,-0.683602786858,0,0,0,-0.337768837148,0.941229096794,0,67.0852203369,2.60366439819,47.2560272217,96.9566040039,49.7220001221,49.7220001221,67.0852203369,67.0852203369,38.5073776245,0.366072267294,0,0.0305284168571,0.238496601582,0.11978340894,0.0892549902201,16.3456249237,0.86259829998,-0.686950683594,-0.00713569298387,-0.403602600098,-0.00818361155689,-4.27319335938,-0.124822407961,18.9492893219,96.2696533203,49.318397522,34.2341842651,83
1.63084656582844E+018,53,1.63084656582844E+018,base_footprint,0,1.63084656582844E+018,map,-12.8825929112,-0.718547508481,0,0,0,-0.260748454172,0.965406776259,0,66.9833984375,12.0038261414,46.9301605225,97.5468521118,49.2953300476,49.2953300476,66.9833984375,66.9833984375,37.8570671082,0.414123564959,0,0.0314249284565,0.238334402442,0.0946835801005,0.0632586479187,7.07021141052,0.370671987534,-1.27221679688,-0.0132144549862,0.273723602295,0.00552206626162,-3.54885864258,-0.103440508246,19.0740375519,96.2746353149,49.5690536499,34.3082084656,84
1.63084656592823E+018,54,1.63084656592823E+018,base_footprint,0,1.63084656592823E+018,map,-12.8445550236,-0.738294342752,0,0,0,-0.216471270825,0.976288988419,0,66.8815994263,5.49662494659,46.7166366577,97.656211853,49.0092391968,49.0092391968,66.8815994263,66.8815994263,36.9933319092,0.496213555336,0,0.0263701304793,0.201381787658,0.0649536401033,0.0385835058987,13.5774126053,0.711826860905,-1.38157653809,-0.0143503686413,0.559814453125,0.011293628253,-2.6851234436,-0.0782647505403,19.0740375519,96.2746353149,49.5690536499,34.3082084656,84
1.63084656602813E+018,55,1.63084656602813E+018,base_footprint,0,1.63084656602813E+018,map,-12.7907238661,-0.7614150052,0,0,0,-0.175896814501,0.984408609597,0,66.5031890869,10.7843141556,46.5894088745,97.7071609497,48.7699813843,48.7699813843,66.5031890869,66.5031890869,41.4041671753,0.476623296738,0,0.0222823675722,0.174736469984,0.0444318987429,0.0221495311707,7.68696498871,0.416157692671,-1.41328430176,-0.0146767823026,0.695068359375,0.0140517065302,-7.06330871582,-0.205682352185,18.4712791443,96.2938766479,49.4650497437,34.3408584595,84
1.63084656612902E+018,56,1.63084656612902E+018,base_footprint,0,1.63084656612902E+018,map,-12.7075229582,-0.781609796848,0,0,0,-0.103044552604,0.994676741549,0,66.6623764038,15.966386795,46.4799232483,97.6595687866,48.6728172302,48.6728172302,66.6623764038,66.6623764038,37.3181495667,0.787283718586,0,0.013664460741,0.112014763057,0.00130947481375,0.0149739356712,0.710067749023,0.0425790585577,-1.82001495361,-0.0189902279526,0.546657562256,0.0111065302044,-1.0710144043,-0.0295475609601,16.6764545441,95.839553833,49.2194747925,36.2471351624,71
1.63084656622873E+018,57,1.63084656622873E+018,base_footprint,0,1.63084656622873E+018,map,-12.6552117244,-0.790455594054,0,0,0,-0.0652710812733,0.997867569344,0,66.6274108887,20.239282608,46.3264503479,97.6379547119,48.6572303772,48.6572303772,66.6274108887,66.6274108887,37.7013092041,0.58111923933,0,0.00792699959129,0.0921609327197,0.0374951176345,0.0454221144319,-2.2880897522,-0.127461716533,-2.29978942871,-0.0241224430501,0.381595611572,0.00778149953112,-3.08515548706,-0.0891247317195,17.9511928558,95.3381652832,49.0388259888,34.616153717,54
1.63084656632875E+018,58,1.63084656632875E+018,base_footprint,0,1.63084656632875E+018,map,-12.5903961736,-0.802063853542,0,0,0,-0.0344835440749,0.99940526574,0,66.7708740234,19.7012138367,46.1692047119,97.429069519,48.986743927,48.986743927,66.7708740234,66.7708740234,37.9257507324,0.397921472788,0,0.000116542883916,0.0864901393652,0.0572135001421,0.0570969581604,-1.74279212952,-0.0970459505916,-2.7400894165,-0.0289377849549,0.930465698242,0.0186401791871,-3.12379837036,-0.0897592827678,17.9584217072,94.6889801025,49.9172096252,34.8019523621,41
1.63084656642892E+018,59,1.63084656642892E+018,base_footprint,0,1.63084656642892E+018,map,-12.4980174472,-0.80564468739,0,0,0,-0.000947321756743,0.999999551291,0,66.9410400391,22.1719455719,46.1306648254,97.4320373535,49.2211456299,49.2211456299,66.9410400391,66.9410400391,37.4050216675,0.151279076934,0,0.00918001960963,0.0858950316906,0.0802409574389,0.0710609331727,-2.70974159241,-0.139230966568,-2.46453094482,-0.025951307267,1.12917327881,0.0224263388664,-3.46488189697,-0.102088026702,19.4622039795,94.9675064087,50.3503189087,33.9401397705,46
1.63084656652877E+018,60,1.63084656652877E+018,base_footprint,0,1.63084656652877E+018,map,-12.4130665218,-0.806146205313,0,0,0,0.0212470053297,0.999774256902,0,67.4290008545,25.6965942383,46.0711975098,97.2657699585,49.6516647339,49.6516647339,67.4290008545,67.4290008545,32.6726989746,0.27119076252,0,0.0122451642528,0.085655413568,0.0889355391264,0.0766903758049,-5.96856689453,-0.302542507648,-2.31455993652,-0.0243763085455,0.980094909668,0.0193573143333,1.29110336304,0.0380140990019,19.7280273438,94.951210022,50.6317596436,33.9638023376,46
1.63084656662803E+018,61,1.63084656662803E+018,base_footprint,0,1.63084656662803E+018,map,-12.2357328784,-0.776995667523,0,0,0,0.0518713144994,0.998653777208,0,68.0168151855,24.4310855865,46.0970611572,97.7823257446,50.1383209229,50.1383209229,68.0168151855,68.0168151855,29.2075271606,0.264057099819,0,0.0172622203827,0.086027264595,0.111181072891,0.0939188525081,-6.2391204834,-0.342960238457,-3.00263977051,-0.0316802039742,0.0997886657715,0.00198631407693,5.4720993042,0.157790035009,18.1919651031,94.7796859741,50.2381095886,34.6796264648,39
1.63084656672899E+018,62,1.63084656672899E+018,base_footprint,0,1.63084656672899E+018,map,-12.1559149376,-0.769517468258,0,0,0,0.0559591295944,0.998433060257,0,68.5662078857,38.9978218079,46.2669448853,97.7585906982,50.6985626221,50.6985626221,68.5662078857,68.5662078857,25.2836380005,0.393713235855,0,0.0280456636101,0.0732861682773,0.133736327291,0.105690658092,-21.0965175629,-1.17849051952,-2.6475982666,-0.0278369318694,-0.628486633301,-0.0125521402806,10.4283485413,0.292012572289,17.901304245,95.1109924316,50.0700759888,35.7119865417,48
1.63084656682801E+018,63,1.63084656682801E+018,base_footprint,0,1.63084656682802E+018,map,-12.0791893321,-0.754683536838,0,0,0,0.0573148671133,0.998356151886,0,68.2283172607,36.5213699341,46.4840507507,97.7582473755,51.3488502502,51.3488502502,68.2283172607,68.2283172607,38.3876190186,0.388314455748,0,0.0305087901652,0.0696919634938,0.140303000808,0.109794206917,-22.6419143677,-1.63132596016,-1.00723266602,-0.0104105640203,-3.8511428833,-0.0810806080699,-4.06248474121,-0.118353061378,13.8794546127,96.7510147095,47.4977073669,34.3251342773,238
1.63084656692896E+018,64,1.63084656692896E+018,base_footprint,0,1.63084656692896E+018,map,-12.0001404323,-0.745845365976,0,0,0,0.0551706982974,0.998476937164,0,68.7093811035,37.7162628174,46.8795318604,97.9698028564,51.898525238,51.898525238,68.7093811035,68.7093811035,36.426448822,0.494358420372,0,0.0312920622528,0.0642350167036,0.14261265099,0.111320592463,-23.0236873627,-1.5670286417,-1.126953125,-0.0116369267926,-4.44747924805,-0.0937277376652,-2.35564041138,-0.0691395550966,14.6925754547,96.8428497314,47.45104599,34.0708084106,288
1.63084656702841E+018,65,1.63084656702841E+018,base_footprint,0,1.63084656702841E+018,map,-11.7599799766,-0.713909670721,0,0,0,0.0412210730613,0.999150050361,0,69.1156463623,36.453414917,47.0292282104,98.1850738525,52.4196205139,52.4196205139,69.1156463623,69.1156463623,35.5165939331,0.529346883297,0,0.0345613472164,0.0448993332684,0.147443294525,0.112881943583,-20.056810379,-1.22322952747,-1.22741699219,-0.0126593094319,-4.68250656128,-0.0980894342065,-2.44654846191,-0.0739808008075,16.396604538,96.9576568604,47.7371139526,33.0700454712,340
1.63084656712919E+018,66,1.63084656712919E+018,base_footprint,0,1.63084656712919E+018,map,-11.6486133311,-0.704452588575,0,0,0,0.0334888041365,0.99943909269,0,69.3003692627,31.8885440826,47.3915023804,98.1201171875,52.6588630676,52.6588630676,69.3003692627,69.3003692627,34.5414237976,0.498395651579,0,0.038238927722,0.0289310049266,0.157773390412,0.11953446269,-15.5443496704,-0.951062440872,-1.21719360352,-0.0125609589741,-4.88617706299,-0.102279722691,-1.31554412842,-0.0395939610898,16.3441944122,96.902923584,47.7726860046,33.2258796692,339
1.63084656722863E+018,67,1.63084656722863E+018,base_footprint,0,1.63084656722863E+018,map,-11.5647880758,-0.697945094947,0,0,0,0.0269658619489,0.999636355026,0,69.2683944702,35.8288764954,47.5775413513,98.1005172729,52.8634300232,52.8634300232,69.2683944702,69.2683944702,37.2557983398,0.326542854309,0,0.0399382933974,0.022953806445,0.162078022957,0.122139729559,-19.7089309692,-1.22264254093,-1.2448425293,-0.0128525514156,-5.04786682129,-0.105569534004,-3.73167037964,-0.111312970519,16.1199455261,96.8556747437,47.8155632019,33.5241279602,339
1.63084656732885E+018,68,1.63084656732885E+018,base_footprint,0,1.63084656732885E+018,map,-11.5339483762,-0.695269143578,0,0,0,0.0247142696108,0.999694555791,0,69.4375152588,35.2088661194,47.6006698608,98.1805801392,52.9727401733,52.9727401733,69.4375152588,69.4375152588,35.6803512573,0.351651966572,0,0.0370859764516,0.0156983751804,0.15865804255,0.121572077274,-18.9961948395,-1.17168819904,-1.32707977295,-0.0137019287795,-5.19969940186,-0.108841709793,-2.16353607178,-0.0645507648587,16.2126712799,96.8535003662,47.7730407715,33.5168151855,335
1.63084656742817E+018,69,1.63084656742817E+018,base_footprint,0,1.63084656742817E+018,map,-11.3835192559,-0.695112987577,0,0,0,0.00889748051841,0.999960416637,0,69.284538269,29.4117641449,47.6029434204,98.1688079834,53.1102790833,53.1102790833,69.284538269,69.284538269,39.8770446777,0.382006794214,0,0.0375080630183,0.00117157248314,0.162529930472,0.125021874905,-13.4300441742,-0.840337872505,-1.48899841309,-0.0154013382271,-5.27376556396,-0.110245607793,-5.9658164978,-0.175924524665,15.9817199707,96.6798095703,47.8365135193,33.9112281799,345
1.63084656752805E+018,70,1.63084656752805E+018,base_footprint,0,1.63084656752805E+018,map,-11.1734434343,-0.693730181266,0,0,0,-0.00395332375752,0.999992185585,0,69.2393188477,34.3563499451,47.3609733582,97.9760360718,53.0847587585,53.0847587585,69.2393188477,69.2393188477,39.72133255,0.216455057263,0,0.0417659543455,0.00298950308934,0.180100366473,0.138334408402,-18.3172912598,-1.14204275608,-1.4566192627,-0.0150914639235,-4.98602676392,-0.103662334383,-5.21695327759,-0.151196837425,16.0390586853,96.5194168091,48.0987319946,34.5043792725,301
1.63084656762808E+018,71,1.63084656762808E+018,base_footprint,0,1.63084656762808E+018,map,-11.0799473458,-0.696866583934,0,0,0,-0.00743108308055,0.999972389121,0,69.392250061,42.0289840698,47.0122299194,97.8075866699,53.0994720459,53.0994720459,69.392250061,69.392250061,36.5211639404,0.102065905929,0,0.0490998998284,0.018847649917,0.21192227304,0.162822365761,-20.1144886017,-0.917862296104,-2.0062713623,-0.0209420025349,-3.5252571106,-0.0711107030511,-2.84170150757,-0.0843749046326,21.9144954681,95.8013153076,49.5742149353,33.6794624329,142
1.63084656772881E+018,72,1.63084656772881E+018,base_footprint,0,1.63084656772881E+018,map,-11.0692126754,-0.698771759091,0,0,0,-0.00765190121781,0.999970723775,0,69.884513855,40.3114204407,46.6982078552,97.8291625977,53.2101135254,53.2101135254,69.884513855,69.884513855,28.9329509735,0.110833488405,0,0.0430716611445,0.0263036061078,0.216499686241,0.173428028822,-18.3969249725,-0.839486598969,-2.02784729004,-0.0211672168225,-3.63589859009,-0.0733425319195,4.74651145935,0.140931919217,21.9144954681,95.8013153076,49.5742149353,33.6794624329,142
1.63084656782864E+018,73,1.63084656782864E+018,base_footprint,0,1.63084656782864E+018,map,-10.877544595,-0.70511558043,0,0,0,-0.0138948727996,0.999903461595,0,70.0575637817,35.674987793,46.4030761719,97.5835647583,53.1768722534,53.1768722534,70.0575637817,70.0575637817,24.5749225616,0.215454101562,0,0.0464582070708,0.041043177247,0.23756377399,0.191105559468,-12.8104934692,-0.560278892517,-2.17359924316,-0.0227816794068,-3.08706665039,-0.0616306364536,9.30096626282,0.274560064077,22.8644943237,95.4099655151,50.089805603,33.8758888245,114
1.6308465679284E+018,74,1.6308465679284E+018,base_footprint,0,1.6308465679284E+018,map,-10.8318218246,-0.706770831785,0,0,0,-0.0135133819943,0.999908690085,0,69.9591217041,33.391002655,46.0920066833,97.6981506348,53.1783027649,53.1783027649,69.9591217041,69.9591217041,26.7747993469,0.049746543169,0,0.0565056614578,0.0573392733932,0.266402691603,0.209897011518,-9.95619010925,-0.424846172333,-2.30910491943,-0.0242072343826,-2.98492431641,-0.0594684891403,6.89586639404,0.204803392291,23.4348125458,95.3890457153,50.1933784485,33.670665741,116
1.63084656802884E+018,75,1.63084656802884E+018,base_footprint,0,1.63084656802884E+018,map,-10.6157821286,-0.713167761794,0,0,0,-0.0152313950578,0.999883995574,0,70.3268127441,30.596698761,45.7870292664,97.5843429565,53.2547149658,53.2547149658,70.3268127441,70.3268127441,20.5719413757,0.265877276659,0,0.0594472661614,0.0709713175893,0.277226239443,0.217778965831,-11.0291004181,-0.563641011715,-1.63785552979,-0.017070511356,-5.0535774231,-0.104843527079,13.4127807617,0.394670903683,19.5675983429,95.9464874268,48.2011375427,33.9847221375,187
1.63084656812862E+018,76,1.63084656812862E+018,base_footprint,0,1.63084656812862E+018,map,-10.4171572883,-0.709886163303,0,0,0,-0.0139294164267,0.999902980973,0,70.4687957764,26.3647899628,45.5122184753,97.4803619385,53.2716903687,53.2716903687,70.4687957764,70.4687957764,17.8252353668,0.411967784166,0,0.0576527453959,0.0827909708023,0.283193230629,0.225540488958,-6.60695457458,-0.33439669013,-1.40621948242,-0.0146368155256,-5.25112533569,-0.109351597726,16.2128658295,0.476315230131,19.7578353882,96.0741424561,48.020565033,34.0381011963,191
1.63084656822848E+018,77,1.63084656822848E+018,base_footprint,0,1.63084656822849E+018,map,-10.3686222813,-0.709027999648,0,0,0,-0.0132304373683,0.999912473933,0,70.1121368408,24.5436096191,45.3595962524,97.407081604,53.2307281494,53.2307281494,70.1121368408,70.1121368408,23.538860321,0.333598405123,0,0.0661542117596,0.0899948999286,0.291433155537,0.225278943777,-5.08764266968,-0.261495232582,-1.32311248779,-0.0137703772634,-5.29208374023,-0.110392853618,10.3223457336,0.304842829704,19.4559669495,96.0839691162,47.9386444092,33.8612060547,187
1.63084656832837E+018,78,1.63084656832837E+018,base_footprint,0,1.63084656832837E+018,map,-10.2691722929,-0.713396955433,0,0,0,-0.012547922833,0.999921271717,0,69.8783874512,25.0604343414,45.438747406,97.5816268921,53.1658744812,53.1658744812,69.8783874512,69.8783874512,27.6743278503,0.366910725832,0,0.0659812018275,0.0885543078184,0.285213559866,0.219232350588,-5.65399169922,-0.291346102953,-1.49062347412,-0.0155126228929,-5.35946655273,-0.1121077016,5.86932373047,0.174975693226,19.4064426422,96.091003418,47.8064079285,33.5436515808,189
1.63084656842817E+018,79,1.63084656842817E+018,base_footprint,0,1.63084656842817E+018,map,-10.0879417879,-0.711766737597,0,0,0,-0.0111768337111,0.999937537243,0,70.0267791748,33.7199668884,45.565612793,97.322555542,53.0309791565,53.0309791565,70.0267791748,70.0267791748,22.6138114929,0.343029528856,0,0.0607503280044,0.10633238405,0.239347577095,0.17859724164,-13.6672649384,-0.681567251682,-1.18695831299,-0.0123467100784,-5.00810241699,-0.104285761714,10.870765686,0.32464993,20.0527019501,96.135597229,48.0228767395,33.484577179,201
1.63084656852869E+018,80,1.63084656852869E+018,base_footprint,0,1.63084656852869E+018,map,-9.9045805478,-0.716421615607,0,0,0,-0.012957632282,0.999916046359,0,69.6426925659,24.3109836578,45.8043327332,97.2989044189,52.8495597839,52.8495597839,69.6426925659,69.6426925659,27.4828395844,0.10962497443,0,0.0555670186877,0.119170248508,0.221060991287,0.165493965149,-5.14520263672,-0.268457770348,-1.23233032227,-0.0128278778866,-5.03047180176,-0.105197988451,6.14862632751,0.182823613286,19.1657810211,96.0665740967,47.8190879822,33.6314659119,204
1.63084656862894E+018,81,1.63084656862894E+018,base_footprint,0,1.63084656862894E+018,map,-9.80509681546,-0.715956112531,0,0,0,-0.0131081688932,0.999914084263,0,68.9534301758,21.2924613953,46.1954727173,97.2958374023,52.7385444641,52.7385444641,68.9534301758,68.9534301758,38.6794891357,0.0568023957312,0,0.0516717098653,0.122178986669,0.193400293589,0.141728579998,-3.16840934753,-0.174817934632,-1.38140106201,-0.0144024314359,-5.0438079834,-0.105751879513,-4.40915679932,-0.128658130765,18.1240520477,95.9144363403,47.6947364807,34.2703323364,202
1.63084656872864E+018,82,1.63084656872864E+018,base_footprint,0,1.63084656872864E+018,map,-9.64899506696,-0.725432547585,0,0,0,-0.0123785579614,0.999923382716,0,69.1778564453,18.8069591522,46.6913566589,97.5799179077,52.6379318237,52.6379318237,69.1778564453,69.1778564453,34.5758972168,0.0153408171609,0,0.0523848161101,0.134893193841,0.161128878593,0.108744055033,1.60521316528,0.078639999032,-1.87546539307,-0.0195964276791,-4.09296417236,-0.0843128412962,-0.129821777344,-0.0037688408047,20.4121723175,95.7044525146,48.5449676514,34.4460754395,152
1.63084656882912E+018,83,1.63084656882912E+018,base_footprint,0,1.63084656882912E+018,map,-9.53036126645,-0.727980486179,0,0,0,-0.0098135189744,0.999951846263,0,68.9233551025,21.5686283112,47.2711448669,97.4007873535,52.6197891235,52.6197891235,68.9233551025,68.9233551025,38.3161315918,-0.148626700044,0,0.0473018027842,0.141725093126,0.133937492967,0.0866356939077,-0.787883758545,-0.0379141271114,-1.91437530518,-0.0200486667454,-3.43049240112,-0.0697406306863,-4.22494506836,-0.123930715024,20.7807445526,95.4864120483,49.1892967224,34.0911865234,140
1.63084656892857E+018,84,1.63084656892857E+018,base_footprint,0,1.63084656892857E+018,map,-9.42098111148,-0.731815944783,0,0,0,-0.00774195771282,0.999970030596,0,68.9446640015,14.6644573212,47.784576416,97.1793289185,52.7282333374,52.7282333374,68.9446640015,68.9446640015,38.3064956665,-0.0736897662282,0,0.0448305979371,0.141334548593,0.124557770789,0.0797271728516,5.31254768372,0.265933126211,-1.86533355713,-0.0195704065263,-3.71215820312,-0.0757334828377,-3.94747924805,-0.11488918215,19.9770050049,95.3139953613,49.0160751343,34.3590164185,138
1.63084656902809E+018,85,1.63084656902809E+018,base_footprint,0,1.63084656902809E+018,map,-9.29615602599,-0.731482001018,0,0,0,-0.00717514234482,0.999974258335,0,69.1224136353,16.2082099915,48.494556427,96.8381881714,52.6474952698,52.6474952698,69.1224136353,69.1224136353,33.0069389343,0.0240414626896,0,0.0322952829301,0.150984570384,0.0951704904437,0.0628752112389,2.77257537842,0.146072745323,-1.33071899414,-0.0139331407845,-3.83576583862,-0.07858286798,1.73140335083,0.0498412773013,18.9807853699,95.5074691772,48.8117294312,34.7383422852,147
1.63084656912819E+018,86,1.63084656912819E+018,base_footprint,0,1.63084656912819E+018,map,-9.11370489091,-0.7359239407,0,0,0,-0.00779848943705,0.999969591319,0,69.1819763184,23.8256454468,48.7744483948,97.0404129028,52.7122421265,52.7122421265,69.1819763184,69.1819763184,33.3620605469,0.36921402812,0,0.0253471117467,0.179597690701,0.0640271529555,0.0386800430715,-9.63984489441,-0.679541826248,-1.00749206543,-0.0104911113158,-5.42635726929,-0.114756383002,3.51594924927,0.0953399911523,14.1858005524,96.0329208374,47.2858848572,36.8780097961,227
1.63084656922962E+018,87,1.63084656922962E+018,base_footprint,0,1.63084656922962E+018,map,-8.95379705411,-0.73521743231,0,0,0,-0.00363223329933,0.999993403419,0,69.1184387207,27.731092453,48.9836158752,96.9187088013,52.7695884705,52.7695884705,69.1184387207,69.1184387207,34.6869392395,0.369060993195,0,0.0206659287214,0.189722016454,0.0491659939289,0.0285000652075,-13.4609012604,-0.943288087845,-0.709053039551,-0.00736987404525,-5.61470794678,-0.119069494307,2.08213806152,0.0566274225712,14.2701911926,96.2096557617,47.1548805237,36.769077301,242
1.63084656932868E+018,88,1.63084656932868E+018,base_footprint,0,1.63084656932868E+018,map,-8.879173342,-0.733554113869,0,0,0,-0.00112607694316,0.999999365975,0,68.8633728027,19.3747425079,49.0995101929,96.9246368408,52.6737518311,52.6737518311,68.8633728027,68.8633728027,38.2645683289,0.446172714233,0,0.0186279565096,0.19175067544,0.0419716499746,0.023343693465,-5.41827201843,-0.388226509094,-0.78751373291,-0.00819156784564,-5.65651321411,-0.120307222009,-1.61130142212,-0.0439606495202,13.9564704895,96.1371231079,47.0172386169,36.6532669067,249
1.63084656942841E+018,89,1.63084656942841E+018,base_footprint,0,1.63084656942841E+018,map,-8.65466349775,-0.744178037797,0,0,0,-3.0690579042E-05,0.999999999529,0,68.7708053589,19.8998756409,49.1564292908,96.914932251,52.5936088562,52.5936088562,68.7708053589,68.7708053589,39.0301895142,0.300117820501,0,0.0118613457307,0.200177282095,0.0247579198331,0.0128965750337,-6.55288124084,-0.490963071585,-0.82975769043,-0.00863564759493,-5.62748718262,-0.119820140302,-2.66452407837,-0.0732703208923,13.3469944,96.0851745605,46.9661216736,36.3656654358,249
1.6308465695285E+018,90,1.6308465695285E+018,base_footprint,0,1.6308465695285E+018,map,-8.49394467269,-0.746531283603,0,0,0,-0.000851433179744,0.999999637531,0,68.6551361084,17.4836597443,49.0678405762,96.7526397705,52.5738334656,52.5738334656,68.6551361084,68.6551361084,40.3144721985,0.289939463139,0,0.00848938990384,0.213327094913,0.0144473742694,0.00595798436552,-4.52640247345,-0.349333375692,-0.698684692383,-0.00727387750521,-5.74775314331,-0.122746832669,-3.51940155029,-0.0956487208605,12.9572572708,96.0539550781,46.8260803223,36.7950706482,241
1.63084656962885E+018,91,1.63084656962885E+018,base_footprint,0,1.63084656962886E+018,map,-8.35323284655,-0.747281350531,0,0,0,0.00228665076447,0.999997385611,0,68.419593811,10.7505073547,49.0053863525,96.9580001831,52.3495521545,52.3495521545,68.419593811,68.419593811,42.8712463379,0.426413089037,0,0.00153155240696,0.226844057441,0.00661304499954,0.00814459752291,1.84270954132,0.146325558424,-0.890235900879,-0.00926674902439,-5.50006484985,-0.117398612201,-5.85276412964,-0.158103838563,12.5932168961,96.0677642822,46.8494873047,37.0184822083,223
1.6308465697287E+018,92,1.6308465697287E+018,base_footprint,0,1.6308465697287E+018,map,-8.21615617147,-0.744898442808,0,0,0,0.00426206446841,0.999990917362,0,68.44090271,14.5850124359,49.0023918152,97.1662750244,52.0166511536,52.0166511536,68.44090271,68.44090271,39.6421966553,0.275941878557,0,0.00319545972161,0.219939172268,0.013211348094,0.0100158881396,1.0552778244,0.0674717575312,-1.54146575928,-0.0161199346185,-4.03073883057,-0.0839983820915,-4.00633239746,-0.11242416501,15.6402902603,95.6248092651,47.985912323,35.6358642578,160
1.63084656982834E+018,93,1.63084656982834E+018,base_footprint,0,1.63084656982834E+018,map,-8.07102594328,-0.742699789105,0,0,0,0.005918092291,0.999982487938,0,68.0263900757,15.1660661697,48.9140472412,96.8508453369,51.7843742371,51.7843742371,68.0263900757,68.0263900757,43.4592018127,0.207749262452,0,0.00608773808926,0.234737873077,0.017624584958,0.0115368468687,0.678925514221,0.0428479574621,-1.54566192627,-0.0162180252373,-3.14273071289,-0.0646098777652,-7.70500946045,-0.215499475598,15.844991684,95.3051834106,48.6416435242,35.7541923523,131
1.63084656992805E+018,94,1.63084656992805E+018,base_footprint,0,1.63084656992805E+018,map,-7.95689365913,-0.741686148054,0,0,0,0.00646727031393,0.999979086989,0,67.6250686646,5.40540552139,48.9304008484,96.915763855,51.4147186279,51.4147186279,67.6250686646,67.6250686646,46.9244689941,0.143274262547,0,0.00792863406241,0.254388093948,0.0218016225845,0.0138729875907,9.35547637939,0.633801996708,-1.72602844238,-0.0181325059384,-2.73127746582,-0.0561028011143,-10.4867362976,-0.287798821926,14.7608823776,95.1897354126,48.6834411621,36.4377326965,133
1.63084657004066E+018,95,1.63084657004066E+018,base_footprint,0,1.63084657004066E+018,map,-7.79714641986,-0.739427612608,0,0,0,0.00533097492065,0.999985790252,0,68.2484970093,10.5560035706,49.0058097839,97.1397628784,51.156124115,51.156124115,68.2484970093,68.2484970093,33.7163200378,0.259111255407,0,0.00825724750757,0.257304668427,0.0259576775134,0.0177004300058,1.90728473663,0.153032228351,-1.78580474854,-0.0187281668186,-3.02149581909,-0.0627717673779,3.84656906128,0.102403439581,12.4632883072,95.3539581299,48.1346282959,37.5628890991,158
1.63084657012905E+018,96,1.63084657012905E+018,base_footprint,0,1.63084657012905E+018,map,-7.68759561428,-0.740027965401,0,0,0,0.00478386250104,0.999988557264,0,67.8612518311,11.3618049622,49.0536003113,97.0401992798,50.8864021301,50.8864021301,67.8612518311,67.8612518311,37.4152984619,0.356362313032,0,0.00464214896783,0.253809601068,0.0236924160272,0.0190502684563,-0.696338653564,-0.0652890950441,-1.09142303467,-0.0113750593737,-3.90780258179,-0.0831826105714,0.320671081543,0.00849775690585,10.6654663086,95.9487762451,46.9785995483,37.7359695435,212
1.63084657022887E+018,97,1.63084657022887E+018,base_footprint,0,1.63084657022887E+018,map,-7.52562412392,-0.749730267823,0,0,0,0.00483004783079,0.999988335251,0,67.7289962769,17.4836597443,49.1104545593,96.9098968506,50.7908172607,50.7908172607,67.7289962769,67.7289962769,38.2944717407,0.507358312607,0,0.00809756945819,0.266924411058,0.0278289578855,0.019731387496,-7.24154376984,-0.707035899162,-0.646766662598,-0.00671873707324,-4.16091156006,-0.0892326831818,-1.06938552856,-0.0287275500596,10.2421159744,96.263130188,46.6299057007,37.2250862122,246
1.63084657032857E+018,98,1.63084657032857E+018,base_footprint,0,1.63084657032857E+018,map,-7.35341913919,-0.756735682879,0,0,0,0.00327613909203,0.999994633442,0,67.7119140625,11.764705658,49.0289916992,96.7523269653,50.6318740845,50.6318740845,67.7119140625,67.7119140625,36.3181533813,0.558752179146,0,0.0125599689782,0.264289915562,0.035037573427,0.0224776044488,-1.70006942749,-0.168915137649,-0.547134399414,-0.0056871608831,-4.02916717529,-0.0864577963948,0.599353790283,0.0162349473685,10.0646362305,96.2051925659,46.6027069092,36.9175071716,259
1.63084657042853E+018,99,1.63084657042853E+018,base_footprint,0,1.63084657042853E+018,map,-7.20215217062,-0.74751901812,0,0,0,0.002715014963,0.99999631434,0,67.3069152832,10.2835378647,48.9460525513,96.4570770264,50.3118515015,50.3118515015,67.3069152832,67.3069152832,39.0889854431,0.383387774229,0,0.0132074346766,0.265651911497,0.0364295355976,0.0232220999897,-0.492408752441,-0.0502913147211,-0.327186584473,-0.00340358843096,-3.84357833862,-0.0827140361071,-2.29906845093,-0.0624918080866,9.79112911224,96.1298904419,46.4682731628,36.7899169922,264
1.63084657052878E+018,100,1.63084657052878E+018,base_footprint,0,1.63084657052878E+018,map,-7.03335811784,-0.747907028182,0,0,0,0.00330239005224,0.999994547095,0,67.3766708374,10.2835378647,48.8858070374,96.1179962158,50.0993728638,50.0993728638,67.3766708374,67.3766708374,34.3178901672,0.442755043507,0,0.0170196816325,0.293165326118,0.0390680506825,0.02204836905,-0.735527038574,-0.0770345851779,0.0260238647461,0.000270675867796,-3.58664703369,-0.0771110877395,2.22203445435,0.0608111396432,9.54801082611,96.1440200806,46.5127258301,36.5399246216,263
1.6308465706281E+018,101,1.6308465706281E+018,base_footprint,0,1.6308465706281E+018,map,-6.94269981968,-0.749536436688,0,0,0,0.00319527317615,0.999994895102,0,67.350730896,8.97380828857,48.8266105652,96.4531326294,49.8456382751,49.8456382751,67.350730896,67.350730896,33.2510490417,0.472046494484,0,0.0112869394943,0.311796993017,0.0318787023425,0.0205917619169,0.286546707153,0.0309433825314,-0.374458312988,-0.00389741337858,-3.43068695068,-0.0739134028554,3.43590164185,0.0936545953155,9.26035499573,96.0786743164,46.4149513245,36.6869506836,257
1.63084657072816E+018,102,1.63084657072816E+018,base_footprint,0,1.63084657072816E+018,map,-6.76306042598,-0.748624972505,0,0,0,0.00469675373008,0.999988970191,0,67.0336303711,7.92838859558,48.7947387695,96.4969558716,49.674118042,49.674118042,67.0336303711,67.0336303711,37.2642021179,0.297416895628,0,0.0036831125617,0.31519472599,0.0209429208189,0.0172598082572,2.52112579346,0.241267263889,-0.669174194336,-0.00698309158906,-2.61904525757,-0.0556591488421,-1.76755905151,-0.0497951060534,10.449514389,95.8277816772,47.0550727844,35.4966430664,181
1.63084657082823E+018,103,1.63084657082823E+018,base_footprint,0,1.63084657082823E+018,map,-6.63266661925,-0.748997887422,0,0,0,0.0036344716275,0.999993395286,0,66.8868713379,13.6157960892,48.7626037598,96.3251419067,49.5703430176,49.5703430176,66.8868713379,66.8868713379,38.1665458679,0.400790542364,0,0.0143332388252,0.32377409935,0.0239020455629,0.00956880766898,-1.44147396088,-0.118402808905,-0.822410583496,-0.00861138291657,-1.41937637329,-0.0294776298106,-2.8660697937,-0.0811906829476,12.1743221283,95.5027313232,48.1509666443,35.3004760742,147
1.63084657092931E+018,104,1.63084657092931E+018,base_footprint,0,1.63084657092932E+018,map,-6.49100086785,-0.749093708202,0,0,0,0.00576096401804,0.999983405509,0,66.6899719238,6.37945318222,48.7393722534,96.26902771,49.5168304443,49.5168304443,66.6899719238,66.6899719238,40.9308052063,0.766949415207,0,0.0113194147125,0.331739515066,0.0175130702555,0.00619365554303,6.24010801315,0.494479000568,-0.826622009277,-0.00866095069796,-1.22151184082,-0.025292551145,-5.33815002441,-0.149978980422,12.6195611954,95.4424057007,48.2953186035,35.5926551819,137
1.63084657102875E+018,105,1.63084657102875E+018,base_footprint,0,1.63084657102875E+018,map,-6.30106235701,-0.74937574279,0,0,0,0.00783455390043,0.999969309412,0,67.2130050659,11.3384485245,48.6945991516,96.1370239258,49.4013786316,49.4013786316,67.2130050659,67.2130050659,29.7940788269,1.03684139252,0,0.00411326717585,0.342191338539,0.00533475074917,0.00122148368973,0.802733421326,0.066116578877,-0.588958740234,-0.00616400502622,-1.43210220337,-0.0298545714468,6.04605865479,0.168695181608,12.1411819458,95.5480651855,47.9692764282,35.8401374817,152
1.63084657112894E+018,106,1.63084657112894E+018,base_footprint,0,1.63084657112894E+018,map,-6.18188344709,-0.746707380993,0,0,0,0.00895315088937,0.999959919741,0,66.810760498,9.24369716644,48.719455719,96.3182601929,49.1240997314,49.1240997314,66.810760498,66.810760498,34.692276001,1.13879072666,0,0.00665663322434,0.355450719595,0.00520518003032,0.00145145319402,2.986784935,0.244208276272,-0.695755004883,-0.00727605912834,-1.18998718262,-0.02482547611,0.844654083252,0.0237683467567,12.2304821014,95.622505188,47.9341125488,35.5369300842,151
