%time,field.header.seq,field.header.stamp,field.header.frame_id,field.pose.header.seq,field.pose.header.stamp,field.pose.header.frame_id,field.pose.pose.position.x,field.pose.pose.position.y,field.pose.pose.position.z,field.pose.pose.orientation.x,field.pose.pose.orientation.y,field.pose.pose.orientation.z,field.pose.pose.orientation.w,field.label,field.main_output,field.scan_score,field.pose_score,field.cov_score,field.lhood_map_score,field.lhood_robot_score,field.lhood_map_score_all,field.lhood_robot_score_all,field.point_angle_diff,field.average_orientation,field.map_average_orientation,field.sensor_div,field.odom_div_x,field.odom_div_w,field.imu_div_w,field.kdtree_div,field.kdtree_div_p,field.cov_div,field.cov_div_p,field.likelihood_div,field.likelihood_div_p,field.normal_diff_div,field.normal_diff_div_p,field.kdtree_average,field.cov_average,field.likelihood_average,field.normal_diff_average,field.map_update_count
1.63802427252948E+018,0,1.63802427252948E+018,base_footprint,0,1.63802427252948E+018,map,3.15159514403,-73.6870358593,0,0,0,-0.0049514598252,0.999987741448,0,66.9823989868,37.254901886,100,94.9147109985,50.0444450378,50.0444450378,66.9823989868,66.9823989868,36.4897422791,2.20348453522,0,0.000411280430853,0.210542663932,0.0328191742301,0.0324078910053,-20.8346195221,-1.2688344717,1.66281890869,0.0172174517065,-7.23696136475,-0.169058322906,0.572631835938,0.0154504897073,16.4202823639,96.5775299072,42.8074836731,37.062374115,664
1.63802427262901E+018,1,1.63802427262901E+018,base_footprint,0,1.63802427262901E+018,map,3.3266341922,-73.6879171808,0,0,0,0.00495080405213,0.999987744695,0,66.4680023193,25.9962043762,80.7905044556,94.1774291992,50.2319335938,50.2319335938,66.4680023193,66.4680023193,45.1195526123,2.20285391808,0,0.00121407757979,0.210623368621,0.0525381825864,0.0513241030276,-9.7968788147,-0.60477077961,2.39965820312,0.0248470753431,-7.50378799438,-0.175616979599,-7.80773544312,-0.209256365895,16.1993255615,96.5770874023,42.7281455994,37.3118171692,639
1.63802427272914E+018,2,1.63802427272914E+018,base_footprint,0,1.63802427272914E+018,map,3.41210601858,-73.6878924129,0,0,0,0.0154188362088,0.999881122679,0,67.1260223389,28.1045761108,80.7905044556,94.6261367798,50.5071563721,50.5071563721,67.1260223389,67.1260223389,37.8630180359,2.48176383972,0,0.00273630884476,0.211542323232,0.0615950413048,0.0588587336242,-13.4073295593,-0.912234127522,1.962059021,0.0203136522323,-8.36562347412,-0.198512554169,-0.233818054199,-0.00621373951435,14.6972465515,96.5881958008,42.1415328979,37.6291999817,607
1.63802427282899E+018,3,1.63802427282899E+018,base_footprint,0,1.63802427282899E+018,map,3.49888792199,-73.6824694698,0,0,0,0.0321427215912,0.999483289229,0,66.9315185547,33.706817627,83.4147644043,94.6292648315,50.7738990784,50.7738990784,66.9315185547,66.9315185547,44.2561378479,2.60485982895,0,0.00345920328982,0.212979525328,0.0579908899963,0.0545316897333,-3.49508285522,-0.115686267614,1.74063873291,0.0180620569736,-0.800716400146,-0.0160229224712,-9.99765396118,-0.291830003262,30.2117347717,96.3699035645,49.9731826782,34.2584838867,173
1.63802427292997E+018,4,1.63802427292997E+018,base_footprint,0,1.63802427292997E+018,map,3.67359624606,-73.6664364298,0,0,0,0.0680588292181,0.99768130972,0,66.9436569214,26.3510284424,86.6502532959,95.0271072388,51.1135826111,51.1135826111,66.9436569214,66.9436569214,49.1384925842,2.43277621269,0,0.00345645123161,0.219963103533,0.0542383752763,0.0507819242775,4.06145095825,0.133545532823,1.2056350708,0.012528325431,-1.0908241272,-0.0218065567315,-14.6844482422,-0.426203906536,30.4124794006,96.2327423096,50.0227584839,34.454044342,166
1.63802427302926E+018,5,1.63802427302926E+018,base_footprint,0,1.63802427302926E+018,map,3.78482366735,-73.6503512675,0,0,0,0.0843330290504,0.996437624847,0,67.8428421021,27.5294113159,86.8978118896,95.1637268066,51.434223175,51.434223175,67.8428421021,67.8428421021,36.9078941345,2.22381401062,0,0.00267234188505,0.216078683734,0.0497336611152,0.0470613203943,1.97607040405,0.0669729933143,0.999794006348,0.0103968111798,-1.53437423706,-0.0307490751147,-2.13882064819,-0.0615150332451,29.50548172,96.163520813,49.899848938,34.7690734863,165
1.63802427312961E+018,6,1.63802427312961E+018,base_footprint,0,1.63802427312961E+018,map,3.89922761456,-73.6488429173,0,0,0,0.0979550363428,0.995190841424,0,67.8324356079,37.8287887573,85.7015075684,95.1361312866,51.7395820618,51.7395820618,67.8324356079,67.8324356079,40.2936973572,2.37920475006,0,0.00255095516331,0.215391620994,0.0532250478864,0.0506740920246,-9.02750968933,-0.31344127655,1.15356445312,0.011980144307,-1.93634796143,-0.0388799645007,-5.65490341187,-0.163253471255,28.801279068,96.2896957397,49.8032341003,34.6387939453,157
1.63802427323001E+018,7,1.63802427323001E+018,base_footprint,0,1.63802427323001E+018,map,4.06945323835,-73.5958548736,0,0,0,0.12316036814,0.99238678131,0,67.9830856323,34.2288093567,83.9114227295,94.7698287964,51.9049949646,51.9049949646,67.9830856323,67.9830856323,38.0498046875,2.31195282936,0,0.00287605496123,0.219105124474,0.050583075732,0.0477070212364,-5.65507125854,-0.197911500931,1.39028167725,0.0144579876214,-2.23361587524,-0.0449678637087,-3.54402542114,-0.102708168328,28.5737380981,96.1601104736,49.6713790894,34.5057792664,165
1.63802427332947E+018,8,1.63802427332947E+018,base_footprint,0,1.63802427332947E+018,map,4.1785015887,-73.5689144331,0,0,0,0.135077736127,0.990835004026,0,67.6870269775,31.2941169739,83.9114227295,94.5137634277,52.1216964722,52.1216964722,67.6870269775,67.6870269775,44.79737854,2.25979971886,0,0.00162626523525,0.219081789255,0.0414759106934,0.0398496463895,-2.49033164978,-0.0864584818482,1.62199401855,0.0168719124049,-2.44728851318,-0.0492665879428,-10.1813087463,-0.294120877981,28.8037853241,96.1357574463,49.674407959,34.6160697937,162
1.6380242734295E+018,9,1.6380242734295E+018,base_footprint,0,1.6380242734295E+018,map,4.31153894672,-73.5361630728,0,0,0,0.144396434186,0.989519918847,0,68.5278549194,37.9342269897,77.9969100952,94.5422134399,52.4236984253,52.4236984253,68.5278549194,68.5278549194,33.0264930725,2.60704040527,0,0.000870724557899,0.212800338864,0.0407199151814,0.0398491881788,-10.2373485565,-0.369621038437,1.72078704834,0.0178758930415,-2.92649841309,-0.0591245256364,1.69449996948,0.0488033257425,27.6968784332,96.2630004883,49.4972000122,34.720993042,154
1.6380242735295E+018,10,1.6380242735295E+018,base_footprint,0,1.6380242735295E+018,map,4.40712516208,-73.5087451051,0,0,0,0.150426366826,0.988621215716,0,68.8894882202,41.1764717102,77.9969100952,94.9667892456,52.8487892151,52.8487892151,68.8894882202,68.8894882202,32.6365661621,2.46050858498,0,0.000626471068244,0.221033558249,0.0410596840084,0.0404332131147,-14.3441753387,-0.534586191177,1.16061401367,0.0120737059042,-3.42933654785,-0.0693924427032,2.26537322998,0.0649067983031,26.8322963715,96.1274032593,49.4194526672,34.9019393921,160
1.63802427363051E+018,11,1.63802427363051E+018,base_footprint,0,1.63802427363051E+018,map,4.52532528768,-73.4724066368,0,0,0,0.15486522091,0.987935606886,0,68.6656265259,39.3090553284,75.530418396,95.1796112061,53.2305755615,53.2305755615,68.6656265259,68.6656265259,41.5555229187,2.46949124336,0,0.000435740657849,0.220014050603,0.0398734584451,0.0394377149642,-13.1863803864,-0.504786729813,0.761566162109,0.00793784484267,-3.87608337402,-0.0785355716944,-6.89431381226,-0.198905751109,26.122674942,95.9411773682,49.3544921875,34.6612091064,166
1.63802427372929E+018,12,1.63802427372929E+018,base_footprint,0,1.63802427372929E+018,map,4.74739065786,-73.4015267391,0,0,0,0.165192547061,0.98626133575,0,69.298789978,38.7852706909,71.6929626465,95.7295150757,53.2197151184,53.2197151184,69.298789978,69.298789978,32.0208854675,2.651065588,0,0.000582105771173,0.216962784529,0.0353884063661,0.0348062999547,-10.2108440399,-0.357342034578,-0.277687072754,-0.00290918559767,-4.18056488037,-0.0852495357394,-0.243391036987,-0.00765922665596,28.574426651,95.4518280029,49.039150238,31.7774944305,207
1.63802427382955E+018,13,1.63802427382955E+018,base_footprint,0,1.63802427382955E+018,map,4.8713856824,-73.3603466749,0,0,0,0.167297456342,0.98590646671,0,69.0810928345,38.3301696777,67.703742981,95.1484222412,53.0872573853,53.0872573853,69.0810928345,69.0810928345,32.4170303345,2.37328386307,0,0.000960221106652,0.217146620154,0.0348820276558,0.0358422473073,-9.09625053406,-0.311153978109,0.0551452636719,0.000579235260375,-4.14688873291,-0.0847335010767,-1.24028015137,-0.0397822149098,29.2339191437,95.2035675049,48.9403686523,31.1767501831,227
1.63802427392957E+018,14,1.63802427392957E+018,base_footprint,0,1.63802427392957E+018,map,4.97206882116,-73.3242742357,0,0,0,0.168659977984,0.985674292972,0,68.9371948242,37.8823547363,66.3047790527,95.4460067749,52.9113311768,52.9113311768,68.9371948242,68.9371948242,34.1784667969,2.38789796829,0,0.00131914659869,0.225211620331,0.0363491848111,0.0376683324575,-8.19333648682,-0.2759719491,-0.346237182617,-0.00364077836275,-3.93964767456,-0.0804474651814,-3.5128288269,-0.114552609622,29.6890182495,95.0997695923,48.9716835022,30.66563797,223
1.63802427403035E+018,15,1.63802427403035E+018,base_footprint,0,1.63802427403035E+018,map,5.22182603151,-73.2341444479,0,0,0,0.169586071327,0.985515380099,0,68.3168563843,30.3529415131,67.5763626099,94.7231750488,52.8026008606,52.8026008606,68.3168563843,68.3168563843,41.5680503845,2.25772476196,0,0.000549577875063,0.226148620248,0.0360412038863,0.0365907847881,-0.179538726807,-0.00595023110509,0.170761108398,0.00179949437734,-3.84842300415,-0.0786127597094,-11.680639267,-0.390821367502,30.1734027863,94.8939361572,48.9541778564,29.8874111176,206
1.63802427412919E+018,16,1.63802427412919E+018,base_footprint,0,1.63802427412919E+018,map,5.22182603151,-73.2341444479,0,0,0,0.169586071327,0.985515380099,0,68.5509109497,34.0028686523,67.5379714966,94.7231750488,52.4938850403,52.4938850403,68.5509109497,68.5509109497,34.0209655762,2.1337583065,0,0.00075351895066,0.229478061199,0.0352591797709,0.0360126979649,-3.82946586609,-0.126915276051,0.170761108398,0.00179949437734,-3.53970718384,-0.0723065361381,-4.13355445862,-0.138304203749,30.1734027863,94.8939361572,48.9541778564,29.8874111176,206
1.63802427422916E+018,17,1.63802427422916E+018,base_footprint,0,1.63802427422916E+018,map,5.45415699886,-73.1489951947,0,0,0,0.17028372951,0.985395073797,0,68.2776947021,30.1769485474,66.6680221558,94.6930541992,52.4404296875,52.4404296875,68.2776947021,68.2776947021,38.2532081604,2.24148583412,0,0.0018711425364,0.236181616783,0.0353618897498,0.0372330322862,-0.107446670532,-0.0035732772667,0.363792419434,0.0038271038793,-3.37373733521,-0.0687581971288,-7.62742233276,-0.249052301049,30.0695018768,95.0568466187,49.0666923523,30.6257858276,164
1.63802427432928E+018,18,1.63802427432928E+018,base_footprint,0,1.63802427432928E+018,map,5.58516172828,-73.1050159454,0,0,0,0.166990544031,0.985958497202,0,68.2136001587,43.1051101685,67.6759185791,93.8220062256,52.5152397156,52.5152397156,68.2136001587,68.2136001587,37.0789642334,2.47573113441,0,0.00175867439248,0.233124136925,0.0409760065377,0.0427346788347,-14.4949226379,-0.506635010242,1.65216064453,0.0173047930002,-2.7843170166,-0.0559876412153,-4.37874603271,-0.13390570879,28.6101875305,95.4741668701,49.730922699,32.7002182007,103
1.63802427442912E+018,19,1.63802427442912E+018,base_footprint,0,1.63802427442912E+018,map,5.80967203757,-73.0262361319,0,0,0,0.166634598792,0.986018717107,0,68.578666687,40.6903266907,68.4054718018,94.3858795166,52.4513206482,52.4513206482,68.578666687,68.578666687,31.8474578857,2.11991620064,0,0.000455406319816,0.232639908791,0.0727112516761,0.0731666535139,-17.9449157715,-0.788946628571,2.28720092773,0.0236591286957,-1.19690704346,-0.0233522728086,7.42372894287,0.189037546515,22.7454109192,96.6730804443,51.2544136047,39.2711868286,55
1.6380242745295E+018,20,1.6380242745295E+018,base_footprint,0,1.6380242745295E+018,map,5.93278543227,-72.9853404646,0,0,0,0.175296518457,0.984515683276,0,68.2858657837,37.8287887573,68.6435012817,94.190032959,52.3907394409,52.3907394409,68.2858657837,68.2858657837,35.7585906982,2.08946156502,0,0.000924469262827,0.225296109915,0.0831647664309,0.0822402909398,-15.5517597198,-0.698107421398,2.42601013184,0.0251098070294,-1.17263031006,-0.0228948388249,3.47158050537,0.0884926170111,22.2770290375,96.6160430908,51.2181091309,39.2301712036,52
1.63802427462925E+018,21,1.63802427462925E+018,base_footprint,0,1.63802427462925E+018,map,6.16616981998,-72.8904051259,0,0,0,0.207226373392,0.978293018564,0,68.4475784302,37.254901886,69.3122253418,94.5937957764,52.2466659546,52.2466659546,68.4475784302,68.4475784302,32.7452850342,2.28156518936,0,0.00257706712,0.219137787819,0.105848170817,0.103271104395,-15.2404460907,-0.692292630672,2.25925445557,0.0233266223222,-1.20655059814,-0.0236392617226,5.4493522644,0.142673224211,22.0144557953,96.8530502319,51.0401153564,38.1946372986,55
1.63802427472941E+018,22,1.63802427472941E+018,base_footprint,0,1.63802427472941E+018,map,6.23144615661,-72.8632241836,0,0,0,0.221134368277,0.975243349717,0,67.8953857422,35.2941169739,70.0013961792,93.5025634766,52.1328315735,52.1328315735,67.8953857422,67.8953857422,37.5268707275,2.28303289413,0,0.00603806041181,0.193296834826,0.136993080378,0.130955010653,-12.9750823975,-0.581346035004,3.22634887695,0.0333545468748,-1.03142929077,-0.0201839730144,0.167385101318,0.00444059958681,22.3190345764,96.7289123535,51.1014022827,37.6942558289,59
1.6380242748292E+018,23,1.6380242748292E+018,base_footprint,0,1.63802427482921E+018,map,6.33321352347,-72.8107737534,0,0,0,0.252180600552,0.967680187203,0,67.7047805786,39.7417488098,70.497253418,92.8724365234,52.0284919739,52.0284919739,67.7047805786,67.7047805786,37.5623817444,2.06593942642,0,0.00806390959769,0.194516703486,0.152272775769,0.144208878279,-16.9628448486,-0.74467343092,3.81259155273,0.0394331105053,-0.94157409668,-0.0184308253229,-0.63069152832,-0.0170772448182,22.7789039612,96.6850280762,51.0869178772,36.9316902161,57
1.63802427492955E+018,24,1.63802427492955E+018,base_footprint,0,1.63802427492955E+018,map,6.50327810646,-72.7073077906,0,0,0,0.308766555963,0.951137852216,0,68.1938476562,29.9951381683,70.497253418,93.6484069824,51.8132476807,51.8132476807,68.1938476562,68.1938476562,29.2281188965,1.77215600014,0,0.00949272979051,0.156288906932,0.161157011986,0.151664286852,-5.64834022522,-0.23199519515,2.31298065186,0.0241032429039,-0.137706756592,-0.00266483426094,5.11485290527,0.148934483528,24.3467979431,95.9613876343,51.6755409241,34.3429718018,79
1.63802427502913E+018,25,1.63802427502913E+018,base_footprint,0,1.63802427502914E+018,map,6.63986227637,-72.5939529813,0,0,0,0.377033364873,0.926199677053,0,68.6098937988,32.6375694275,70.9875183105,94.4369812012,51.8730506897,51.8730506897,68.6098937988,68.6098937988,25.2239360809,2.05010986328,0,0.0103619256988,0.119699031115,0.153403371572,0.143041446805,-7.1250705719,-0.279277652502,0.899360656738,0.00943355541676,-0.0972900390625,-0.00187906541396,6.85189628601,0.21361553669,25.5124988556,95.3363418579,51.7757606506,32.0758323669,105
1.6380242751292E+018,26,1.6380242751292E+018,base_footprint,0,1.6380242751292E+018,map,6.70438036455,-72.5192981265,0,0,0,0.42516611081,0.905115339732,0,68.7530975342,47.2941169739,74.2498626709,95.0310974121,52.2137451172,52.2137451172,68.7530975342,68.7530975342,28.4646072388,2.54824113846,0,0.0102425040677,0.0889109224081,0.126964464784,0.116721957922,-21.9789028168,-0.868209242821,0.306640625,0.00321636139415,-0.517910003662,-0.0100184082985,2.91719436646,0.0929581522942,25.3152141571,95.3377380371,51.6958351135,31.3818016052,113
1.63802427523105E+018,27,1.63802427523105E+018,base_footprint,0,1.63802427523105E+018,map,6.75898485649,-72.4442517547,0,0,0,0.468293156131,0.883573154821,0,68.92918396,47.8178367615,75.5596237183,94.0810928345,52.5746307373,52.5746307373,68.92918396,68.92918396,25.7726249695,2.68380379677,0,0.00695025641471,0.0732654556632,0.100256189704,0.0933059304953,-22.7932071686,-0.910830974579,1.15757751465,0.012154490687,-1.07973861694,-0.0209678784013,4.52429580688,0.149331867695,25.0246295929,95.2386703491,51.4948921204,30.2969207764,124
1.63802427532906E+018,28,1.63802427532906E+018,base_footprint,0,1.63802427532906E+018,map,6.84347758967,-72.2779140174,0,0,0,0.539008009543,0.842300638519,0,69.4390182495,53.5104370117,74.9269790649,94.7048416138,52.8147468567,52.8147468567,69.4390182495,69.4390182495,21.4344406128,2.70702791214,0,0.00428689783439,0.0661484003067,0.102029070258,0.097742177546,-28.8927116394,-1.17365479469,0.315147399902,0.00331664318219,-1.58465576172,-0.0309321284294,7.58257675171,0.261314809322,24.6177253723,95.0199890137,51.230091095,29.0170173645,134
1.63802427542929E+018,29,1.63802427542929E+018,base_footprint,0,1.63802427542929E+018,map,6.84347758967,-72.2779140174,0,0,0,0.539008009543,0.842300638519,0,69.4996261597,51.2195129395,70.6187362671,94.7048416138,53.1503448486,53.1503448486,69.4996261597,69.4996261597,23.9678287506,2.70616531372,0,0.00426516309381,0.0658009946346,0.102061070502,0.0977959111333,-26.6017875671,-1.08059489727,0.315147399902,0.00331664318219,-1.92025375366,-0.0374829284847,5.04918861389,0.174007847905,24.6177253723,95.0199890137,51.230091095,29.0170173645,134
1.63802427552922E+018,30,1.63802427552922E+018,base_footprint,0,1.63802427552922E+018,map,6.92086353673,-72.0479349092,0,0,0,0.605821839495,0.795600338607,0,69.7627639771,51.3855133057,70.6187362671,93.9911651611,53.5005989075,53.5005989075,69.7627639771,69.7627639771,20.4448871613,2.55696034431,0,0.00315242866054,0.0694401711226,0.096386231482,0.0932338014245,-26.9155731201,-1.0999443531,0.855895996094,0.00902395881712,-2.62762832642,-0.0516507737339,7.43862342834,0.266774982214,24.4699401855,94.8470611572,50.8729705811,27.8835105896,141
1.63802427562918E+018,31,1.63802427562918E+018,base_footprint,0,1.63802427562918E+018,map,6.94754544068,-71.9547936605,0,0,0,0.62649397557,0.779426262436,0,69.7848968506,55.6412734985,67.2716751099,93.7919998169,53.8292274475,53.8292274475,69.7848968506,69.7848968506,22.8786792755,2.72241353989,0,0.00293867499568,0.0754523351789,0.0863866657019,0.0834479853511,-29.9981765747,-1.16983437538,0.990325927734,0.0104484241456,-2.86628723145,-0.0562425814569,4.54374504089,0.165694504976,25.6430969238,94.7823257446,50.9629402161,27.4224243164,135
1.63802427572954E+018,32,1.63802427572954E+018,base_footprint,0,1.63802427572954E+018,map,6.9692710626,-71.8491835409,0,0,0,0.64510554107,0.764093476533,0,69.5869979858,51.7839927673,59.8414726257,93.8421020508,53.9225349426,53.9225349426,69.5869979858,69.5869979858,27.6290073395,2.53124332428,0,0.000882230990101,0.0670314580202,0.0826745182276,0.0817922875285,-26.4850349426,-1.04688239098,0.780647277832,0.00825010146946,-3.12655258179,-0.0615511797369,-0.54421043396,-0.0200928375125,25.2989578247,94.6227493286,50.7959823608,27.0847969055,130
1.63802427582918E+018,33,1.63802427582918E+018,base_footprint,0,1.63802427582918E+018,map,6.99555583037,-71.6965345532,0,0,0,0.667179887954,0.744896635185,0,69.4326324463,52.1759910583,55.4678192139,92.4294433594,54.079875946,54.079875946,69.4326324463,69.4326324463,27.0213241577,2.64462757111,0,0.000814644095954,0.074945114553,0.0901242792606,0.0893096402287,-26.0876045227,-0.999970018864,1.96042633057,0.0207694564015,-3.26033782959,-0.0641552060843,0.215911865234,0.00792708434165,26.0883865356,94.3898696899,50.8195381165,27.2372360229,128
1.63802427592939E+018,34,1.63802427592939E+018,base_footprint,0,1.63802427592939E+018,map,7.0075527171,-71.5711365972,0,0,0,0.679505446554,0.73367046288,0,69.4506835938,53.7126312256,53.1904525757,92.1371002197,54.3776245117,54.3776245117,69.4506835938,69.4506835938,28.8595695496,2.71320104599,0,0.000971947098151,0.0659091472626,0.0821195840836,0.0811476409435,-27.0104351044,-1.01154363155,2.00731658936,0.0213216748089,-3.4790763855,-0.0683531537652,-1.47751045227,-0.0539590716362,26.7021961212,94.1444168091,50.8985481262,27.3820590973,133
1.63802427602917E+018,35,1.63802427602917E+018,base_footprint,0,1.63802427602917E+018,map,7.01471062456,-71.3783097776,0,0,0,0.699988752746,0.714153867194,0,69.7309951782,45.9203033447,52.4519119263,91.9377288818,54.4866371155,54.4866371155,69.7309951782,69.7309951782,24.2735996246,2.67094373703,0,0.00100598915014,0.0674309059978,0.072471998632,0.0714660063386,-18.1749000549,-0.655059874058,2.0832824707,0.0221576262265,-3.63958740234,-0.0715791285038,3.60610389709,0.129345133901,27.7454032898,94.0210113525,50.8470497131,27.8797035217,123
1.6380242761297E+018,36,1.6380242761297E+018,base_footprint,0,1.6380242761297E+018,map,7.01226834748,-71.2460904996,0,0,0,0.707381576773,0.706831878767,0,69.7131576538,51.0588226318,50.1818313599,91.9213867188,54.4195747375,54.4195747375,69.7131576538,69.7131576538,23.811542511,2.64839553833,0,0.000428458064562,0.069413125515,0.0697105154395,0.0692820549011,-23.0548591614,-0.823271274567,2.15467071533,0.0229034963995,-3.51707458496,-0.069094337523,3.89260864258,0.140506327152,28.0039634705,94.0760574341,50.9025001526,27.7041511536,133
1.63802427622918E+018,37,1.63802427622918E+018,base_footprint,0,1.63802427622918E+018,map,7.01319117885,-71.1543773315,0,0,0,0.711027428859,0.703164273417,0,69.6114425659,48.7666015625,49.571395874,91.8707046509,54.3679389954,54.3679389954,69.6114425659,69.6114425659,24.9023685455,2.62231040001,0,0.000244771159487,0.0713283792138,0.067387342453,0.0676321163774,-20.6196479797,-0.73257124424,2.13759613037,0.0227383766323,-3.48517227173,-0.068494156003,2.71919441223,0.0984446257353,28.1469535828,94.0083007812,50.8827667236,27.6215629578,127
1.63802427632908E+018,38,1.63802427632908E+018,base_footprint,0,1.63802427632908E+018,map,7.01098372975,-70.9630769892,0,0,0,0.713532553177,0.700622077554,0,69.8881988525,51.612903595,49.571395874,92.2272186279,54.3811454773,54.3811454773,69.8881988525,69.8881988525,21.3467254639,2.62789869308,0,0.000314557895763,0.0693513527513,0.06653932482,0.0668538883328,-24.2461032867,-0.88596779108,1.55595397949,0.0165909714997,-3.66981887817,-0.072366848588,5.86461830139,0.215521082282,27.3668003082,93.7831726074,50.7113265991,27.2113437653,129
1.63802427642917E+018,39,1.63802427642917E+018,base_footprint,0,1.63802427642917E+018,map,7.01342721677,-70.8476866707,0,0,0,0.712559256721,0.701611933807,0,69.713394165,45.7720603943,48.0409164429,92.1519546509,54.3281860352,54.3281860352,69.713394165,69.713394165,23.6503658295,2.84285068512,0,0.000545956776477,0.0637321993709,0.0682352930307,0.0687812492251,-18.0790023804,-0.652835190296,1.4966583252,0.0159816388041,-3.40852737427,-0.0669393241405,3.0290927887,0.113536514342,27.6930580139,93.6486129761,50.9196586609,26.6794586182,133
1.63802427652936E+018,40,1.63802427652936E+018,base_footprint,0,1.63802427652936E+018,map,7.01205666145,-70.6908192614,0,0,0,0.712357069606,0.701817216505,0,69.4264755249,46.6911773682,48.0112915039,92.1628036499,54.2680244446,54.2680244446,69.4264755249,69.4264755249,28.2041683197,2.90809392929,0,0.0010985537665,0.063013240695,0.0698590055108,0.0709575563669,-18.9679069519,-0.684187233448,1.30790710449,0.0139926942065,-3.21492385864,-0.0629721581936,-1.6255569458,-0.0611603409052,27.7232704163,93.4707107544,51.0531005859,26.5786113739,126
1.63802427662922E+018,41,1.63802427662922E+018,base_footprint,0,1.63802427662922E+018,map,7.0101942299,-70.5725830453,0,0,0,0.712129257936,0.702048374395,0,69.5246047974,45.7720603943,48.3482894897,92.775138855,54.1349716187,54.1349716187,69.5246047974,69.5246047974,27.2052993774,2.80393457413,0,0.00135127548128,0.0646976977587,0.071377761662,0.072729036212,-18.4422416687,-0.674802899361,0.743324279785,0.00794842280447,-3.2073097229,-0.0629777535796,-0.318744659424,-0.0118551691994,27.3298187256,93.5184631348,50.9276618958,26.886554718,127
1.6380242767294E+018,42,1.6380242767294E+018,base_footprint,0,1.6380242767294E+018,map,7.00529455052,-70.308020271,0,0,0,0.711009124042,0.703182782446,0,69.5919723511,43.0438842773,50.6530532837,93.5,54.0524253845,54.0524253845,69.5919723511,69.5919723511,27.710641861,2.92843866348,0,0.000632709998172,0.0580344684422,0.069435223937,0.0700679272413,-16.1184978485,-0.598635733128,-0.311752319336,-0.00334540382028,-3.03944778442,-0.0595818534493,0.370775222778,0.0132035799325,26.9253864288,93.1882476807,51.0129776001,28.0814170837,126
1.63802427682935E+018,43,1.63802427682935E+018,base_footprint,0,1.63802427682935E+018,map,7.00656466215,-70.1725742963,0,0,0,0.711240318959,0.702948937468,0,69.7228240967,43.9775924683,52.9517440796,93.7565383911,54.0313110352,54.0313110352,69.7228240967,69.7228240967,26.0508403778,2.93916463852,0,0.00140350486618,0.0637578591704,0.0581338256598,0.0595373287797,-17.1744422913,-0.640762090683,-0.612640380859,-0.00657735392451,-3.00500106812,-0.0588912069798,2.38525009155,0.0838810876012,26.803150177,93.1438980103,51.026309967,28.4360904694,126
1.63802427692924E+018,44,1.63802427692924E+018,base_footprint,0,1.63802427692924E+018,map,7.00563604175,-70.0933746295,0,0,0,0.710943060308,0.703249575186,0,69.7659683228,41.1764717102,55.9685707092,93.883972168,53.9599266052,53.9599266052,69.7659683228,69.7659683228,24.96210289,2.83231496811,0,0.00256207119673,0.0611920878291,0.0307187922299,0.0332808643579,-15.1307983398,-0.580933272839,-0.60954284668,-0.00653494056314,-3.33662414551,-0.0659108385444,4.06202888489,0.139953508973,26.0456733704,93.2744293213,50.6233024597,29.0241317749,124
1.6380242770291E+018,45,1.6380242770291E+018,base_footprint,0,1.63802427702911E+018,map,7.00337498412,-69.8864040464,0,0,0,0.709713566893,0.704490349805,0,69.413772583,36.432636261,57.7047042847,93.3559112549,53.7832870483,53.7832870483,69.413772583,69.413772583,27.4928150177,2.8891851902,0,0.00436761043966,0.0644429549575,0.0194463804364,0.0238139908761,-9.38737106323,-0.347098499537,-0.262924194336,-0.00282431789674,-2.9760093689,-0.0585744716227,3.22126960754,0.104879230261,27.0452651978,93.0929870605,50.8072776794,30.7140846252,126
1.63802427712924E+018,46,1.63802427712924E+018,base_footprint,0,1.63802427712924E+018,map,7.00762007405,-69.6667740968,0,0,0,0.707154002737,0.707059556483,0,69.4860916138,38.8235282898,59.719669342,93.3940505981,53.7057609558,53.7057609558,69.4860916138,69.4860916138,25.4911251068,2.65884160995,0,0.00595304416493,0.0689046755433,0.00315598072484,0.00279706344008,-12.4951496124,-0.474588632584,-0.114051818848,-0.0012226824183,-3.10694885254,-0.0614035911858,5.18224525452,0.168949320912,26.3283786774,93.2799987793,50.5988121033,30.6733703613,131
1.63802427722917E+018,47,1.63802427722917E+018,base_footprint,0,1.63802427722917E+018,map,7.00777312155,-69.5223622761,0,0,0,0.706248896818,0.707963626003,0,69.414642334,37.0078735352,66.8076553345,93.0902328491,53.5249481201,53.5249481201,69.414642334,69.414642334,23.7306594849,2.89346432686,0,0.00851200800389,0.0867241099477,0.021311532706,0.0127995247021,-11.2967605591,-0.439372688532,0.0480575561523,0.000515980646014,-3.02759170532,-0.0599554479122,7.48747253418,0.239843711257,25.7111129761,93.1382904053,50.4973564148,31.218132019,127
1.63802427732918E+018,48,1.63802427732918E+018,base_footprint,0,1.63802427732918E+018,map,7.013390244,-69.2837791821,0,0,0,0.705151792803,0.709056379356,0,68.9720535278,35.2485198975,68.8833618164,92.6086044312,53.3701286316,53.3701286316,68.9720535278,68.9720535278,28.2914199829,2.79638385773,0,0.0110156796873,0.0987803414464,0.0472519360483,0.036236256361,-10.1594238281,-0.404933840036,0.534912109375,0.00574288098142,-3.05536270142,-0.0607249699533,2.3302116394,0.0760969147086,25.0890960693,93.1435165405,50.3147659302,30.6216316223,127
1.6380242774291E+018,49,1.6380242774291E+018,base_footprint,0,1.6380242774291E+018,map,7.01469516379,-69.0525236193,0,0,0,0.705836745899,0.708374539448,0,68.9788208008,35.5742301941,66.2224655151,92.4089431763,53.2823219299,53.2823219299,68.9788208008,68.9788208008,26.502494812,2.97446060181,0,0.012940434739,0.11843855679,0.0651397034526,0.0521992668509,-10.2764720917,-0.406220674515,0.450126647949,0.00484741711989,-2.70211410522,-0.0534223616123,3.68576812744,0.122092753649,25.2977581024,92.8590698242,50.5802078247,30.1882629395,135
1.6380242775292E+018,50,1.6380242775292E+018,base_footprint,0,1.6380242775292E+018,map,6.99841265409,-68.8595610703,0,0,0,0.706563955826,0.707649190156,0,68.960067749,39.3090553284,62.4679603577,92.4570083618,53.235042572,53.235042572,68.960067749,68.960067749,26.5025348663,2.87628364563,0,0.0145996697247,0.147926300764,0.0730808228254,0.0584811531007,-14.7990112305,-0.603793740273,0.294013977051,0.00316992704757,-2.78548049927,-0.055213175714,3.17745399475,0.107057116926,24.5100440979,92.7510223389,50.4495620728,29.6799888611,122
1.63802427762924E+018,51,1.63802427762924E+018,base_footprint,0,1.63802427762924E+018,map,7.00190350698,-68.6199501939,0,0,0,0.704457203069,0.709746468145,0,69.0855865479,31.8394031525,62.4679603577,92.1575469971,53.1242370605,53.1242370605,69.0855865479,69.0855865479,21.9683513641,2.94870495796,0,0.0144913159311,0.178673893213,0.0703935027122,0.0559021867812,-7.29270362854,-0.297095090151,0.709701538086,0.00764210801572,-2.68083190918,-0.0531453415751,7.80471801758,0.262140184641,24.5466995239,92.8672485352,50.4434051514,29.7730693817,119
1.63802427772926E+018,52,1.63802427772926E+018,base_footprint,0,1.63802427772926E+018,map,7.02617034073,-68.5447769642,0,0,0,0.703901128347,0.71029796671,0,69.0859527588,37.8823547363,62.9379119873,92.8413543701,53.1470108032,53.1470108032,69.0859527588,69.0859527588,24.6694736481,2.89396047592,0,0.0145808178931,0.21712949872,0.0460932590067,0.0315124429762,-13.0312404633,-0.524372458458,-0.0797882080078,-0.000860142987221,-2.50838470459,-0.0495350062847,4.83974266052,0.16400782764,24.8511142731,92.7615661621,50.6386260986,29.5092163086,116
1.63802427782932E+018,53,1.63802427782932E+018,base_footprint,0,1.63802427782932E+018,map,7.03118966316,-68.2814165571,0,0,0,0.704390115548,0.709813049414,0,68.2577514648,34.0028686523,58.7283592224,92.7359085083,52.9518241882,52.9518241882,68.2577514648,68.2577514648,37.0894851685,2.8896241188,0,0.0121303666383,0.226623028517,0.0416588634253,0.029528496787,-9.81566429138,-0.405820548534,-0.257232666016,-0.00278153503314,-2.63645172119,-0.052398532629,-6.88298225403,-0.227864250541,24.187204361,92.4786758423,50.315372467,30.2065029144,119
1.63802427882945E+018,54,1.63802427882945E+018,base_footprint,0,1.63802427882945E+018,map,7.02368419037,-67.0761479883,0,0,0,0.695665221142,0.71836613234,0,68.3542404175,27.893737793,57.9454536438,90.919921875,52.699382782,52.699382782,68.3542404175,68.3542404175,26.0887718201,3.00325775146,0,0.00352357979864,0.843150675297,0.0415963679552,0.0451199449599,-7.12640380859,-0.343154489994,1.30387115479,0.0141381211579,-2.62333297729,-0.0523869805038,7.41919708252,0.221415907145,20.7673339844,92.2237930298,50.0760498047,33.5079689026,95
1.63802427892899E+018,55,1.63802427892899E+018,base_footprint,0,1.63802427892899E+018,map,7.02600266867,-67.0246507304,0,0,0,0.696527812353,0.717529794934,0,67.4405593872,27.1708679199,53.8987312317,90.8697052002,52.4818267822,52.4818267822,67.4405593872,67.4405593872,40.0045852661,2.89884614944,0,0.00254584709182,0.842877745628,0.036979585886,0.0395254306495,-6.47715377808,-0.313001036644,1.18930053711,0.0129188941792,-2.50967407227,-0.0502214506269,-6.86533737183,-0.207166358829,20.6937141418,92.0590057373,49.97215271,33.1392478943,101
1.6380242790291E+018,56,1.6380242790291E+018,base_footprint,0,1.6380242790291E+018,map,7.02600266867,-67.0246507304,0,0,0,0.696527812353,0.717529794934,0,67.6302947998,32.3760986328,49.5428123474,90.8697052002,52.3635635376,52.3635635376,67.6302947998,67.6302947998,35.3121261597,2.81363677979,0,0.0023042850662,0.842076361179,0.0333314090967,0.0356356948614,-11.682384491,-0.5645378232,1.18930053711,0.0129188941792,-2.39141082764,-0.0478548705578,-2.17287826538,-0.0655681192875,20.6937141418,92.0590057373,49.97215271,33.1392478943,101
1.63802427912927E+018,57,1.63802427912927E+018,base_footprint,0,1.63802427912928E+018,map,7.02508314934,-66.9730301326,0,0,0,0.699057746008,0.715065219226,0,67.6123733521,27.389705658,49.5428123474,90.8980102539,52.1834564209,52.1834564209,67.6123733521,67.6123733521,33.7914810181,2.82899475098,0,0.00229128473438,0.851350307465,0.0317811667919,0.0340724512935,-6.61424064636,-0.318367868662,1.10232543945,0.0119817545637,-2.11562347412,-0.0422551445663,-0.754592895508,-0.0228409189731,20.7754650116,92.0003356934,50.0678329468,33.0368881226,102
1.63802427922918E+018,58,1.63802427922918E+018,base_footprint,0,1.63802427922918E+018,map,7.02625512184,-66.9083449209,0,0,0,0.699564502284,0.714569455788,0,67.3113098145,30.6885547638,48.2120323181,90.1454238892,51.9759635925,51.9759635925,67.3113098145,67.3113098145,34.2603111267,2.82302260399,0,0.00205496000126,0.854849517345,0.0318048037589,0.0338597632945,-9.7800693512,-0.467756003141,1.58985900879,0.0173309426755,-1.86031723022,-0.037120487541,-1.68587875366,-0.0517546609044,20.9084854126,91.7352828979,50.1156463623,32.574432373,100
1.63802427932913E+018,59,1.63802427932913E+018,base_footprint,0,1.63802427932913E+018,map,7.02942057474,-66.841199676,0,0,0,0.699835179181,0.714304362286,0,67.4939956665,29.7765617371,48.2120323181,89.6503295898,51.8713912964,51.8713912964,67.4939956665,67.4939956665,28.0603237152,2.7446835041,0,0.00192306155805,0.850185990334,0.0312402192503,0.0331632830203,-8.37414741516,-0.391271144152,2.04351043701,0.0222862344235,-1.70611953735,-0.0340099744499,3.92408561707,0.122687451541,21.4024143219,91.6938400269,50.165271759,31.9844093323,100
1.63802427942917E+018,60,1.63802427942917E+018,base_footprint,0,1.63802427942917E+018,map,7.02942057474,-66.841199676,0,0,0,0.699835179181,0.714304362286,0,67.2028808594,27.8074874878,48.2120323181,89.6503295898,51.6372833252,51.6372833252,67.2028808594,67.2028808594,30.7720375061,2.88678026199,0,0.00127994955983,0.850377142429,0.031901743263,0.0331816896796,-6.40507316589,-0.299268722534,2.04351043701,0.0222862344235,-1.47201156616,-0.0293432399631,1.21237182617,0.0379050858319,21.4024143219,91.6938400269,50.165271759,31.9844093323,100
1.6380242795291E+018,61,1.6380242795291E+018,base_footprint,0,1.6380242795291E+018,map,7.03205459419,-66.7059217746,0,0,0,0.700019220181,0.714124002802,0,66.8959884644,26.9162216187,48.3479652405,90.2544555664,51.3788566589,51.3788566589,66.8959884644,66.8959884644,35.6798973083,2.80187535286,0,0.00122558453586,0.845012426376,0.0308799501508,0.0321055352688,-5.20760726929,-0.239886671305,1.34314727783,0.0146635640413,-1.23912811279,-0.0247134994715,-4.32258415222,-0.137849316001,21.7086143494,91.5976028442,50.1397285461,31.3573131561,104
1.63802427962901E+018,62,1.63802427962901E+018,base_footprint,0,1.63802427962901E+018,map,7.03284967277,-66.6983758329,0,0,0,0.699250821105,0.714876415322,0,66.9339447021,29.7765617371,48.3479652405,90.8313064575,51.1564750671,51.1564750671,66.9339447021,66.9339447021,34.6716766357,2.73863005638,0,0.0015132992994,0.846970021725,0.027741337195,0.029254635796,-8.0679473877,-0.371647268534,0.766296386719,0.00836590025574,-1.016746521,-0.0202782619745,-3.31436347961,-0.10569666326,21.7086143494,91.5976028442,50.1397285461,31.3573131561,104
1.63802427972921E+018,63,1.63802427972921E+018,base_footprint,0,1.63802427972921E+018,map,7.03550309437,-66.6251880902,0,0,0,0.698715303377,0.715399835635,0,67.0379562378,30.5233898163,49.8375167847,90.5529251099,50.8439788818,50.8439788818,67.0379562378,67.0379562378,28.422334671,2.80637788773,0,0.0017557926476,0.845666587353,0.0274168290198,0.0291726216674,-9.12159538269,-0.42620703578,0.97038269043,0.0106025747955,-0.914386749268,-0.0183135233819,2.91990470886,0.093161970377,21.4017944336,91.5233078003,49.9295921326,31.3422393799,108
1.63802427982912E+018,64,1.63802427982912E+018,base_footprint,0,1.63802427982912E+018,map,7.03850227798,-66.5493452223,0,0,0,0.6987781155,0.715338483026,0,66.3431396484,29.7765617371,53.2821846008,91.6002731323,50.7084159851,50.7084159851,66.3431396484,66.3431396484,43.2353096008,2.69174790382,0,0.00123968499247,0.847253084183,0.029269579798,0.0305092651397,-8.50782012939,-0.400015205145,0.16771697998,0.0018276196206,-0.922260284424,-0.0185244325548,-12.0879096985,-0.388087272644,21.2687416077,91.7679901123,49.7861557007,31.1473999023,108
1.63802427993054E+018,65,1.63802427993054E+018,base_footprint,0,1.63802427993054E+018,map,7.04004998881,-66.4673535689,0,0,0,0.700499630953,0.713652763629,0,66.2947921753,30.3167419434,55.3758850098,91.9060821533,50.5029602051,50.5029602051,66.2947921753,66.2947921753,42.9875946045,2.81507778168,0,0.000833470898215,0.833836376667,0.0285573285073,0.0293908007443,-9.22626304626,-0.437461048365,-0.160011291504,-0.00174406694714,-0.687721252441,-0.0138054387644,-12.1579227448,-0.394357830286,21.0904788971,91.7460708618,49.8152389526,30.8296718597,105
1.63802428002916E+018,66,1.63802428002916E+018,base_footprint,0,1.63802428002916E+018,map,7.04014135511,-66.4065418987,0,0,0,0.701140380901,0.713023257875,0,66.2572937012,29.7765617371,57.3848075867,92.1532669067,50.3859977722,50.3859977722,66.2572937012,66.2572937012,43.2891921997,2.75325608253,0,0.00209437450394,0.836625576019,0.0283460915089,0.0304404664785,-8.73203849792,-0.414931625128,-0.538482666016,-0.00587768293917,-0.534606933594,-0.01072401274,-12.5208873749,-0.406941086054,21.0445232391,91.6147842407,49.8513908386,30.7683048248,104
1.63802428012918E+018,67,1.63802428012918E+018,base_footprint,0,1.63802428012918E+018,map,7.04279419511,-66.2809685581,0,0,0,0.70126652158,0.71289919744,0,66.2894744873,25.1336898804,60.0067176819,92.4295196533,50.1208839417,50.1208839417,66.2894744873,66.2894744873,40.8413162231,2.81793427467,0,0.00205870438367,0.846067488194,0.028768947348,0.0308276508003,-4.11479568481,-0.195766508579,-1.08327484131,-0.0118589969352,-0.254272460938,-0.00509905209765,-9.99317550659,-0.323947429657,21.0188941956,91.346244812,49.8666114807,30.8481407166,97
1.63802428022918E+018,68,1.63802428022918E+018,base_footprint,0,1.63802428022918E+018,map,7.04457482275,-66.2093623256,0,0,0,0.701889208965,0.712286135158,0,66.322845459,30.3167419434,63.7215957642,92.6299972534,50.1003341675,50.1003341675,66.322845459,66.322845459,40.7403373718,2.78895878792,0,0.0025624607224,0.854782223701,0.0289517547935,0.0315142162144,-9.22002029419,-0.437035679817,-1.35488891602,-0.014844013378,-0.236843109131,-0.00474982988089,-10.178352356,-0.33303964138,21.0967216492,91.2751083374,49.8634910583,30.5619850159,100
1.6380242803291E+018,69,1.6380242803291E+018,base_footprint,0,1.6380242803291E+018,map,7.04789502953,-66.1287423744,0,0,0,0.702160029223,0.712019166429,0,66.3635864258,24.8868770599,66.5690231323,93.5328979492,50.0495300293,50.0495300293,66.3635864258,66.3635864258,42.7087287903,2.81708097458,0,0.00221393071115,0.656099796295,0.02864215523,0.0308560859412,-4.02305412292,-0.192824393511,-2.44213867188,-0.0268099494278,-0.260360717773,-0.0052292640321,-12.3649024963,-0.407493174076,20.863822937,91.0907592773,49.7891693115,30.3438262939,105
1.63802428042911E+018,70,1.63802428042911E+018,base_footprint,0,1.63802428042911E+018,map,7.04826257583,-66.0574218215,0,0,0,0.702167070962,0.712012222126,0,65.9740829468,28.5067882538,68.4429092407,93.0380477905,49.883808136,49.883808136,65.9740829468,65.9740829468,46.148639679,2.85846590996,0,0.0018898966955,0.502551555634,0.0291305910796,0.03102048859,-7.13956260681,-0.334136158228,-2.00333404541,-0.0220062658191,0.244915008545,0.00488572195172,-15.4773368835,-0.504619479179,21.367225647,91.0347137451,50.1287231445,30.6713027954,104
1.63802428052915E+018,71,1.63802428052915E+018,base_footprint,0,1.63802428052915E+018,map,7.05115794417,-65.9054913459,0,0,0,0.703287774509,0.71090527233,0,65.7332458496,24.5621910095,70.3432006836,92.5055618286,49.6824493408,49.6824493408,65.7332458496,65.7332458496,46.3920021057,2.76962947845,0,0.0019309107447,0.237112656236,0.0275614243001,0.029492335394,-3.71091079712,-0.177970409393,-1.52181243896,-0.0167262014002,0.100593566895,0.00202063913457,-15.318315506,-0.492967426777,20.8512802124,90.9837493896,49.7830429077,31.0736865997,105
1.63802428062901E+018,72,1.63802428062901E+018,base_footprint,0,1.63802428062901E+018,map,7.05244029379,-65.8263623294,0,0,0,0.703783719038,0.710414299418,0,65.9384841919,25.4602603912,74.6304168701,93.0014877319,49.4653511047,49.4653511047,65.9384841919,65.9384841919,42.1384849548,2.92080283165,0,0.00237282388844,0.149609357119,0.0264182370156,0.0287910606712,-4.66289520264,-0.224206060171,-2.19239044189,-0.0241428501904,0.38175201416,0.00765845924616,-10.9375591278,-0.350552380085,20.7973651886,90.80909729,49.8471031189,31.200925827,100
1.63802428072923E+018,73,1.63802428072923E+018,base_footprint,0,1.63802428072923E+018,map,7.0544980335,-65.7369279166,0,0,0,0.704060298672,0.710140194493,0,65.5143203735,25.2165985107,77.8646850586,92.567779541,49.3312187195,49.3312187195,65.5143203735,65.5143203735,46.7634239197,2.89137482643,0,0.00183993473183,0.0362340956926,0.0237019062042,0.0255418401212,-5.08300018311,-0.252463579178,-1.77320861816,-0.0195298977196,0.335037231445,0.0067457719706,-15.0856285095,-0.476220905781,20.1335983276,90.7945709229,49.6662559509,31.6777954102,97
1.63802428082912E+018,74,1.63802428082912E+018,base_footprint,0,1.63802428082912E+018,map,7.05669953987,-65.6566913193,0,0,0,0.704046250065,0.710154122546,0,65.7624435425,25.2165985107,78.8689880371,92.8587722778,49.3407325745,49.3407325745,65.7624435425,65.7624435425,43.4475097656,2.93698239326,0,0.00182161969133,0.0835711061954,0.0223317071795,0.0241533275694,-4.52962303162,-0.218960136175,-2.19078826904,-0.0241627544165,0.687984466553,0.0137517908588,-11.6195163727,-0.365072220564,20.6869754791,90.6679840088,50.028717041,31.8279933929,96
1.63802428093005E+018,75,1.63802428093005E+018,base_footprint,0,1.63802428093005E+018,map,7.05775710127,-65.4833718567,0,0,0,0.705025889976,0.709181566641,0,65.6861190796,21.2669677734,78.8725967407,91.8860015869,49.1958885193,49.1958885193,65.6861190796,65.6861190796,39.7550735474,3.01056861877,0,0.00193144509103,0.169798865914,0.017548436299,0.0194798801094,-1.21462059021,-0.0605724900961,-1.29552459717,-0.0143008911982,0.562522888184,0.0113050816581,-7.50277709961,-0.232627689838,20.0523471832,90.5904769897,49.7584114075,32.2522964478,95
1.63802428102905E+018,76,1.63802428102905E+018,base_footprint,0,1.63802428102905E+018,map,7.05869551569,-65.3756890278,0,0,0,0.705313862613,0.708895165173,0,65.4480667114,24.9652614594,78.3234100342,91.1138916016,49.0054359436,49.0054359436,65.4480667114,65.4480667114,39.2034606934,3.03656387329,0,0.00243705697358,0.193066388369,0.0159638803452,0.0184009373188,-4.54758071899,-0.222727581859,-0.713020324707,-0.00788731686771,0.925792694092,0.0185413565487,-7.02865982056,-0.218452319503,20.4176807404,90.4008712769,49.9312286377,32.1748008728,93
1.63802428112912E+018,77,1.63802428112912E+018,base_footprint,0,1.63802428112912E+018,map,7.05718388158,-65.2831910034,0,0,0,0.706502535224,0.707710511242,0,65.4841537476,22.1861972809,78.3234100342,90.4126434326,48.9088287354,48.9088287354,65.4841537476,65.4841537476,34.9861602783,2.96944046021,0,0.00256024557166,0.219668060541,0.0128455143422,0.0154057601467,-2.39835166931,-0.121203273535,0.00356292724609,3.94058479287E-05,0.773628234863,0.0155714564025,-2.19083023071,-0.0668031126261,19.7878456116,90.4162063599,49.6824569702,32.7953300476,101
1.63802428122931E+018,78,1.63802428122931E+018,base_footprint,0,1.63802428122931E+018,map,7.05995300357,-65.0932613985,0,0,0,0.703915635422,0.71028358999,0,65.3306045532,20.3334884644,74.8468780518,89.882522583,48.6888122559,48.6888122559,65.3306045532,65.3306045532,33.465385437,3.00604987144,0,0.00288642756641,0.220044255257,0.0119616184384,0.0148480460048,-1.06601142883,-0.0553269870579,0.350410461426,0.00388339883648,0.839805603027,0.0169559661299,0.499229431152,0.0146985156462,19.2674770355,90.2329330444,49.5286178589,33.9646148682,99
1.63802428133058E+018,79,1.63802428133058E+018,base_footprint,0,1.63802428133058E+018,map,7.06262650951,-64.9956068304,0,0,0,0.701736146815,0.712436930719,0,65.2316513062,18.832649231,69.2576141357,89.8016662598,48.4005508423,48.4005508423,65.2316513062,65.2316513062,31.8422546387,2.96753692627,0,0.00263833184727,0.214508295059,0.0139937438071,0.0166320744902,-0.178951263428,-0.00959333963692,0.44994354248,0.0049854349345,1.07906723022,0.0218083169311,2.61752700806,0.0759589001536,18.6536979675,90.2516098022,49.4796180725,34.4597816467,97
1.63802428142924E+018,80,1.63802428142924E+018,base_footprint,0,1.63802428142924E+018,map,7.06620249668,-64.8860796361,0,0,0,0.701686606342,0.712485723703,0,64.9007339478,17.9206562042,59.4852371216,89.9897842407,48.181427002,48.181427002,64.9007339478,64.9007339478,36.1093826294,3.00571250916,0,0.00255954172462,0.212182924151,0.0140538997948,0.0166134405881,0.805541992188,0.043016847223,0.401275634766,0.00443932879716,1.3796043396,0.0278364736587,-1.61914825439,-0.0469451211393,18.7261981964,90.3910598755,49.5610313416,34.490234375,93
1.63802428152911E+018,81,1.63802428152911E+018,base_footprint,0,1.63802428152911E+018,map,7.06718553884,-64.7062428752,0,0,0,0.701618432214,0.712552858094,0,64.7385559082,19.7446422577,54.9802398682,89.5251235962,48.0532035828,48.0532035828,64.7385559082,64.7385559082,35.9710159302,2.99644947052,0,0.00286285812035,0.221438258886,0.0230096857995,0.0258725434542,-0.880695343018,-0.046686694026,0.625442504883,0.00693775480613,1.4167137146,0.0286378823221,-1.10284805298,-0.0316290780902,18.8639469147,90.1505661011,49.4699172974,34.8681678772,94
1.63802428162912E+018,82,1.63802428162912E+018,base_footprint,0,1.63802428162912E+018,map,7.07135840997,-64.5130863902,0,0,0,0.701727606421,0.712445342737,0,64.3704071045,20.0367641449,54.1404647827,87.9114456177,47.9447593689,47.9447593689,64.3704071045,64.3704071045,35.6172218323,2.84518289566,0,0.00287867011502,0.222969219089,0.0243640132248,0.0272426847368,-1.72421073914,-0.0941545814276,1.72127532959,0.0192036498338,1.26044845581,0.0256161596626,-0.147529602051,-0.00415931455791,18.3125534058,89.6327209473,49.2052078247,35.4696922302,97
1.63802428172899E+018,83,1.63802428172899E+018,base_footprint,0,1.63802428172899E+018,map,7.07258838608,-64.4655774544,0,0,0,0.701961484712,0.71221490716,0,64.2365264893,18.832649231,53.9556427002,87.5794906616,47.8208274841,47.8208274841,64.2365264893,64.2365264893,35.4935874939,3.01053094864,0,0.00281485449523,0.21119607985,0.0256995074451,0.028514361009,-0.706644058228,-0.0389850959182,2.11145019531,0.0235413983464,1.28869628906,0.0262412708253,0.218597412109,0.00612108781934,18.1260051727,89.6909408569,49.1095237732,35.712184906,98
1.63802428182925E+018,84,1.63802428182925E+018,base_footprint,0,1.63802428182925E+018,map,7.07275881867,-64.2794538275,0,0,0,0.702940381895,0.711248774692,0,64.2287597656,19.7446422577,55.2379798889,88.6963500977,47.7674255371,47.7674255371,64.2287597656,64.2287597656,39.0773429871,2.95746135712,0,0.00359275192022,0.215189784765,0.0259239505976,0.0295167025179,-1.83889579773,-0.102698639035,0.939086914062,0.0104767372832,1.23400878906,0.0251831151545,-2.67171478271,-0.073387414217,17.90574646,89.6354370117,49.0014343262,36.4056282043,94
1.63802428192933E+018,85,1.63802428192933E+018,base_footprint,0,1.63802428192933E+018,map,7.07493600027,-64.1724504877,0,0,0,0.703627797375,0.710568731905,0,64.5142745972,20.9558830261,55.9418029785,89.5835800171,47.7195892334,47.7195892334,64.5142745972,64.5142745972,36.6155509949,2.99103689194,0,0.00432543409988,0.218487471342,0.0248625874519,0.0291880220175,-2.80885887146,-0.154783442616,0.0139236450195,0.000155402158271,1.53144454956,0.0310946684331,-0.557361602783,-0.0154572818428,18.1470241547,89.5975036621,49.251033783,36.0581893921,93
1.63802428202916E+018,86,1.63802428202916E+018,base_footprint,0,1.63802428202916E+018,map,7.07721978937,-63.9807835106,0,0,0,0.703503145989,0.710692144029,0,64.4772644043,18.832649231,57.1322441101,88.6118164062,47.7321281433,47.7321281433,64.4772644043,64.4772644043,33.9187431335,2.92116236687,0,0.00336641469039,0.218041792512,0.0253397990018,0.028706215322,-1.1319694519,-0.0639506205916,0.582977294922,0.00653600133955,1.31845474243,0.0268794912845,1.96687316895,0.0548095144331,17.7006797791,89.1947937012,49.0505828857,35.8856163025,89
1.63802428212955E+018,87,1.63802428212955E+018,base_footprint,0,1.63802428212955E+018,map,7.07877355639,-63.772995143,0,0,0,0.702930625569,0.711258416918,0,64.4100646973,13.165266037,59.7918128967,88.5962371826,47.5232009888,47.5232009888,64.4100646973,64.4100646973,32.8158607483,3.01573753357,0,0.00339475879446,0.219764441252,0.0252875704318,0.0286823287606,3.7315158844,0.220841810107,0.50463104248,0.00566359283403,1.16606903076,0.0239491984248,3.22507858276,0.0894837528467,16.8967819214,89.1008682251,48.6892700195,36.0409393311,98
1.63802428222917E+018,88,1.63802428222917E+018,base_footprint,0,1.63802428222917E+018,map,7.07968136106,-63.6038996937,0,0,0,0.702844853058,0.711343174937,0,63.8130264282,19.4071331024,61.54895401,86.8207550049,47.3504066467,47.3504066467,63.8130264282,63.8130264282,35.3046340942,3.03808784485,0,0.00439872220159,0.215580791235,0.0213427320123,0.0257414542139,-2.17511177063,-0.126224994659,2.43440246582,0.0272746421397,1.33355712891,0.0273921228945,0.742088317871,0.0205868463963,17.2320213318,89.2551574707,48.6839637756,36.0467224121,100
1.63802428232959E+018,89,1.63802428232959E+018,base_footprint,0,1.63802428232959E+018,map,7.08268206559,-63.4084541083,0,0,0,0.702514685402,0.711669246767,0,64.1754379272,19.4071331024,61.54895401,87.7720489502,47.2980422974,47.2980422974,64.1754379272,64.1754379272,31.640417099,3.07296419144,0,0.00388304702938,0.211733952165,0.020380275324,0.0242633223534,-1.71103286743,-0.0966898277402,1.24474334717,0.0139832422137,1.64967727661,0.0337028428912,4.05454063416,0.113588608801,17.696100235,89.0167922974,48.947719574,35.6949577332,100
1.63802428242937E+018,90,1.63802428242937E+018,base_footprint,0,1.63802428242937E+018,map,7.08589197407,-63.2331457697,0,0,0,0.701816523025,0.712357752825,0,64.0073242188,25.5514698029,62.6927337646,89.0645523071,47.4299583435,47.4299583435,64.0073242188,64.0073242188,40.7440567017,3.03358387947,0,0.00323482370004,0.216079980135,0.0241203941405,0.0273552183062,-8.22403144836,-0.474624782801,-0.0965881347656,-0.00108565075789,1.30476379395,0.0267727766186,-5.04108428955,-0.141195088625,17.3274383545,88.9679641724,48.7347221375,35.7029724121,100
1.63802428252942E+018,91,1.63802428252942E+018,base_footprint,0,1.63802428252942E+018,map,7.08999728476,-63.0283156012,0,0,0,0.701145576268,0.713018149053,0,64.1323852539,19.0588226318,64.0112915039,88.0645065308,47.5117607117,47.5117607117,64.1323852539,64.1323852539,35.7763595581,2.99226593971,0,0.00253921141848,0.225163981318,0.0255309548229,0.028070166707,-0.617504119873,-0.0334848128259,0.896881103516,0.0100816898048,1.22068023682,0.0250486172736,-0.545303344727,-0.0154779162258,18.441318512,88.9613876343,48.7324409485,35.2310562134,100
1.63802428262923E+018,92,1.63802428262923E+018,base_footprint,0,1.63802428262923E+018,map,7.09341275868,-62.8517300093,0,0,0,0.701146869219,0.71301687763,0,64.2220230103,21.5686283112,67.03099823,88.3751983643,47.6133003235,47.6133003235,64.2220230103,64.2220230103,36.3779945374,2.94344854355,0,0.00239773234352,0.215863704681,0.0254843458533,0.0278820786625,-2.09513664246,-0.107589162886,0.76407623291,0.00857171230018,1.26008605957,0.0257826633751,-0.870048522949,-0.0245029237121,19.4734916687,89.1392745972,48.8733863831,35.5079460144,106
1.63802428272921E+018,93,1.63802428272921E+018,base_footprint,0,1.63802428272921E+018,map,7.09966579225,-62.6904085097,0,0,0,0.699846741792,0.714293033707,0,63.7524261475,27.1708679199,68.3477554321,87.4361953735,47.5606994629,47.5606994629,63.7524261475,63.7524261475,40.882144928,3.04311728477,0,0.00218370021321,0.218302756548,0.0267163943499,0.0289000943303,-7.59345436096,-0.387868106365,1.66893005371,0.0187298990786,1.253074646,0.0256705135107,-5.57417678833,-0.157873049378,19.577413559,89.1051254272,48.8137741089,35.3079681396,108
1.63802428282913E+018,94,1.63802428282913E+018,base_footprint,0,1.63802428282913E+018,map,7.10306258568,-62.4685977474,0,0,0,0.701415706044,0.712752416562,0,64.0001907349,22.4806194305,67.8765792847,87.8117904663,47.4852485657,47.4852485657,64.0001907349,64.0001907349,36.9596786499,3.00866651535,0,0.00317279458977,0.222417786717,0.0275687463582,0.0307415407151,-2.61349868774,-0.131548941135,1.44158172607,0.0161515660584,1.01150894165,0.0208572484553,-2.47339248657,-0.071721047163,19.8671207428,89.2533721924,48.4967575073,34.4862861633,107
1.63802428292908E+018,95,1.63802428292908E+018,base_footprint,0,1.63802428292908E+018,map,7.10613533733,-62.3001521669,0,0,0,0.701360300816,0.712806936302,0,64.3297195435,25.5514698029,68.0558929443,89.6539535522,47.5414123535,47.5414123535,64.3297195435,64.3297195435,38.2665519714,3.01562476158,0,0.00317504978739,0.221528723836,0.027573633939,0.0307486839592,-5.04104232788,-0.24577948451,-0.415863037109,-0.00466015189886,0.937850952148,0.0193454045802,-4.28275680542,-0.126023501158,20.510427475,89.2380905151,48.4792633057,33.983795166,108
1.63802428302967E+018,96,1.63802428302967E+018,base_footprint,0,1.63802428302967E+018,map,7.11009180284,-62.0895881776,0,0,0,0.700478031549,0.713673964298,0,63.817817688,22.1861972809,66.0359954834,87.859588623,47.7108917236,47.7108917236,63.817817688,63.817817688,42.8514060974,2.90463423729,0,0.00199094694108,0.218893647194,0.0306607484818,0.0326516963542,-1.24220275879,-0.0593106895685,1.52306365967,0.0170398131013,0.662551879883,0.013696603477,-9.16962051392,-0.272242695093,20.9439945221,89.3826522827,48.3734436035,33.6817855835,108
1.63802428312921E+018,97,1.63802428312921E+018,base_footprint,0,1.63802428312921E+018,map,7.11349362245,-61.9040680907,0,0,0,0.700221938133,0.71392523233,0,64.0559005737,26.2371616364,63.1088142395,88.6278762817,47.9596443176,47.9596443176,64.0559005737,64.0559005737,44.0182304382,2.91239190102,0,0.00192127155606,0.214815869927,0.0322686694562,0.0341899432242,-4.86316680908,-0.227527275681,0.940559387207,0.0105010140687,0.236259460449,0.00490206526592,-10.723274231,-0.322069019079,21.3739948273,89.5684356689,48.1959037781,33.2949562073,107
1.63802428322959E+018,98,1.63802428322959E+018,base_footprint,0,1.63802428322959E+018,map,7.11766280043,-61.6540091347,0,0,0,0.699921324427,0.714219951844,0,64.0325622559,25.3034553528,58.0240745544,88.3230133057,47.9271736145,47.9271736145,64.0325622559,64.0325622559,42.990234375,2.91306614876,0,0.00257403217256,0.208343833685,0.0338473655283,0.0364213995636,-2.7887134552,-0.123861663043,1.41050720215,0.0157188437879,0.320026397705,0.0066330563277,-10.8655776978,-0.33823171258,22.5147418976,89.7335205078,48.2472000122,32.1246566772,101
1.63802428332937E+018,99,1.63802428332937E+018,base_footprint,0,1.63802428332937E+018,map,7.12430032223,-61.3940397827,0,0,0,0.700156011036,0.713989888031,0,64.7197723389,31.4497451782,52.0876274109,90.0407180786,48.0864257812,48.0864257812,64.7197723389,64.7197723389,38.5240516663,2.9448299408,0,0.00354532361962,0.208516418934,0.037958342582,0.0415036678314,-7.62934494019,-0.320286184549,-0.674781799316,-0.00755077181384,0.321796417236,0.00664755702019,-6.10040664673,-0.188146844506,23.820400238,89.3659362793,48.4082221985,32.4236450195,108
1.63802428342929E+018,100,1.63802428342929E+018,base_footprint,0,1.63802428342929E+018,map,7.13323729893,-61.2406360384,0,0,0,0.701831247386,0.712343246049,0,64.2928543091,32.3760986328,48.5621795654,87.3768768311,48.3321113586,48.3321113586,64.2928543091,64.2928543091,39.2722244263,2.78587579727,0,0.00301870168187,0.209523975849,0.0407541133463,0.0437728129327,-8.23481941223,-0.341109484434,2.00414276123,0.0224224645644,0.100803375244,0.00208129896782,-7.17338180542,-0.223477900028,24.1412792206,89.3810195923,48.4329147339,32.0988426208,111
1.6380242835293E+018,101,1.6380242835293E+018,base_footprint,0,1.6380242835293E+018,map,7.13464560295,-61.0603455908,0,0,0,0.703398214075,0.71079599917,0,64.6490631104,32.9044113159,48.4451179504,89.4164733887,48.6278076172,48.6278076172,64.6490631104,64.6490631104,43.3964805603,2.77639126778,0,0.00314595922828,0.218560278416,0.0419264510274,0.0450724102557,-8.54658699036,-0.350876450539,-0.320999145508,-0.00360286701471,-0.286293029785,-0.0059223016724,-11.2193565369,-0.348674923182,24.3578243256,89.0954742432,48.3415145874,32.1771240234,115
1.63802428362948E+018,102,1.63802428362948E+018,base_footprint,0,1.63802428362948E+018,map,7.13785591743,-60.6970755587,0,0,0,0.705325505313,0.708883581101,0,65.3172912598,31.985294342,48.2130737305,88.5465316772,48.8619003296,48.8619003296,65.3172912598,65.3172912598,30.764749527,2.80918431282,0,0.00291247759014,0.2187127918,0.0412815362215,0.0441940128803,-7.162733078,-0.288557380438,0.256828308105,0.00289210118353,-0.344974517822,-0.00711039500311,0.756517410278,0.0240002218634,24.822561264,88.8033599854,48.5169258118,31.5212669373,126
1.63802428372937E+018,103,1.63802428372937E+018,base_footprint,0,1.63802428372937E+018,map,7.13896830851,-60.5717746932,0,0,0,0.705814798951,0.708396407093,0,65.2232437134,30.9056949615,48.0496864319,89.9596862793,49.1082496643,49.1082496643,65.2232437134,65.2232437134,40.2055625916,2.86433148384,0,0.00279221846722,0.224970549345,0.0415422841907,0.0443345047534,-6.24704360962,-0.25334084034,-1.19424438477,-0.0134539334103,-0.589179992676,-0.0121432663873,-8.84362220764,-0.28198581934,24.6586513519,88.7654418945,48.5190696716,31.3619403839,125
1.63802428382956E+018,104,1.63802428382956E+018,base_footprint,0,1.63802428382956E+018,map,7.13705474988,-60.2046417579,0,0,0,0.706184266745,0.708028093653,0,65.5121688843,27.0405845642,47.9567451477,89.5374603271,49.1547889709,49.1547889709,65.5121688843,65.5121688843,33.9875793457,2.84654760361,0,0.00354378647171,0.217970758677,0.0368375554681,0.0403813421726,-3.06056785583,-0.127629935741,-1.02771759033,-0.0116113498807,-0.720741271973,-0.0148808807135,-3.49007797241,-0.114438161254,23.9800167084,88.5097427368,48.434047699,30.4975013733,119
1.63802428393058E+018,105,1.63802428393058E+018,base_footprint,0,1.63802428393058E+018,map,7.1389515493,-59.9820710159,0,0,0,0.704448181176,0.70975542269,0,65.9451599121,34.6405220032,47.8613510132,90.7473983765,49.2267189026,49.2267189026,65.9451599121,65.9451599121,31.32629776,2.75575137138,0,0.00368852773681,0.221362173557,0.0375341773033,0.0412227064371,-10.8129005432,-0.453796893358,-2.18862915039,-0.0247138608247,-0.855926513672,-0.0176951102912,-0.473218917847,-0.0153378183022,23.82762146,88.5587692261,48.3707923889,30.8530788422,111
1.63802428402932E+018,106,1.63802428402932E+018,base_footprint,0,1.63802428402932E+018,map,7.1403557375,-59.7926350152,0,0,0,0.704320570859,0.709882056024,0,66.3202056885,36.2370910645,47.8613510132,91.506439209,49.4987030029,49.4987030029,66.3202056885,66.3202056885,30.245475769,2.7498793602,0,0.00409112730995,0.202379390597,0.038316052407,0.042407181114,-12.0317974091,-0.497072964907,-3.04329681396,-0.0344018638134,-1.08242034912,-0.0223565362394,0.541759490967,0.0175968874246,24.2052936554,88.463142395,48.4162826538,30.78723526,111
1.63802428412929E+018,107,1.63802428412929E+018,base_footprint,0,1.63802428412929E+018,map,7.14222657967,-59.5624758843,0,0,0,0.703274878594,0.71091802983,0,66.556678772,34.3365249634,47.8301239014,92.1613082886,49.9131736755,49.9131736755,66.556678772,66.556678772,32.8227272034,2.86694025993,0,0.00464519206434,0.236637860537,0.0359202846885,0.0405654795468,-10.1642627716,-0.420492827892,-3.69427490234,-0.0417587757111,-1.55428695679,-0.0321406684816,-1.84191131592,-0.0594532862306,24.1722621918,88.4670333862,48.3588867188,30.9808158875,106
