%time,field.header.seq,field.header.stamp,field.header.frame_id,field.pose.header.seq,field.pose.header.stamp,field.pose.header.frame_id,field.pose.pose.position.x,field.pose.pose.position.y,field.pose.pose.position.z,field.pose.pose.orientation.x,field.pose.pose.orientation.y,field.pose.pose.orientation.z,field.pose.pose.orientation.w,field.label,field.main_output,field.scan_score,field.pose_score,field.cov_score,field.lhood_map_score,field.lhood_robot_score,field.lhood_map_score_all,field.lhood_robot_score_all,field.point_angle_diff,field.average_orientation,field.map_average_orientation,field.sensor_div,field.odom_div_x,field.odom_div_w,field.imu_div_w,field.kdtree_div,field.kdtree_div_p,field.cov_div,field.cov_div_p,field.likelihood_div,field.likelihood_div_p,field.normal_diff_div,field.normal_diff_div_p,field.kdtree_average,field.cov_average,field.likelihood_average,field.normal_diff_average,field.map_update_count
1.63084627198928E+018,0,1.63084627198928E+018,base_footprint,0,1.63084627198928E+018,map,-6.9749961856,-0.716726329417,0,0,0,-0.998289415617,0.058465739255,0,60.9127616882,8.78090381622,100,97.2917251587,40.1449279785,40.1449279785,60.9127616882,60.9127616882,47.3857307434,1.63185918331,0,0.00182053563185,0.427896738052,0.045935858041,0.0441153198481,0.479451179504,0.0517745986581,-1.21305084229,-0.01262559928,6.27002334595,0.135086283088,-10.6987800598,-0.291623592377,9.26035499573,96.0786743164,46.4149513245,36.6869506836,257
1.63084627208815E+018,1,1.63084627208815E+018,base_footprint,0,1.63084627208815E+018,map,-6.9802529623,-0.715936910295,0,0,0,-0.998181135361,0.0602861593454,0,62.0825767517,16.8509502411,48.9098930359,97.4017486572,40.365020752,40.365020752,62.0825767517,62.0825767517,29.102098465,0.0596413500607,0,0.00356361782178,0.441113770008,0.0529942251742,0.0494306087494,-7.59059524536,-0.819687306881,-1.32307434082,-0.0137707386166,6.04993057251,0.130344435573,7.58485221863,0.206745237112,9.26035499573,96.0786743164,46.4149513245,36.6869506836,257
1.63084627218854E+018,2,1.63084627218854E+018,base_footprint,0,1.63084627218854E+018,map,-7.03386391029,-0.72387809951,0,0,0,-0.996153428125,0.0876261812179,0,62.5620307922,17.3776378632,48.9266471863,97.3861694336,40.7567634583,40.7567634583,62.5620307922,62.5620307922,24.6467380524,0.0396054051816,0,0.00427141040564,0.440901070833,0.056629806757,0.052358392626,-7.82962703705,-0.820027053356,-1.24214935303,-0.0129196736962,5.75596237183,0.123750269413,11.8931865692,0.32548469305,9.54801082611,96.1440200806,46.5127258301,36.5399246216,263
1.63084627228825E+018,3,1.63084627228825E+018,base_footprint,0,1.63084627228825E+018,map,-7.08716053436,-0.731896223261,0,0,0,-0.992627625428,0.121203948931,0,62.5048179626,20.0367641449,48.9448699951,97.1927566528,41.0678062439,41.0678062439,62.5048179626,62.5048179626,28.3395290375,-0.0550368092954,0,0.0194700658321,0.490813314915,0.0719519406557,0.0524818748236,-10.6215820312,-1.12813341618,-1.03077697754,-0.0107191735879,5.3497505188,0.115252740681,8.56654930115,0.232117578387,9.41518211365,96.1619796753,46.4175567627,36.9060783386,258
1.63084627238824E+018,4,1.63084627238824E+018,base_footprint,0,1.63084627238824E+018,map,-7.14570171558,-0.751018568998,0,0,0,-0.984527659076,0.175229245603,0,61.9325675964,13.3606929779,48.5766639709,96.729675293,41.3695526123,41.3695526123,61.9325675964,61.9325675964,40.2318000793,0.225885555148,0,0.0164690390229,0.531489729881,0.0683865249157,0.0519174821675,-3.65154647827,-0.376093447208,-0.561515808105,-0.00583889521658,5.15082550049,0.11072191596,-3.37139129639,-0.0914637520909,9.70914649963,96.1681594849,46.5203781128,36.860408783,262
1.6308462724883E+018,5,1.6308462724883E+018,base_footprint,0,1.6308462724883E+018,map,-7.14926298313,-0.75196937508,0,0,0,-0.978181847738,0.207750506029,0,61.6618270874,10.3182258606,48.0458106995,96.91796875,41.6252212524,41.6252212524,61.6618270874,61.6618270874,48.5441818237,0.799999058247,0,0.0133948689327,0.556399643421,0.0693679973483,0.0559731274843,-0.609079360962,-0.0627325326204,-0.749809265137,-0.00779685564339,4.89515686035,0.105226077139,-11.6837730408,-0.316973507404,9.70914649963,96.1681594849,46.5203781128,36.860408783,262
1.630846272588E+018,6,1.630846272588E+018,base_footprint,0,1.630846272588E+018,map,-7.14602123305,-0.748071601659,0,0,0,-0.971141883527,0.238502499066,0,61.3523597717,5.68789482117,47.6664772034,97.3205108643,41.7759208679,41.7759208679,61.3523597717,61.3523597717,57.1912918091,1.02920091152,0,0.0151445101947,0.544068694115,0.0623050034046,0.0471604950726,4.02125167847,0.414171487093,-1.15235137939,-0.0119826709852,4.74445724487,0.101986646652,-20.3308830261,-0.551564216614,9.70914649963,96.1681594849,46.5203781128,36.860408783,262
1.63084627268838E+018,7,1.63084627268838E+018,base_footprint,0,1.63084627268838E+018,map,-7.14490622237,-0.747772059755,0,0,0,-0.952450413797,0.304693631796,0,62.4371452332,5.28414773941,47.357749939,97.7685012817,41.9195137024,41.9195137024,62.4371452332,62.4371452332,40.8287239075,0.463670343161,0,0.0139201870188,0.535242021084,0.0550170615315,0.0410968735814,4.42499876022,0.455755680799,-1.60034179688,-0.0166410766542,4.6008644104,0.098899975419,-3.96831512451,-0.107657924294,9.70914649963,96.1681594849,46.5203781128,36.860408783,262
1.63084627278948E+018,8,1.63084627278948E+018,base_footprint,0,1.63084627278948E+018,map,-7.14314113955,-0.747701481765,0,0,0,-0.951634493602,0.307232469942,0,61.8352813721,6.86274528503,47.0869407654,97.9033050537,41.8875656128,41.8875656128,61.8352813721,61.8352813721,51.8025741577,0.47973254323,0,0.0140735441819,0.53304463625,0.0488959290087,0.0348223857582,2.8464012146,0.293166995049,-1.73514556885,-0.0180428288877,4.6328125,0.0995867326856,-14.9421653748,-0.405371665955,9.70914649963,96.1681594849,46.5203781128,36.860408783,262
1.63084627288812E+018,9,1.63084627288812E+018,base_footprint,0,1.63084627288813E+018,map,-7.1429836855,-0.744815845781,0,0,0,-0.930169097351,0.367131380207,0,61.841545105,0.526064097881,46.8359832764,97.9864425659,41.6849861145,41.6849861145,61.841545105,61.841545105,49.8012275696,0.379556119442,0,0.0152170518413,0.529560863972,0.0428745262325,0.0276574734598,9.18308258057,0.945817708969,-1.81828308105,-0.0189073290676,4.83539199829,0.103941373527,-12.9408187866,-0.351076364517,9.70914649963,96.1681594849,46.5203781128,36.860408783,262
1.63084627298808E+018,10,1.63084627298808E+018,base_footprint,0,1.63084627298808E+018,map,-7.14224259359,-0.744282842577,0,0,0,-0.916684963186,0.399610658353,0,61.8580322266,1.02707755566,46.5156211853,97.8339233398,41.4561691284,41.4561691284,61.8580322266,61.8580322266,46.4841575623,-0.0875940769911,0,0.0141937509179,0.513661921024,0.0297973640263,0.0156036140397,8.68206882477,0.894215464592,-1.66576385498,-0.0173213649541,5.06420898438,0.108860015869,-9.6237487793,-0.261086314917,9.70914649963,96.1681594849,46.5203781128,36.860408783,262
1.63084627308803E+018,11,1.63084627308803E+018,base_footprint,0,1.63084627308803E+018,map,-7.13817193002,-0.750336943939,0,0,0,-0.890672997696,0.454644488776,0,62.228969574,2.60366439819,46.2973175049,98.1908035278,41.3630142212,41.3630142212,62.228969574,62.228969574,40.0859947205,0.0700737312436,0,0.00917170476168,0.509003937244,0.0191515088081,0.00997980404645,7.10548210144,0.731833875179,-2.02264404297,-0.0210323669016,5.1573638916,0.110862463713,-3.2255859375,-0.0875081419945,9.70914649963,96.1681594849,46.5203781128,36.860408783,262
1.63084627318812E+018,12,1.63084627318812E+018,base_footprint,0,1.63084627318812E+018,map,-7.13528606379,-0.749194579422,0,0,0,-0.870204313874,0.492691031089,0,61.7569389343,0,45.9271125793,98.3652267456,41.213218689,41.213218689,61.7569389343,61.7569389343,47.5926780701,-0.10927785188,0,0.00942558981478,0.504548728466,0.0116967987269,0.00227120891213,9.70914649963,1,-2.19706726074,-0.0228460989892,5.30715942383,0.114082463086,-10.7322692871,-0.291159808636,9.70914649963,96.1681594849,46.5203781128,36.860408783,262
1.63084627328836E+018,13,1.63084627328836E+018,base_footprint,0,1.63084627328836E+018,map,-7.13474004204,-0.751046736528,0,0,0,-0.834062467583,0.551670010214,0,62.1479988098,4.80466985703,45.6613960266,98.4700927734,41.1186141968,41.1186141968,62.1479988098,62.1479988098,39.9093894958,-0.169750154018,0,0.0108310151845,0.495279639959,0.0043586678803,0.0151896839961,4.61051225662,0.48968911171,-2.30811309814,-0.0240023452789,5.29894256592,0.114158153534,-3.00331115723,-0.0813771411777,9.41518211365,96.1619796753,46.4175567627,36.9060783386,258
1.63084627338838E+018,14,1.63084627338838E+018,base_footprint,0,1.63084627338838E+018,map,-7.13466601079,-0.749387608616,0,0,0,-0.831224124413,0.555937456009,0,61.9323425293,0.314324200153,45.4798278809,98.4681091309,41.11743927,41.11743927,61.9323425293,61.9323425293,43.7713737488,-0.0372433438897,0,0.00790900085121,0.479300558567,0.0212458241731,0.029154824093,9.10085773468,0.966615140438,-2.30612945557,-0.0239817183465,5.30011749268,0.114183463156,-6.86529541016,-0.186020717025,9.41518211365,96.1619796753,46.4175567627,36.9060783386,258
1.63084627348801E+018,15,1.63084627348801E+018,base_footprint,0,1.63084627348801E+018,map,-7.13319581899,-0.751449963482,0,0,0,-0.797976108921,0.602689082024,0,61.9267730713,2.57352948189,45.2517623901,98.3458862305,41.1611633301,41.1611633301,61.9267730713,61.9267730713,43.903842926,0.0211952663958,0,0.00553427822888,0.466917127371,0.0280562397093,0.0335905179381,6.84165287018,0.726661741734,-2.18390655518,-0.0227107070386,5.25639343262,0.113241493702,-6.9977645874,-0.189610078931,9.41518211365,96.1619796753,46.4175567627,36.9060783386,258
1.63084627358835E+018,16,1.63084627358835E+018,base_footprint,0,1.63084627358836E+018,map,-7.13555895846,-0.751244235505,0,0,0,-0.781411940077,0.624015528577,0,62.2458152771,9.00735282898,45.0781135559,98.1659622192,41.1317672729,41.1317672729,62.2458152771,62.2458152771,37.195854187,-0.019706023857,0,0.000843303452712,0.41347271204,0.0437447205186,0.0445880256593,0.701793670654,0.0722817033529,-1.99780273438,-0.0207740552723,5.38861083984,0.115833342075,-0.335445404053,-0.00910042505711,9.70914649963,96.1681594849,46.5203781128,36.860408783,262
1.6308462736882E+018,17,1.6308462736882E+018,base_footprint,0,1.6308462736882E+018,map,-7.13264081186,-0.753494054605,0,0,0,-0.760232552925,0.649651033613,1,61.8242683411,1.35746610165,45.0636177063,97.9963912964,41.0262832642,41.0262832642,61.8242683411,61.8242683411,43.0340690613,0.161771982908,0,0.0011305330554,0.339034438133,0.055642709136,0.0567732453346,8.05771636963,0.855821609497,-1.83441162109,-0.0190762672573,5.39127349854,0.116147294641,-6.12799072266,-0.166042864323,9.41518211365,96.1619796753,46.4175567627,36.9060783386,258
1.63084627458837E+018,18,1.63084627458837E+018,base_footprint,0,1.63084627458837E+018,map,-7.09651785005,-0.718920137771,0,0,0,-0.731911365721,0.681399847907,1,61.956993103,2.41678071022,45.0517120361,97.6226501465,40.8577613831,40.8577613831,61.956993103,61.956993103,37.4795036316,-0.0847744420171,0,0.0230368953198,0.127508610487,0.188971117139,0.165934234858,6.99840164185,0.743310272694,-1.46067047119,-0.0151896877214,5.55979537964,0.119777858257,-0.573425292969,-0.0155374212191,9.41518211365,96.1619796753,46.4175567627,36.9060783386,258
1.63084627468826E+018,19,1.63084627468826E+018,base_footprint,0,1.63084627468826E+018,map,-7.09651785005,-0.718920137771,0,0,0,-0.731911365721,0.681399847907,1,61.2391967773,4.84429073334,44.3522949219,97.6226501465,40.7786026001,40.7786026001,61.2391967773,61.2391967773,49.544921875,-0.117880813777,0,0.0287098567933,0.0770274996758,0.272467523813,0.243757665157,4.57089138031,0.485480934381,-1.46067047119,-0.0151896877214,5.6389541626,0.1214832142,-12.6388435364,-0.34245967865,9.41518211365,96.1619796753,46.4175567627,36.9060783386,258
1.63084627478805E+018,20,1.63084627478805E+018,base_footprint,0,1.63084627478805E+018,map,-7.09651785005,-0.718920137771,0,0,0,-0.731911365721,0.681399847907,1,61.9625930786,6.39759540558,44.1381034851,97.6226501465,40.7970924377,40.7970924377,61.9625930786,61.9625930786,36.7234344482,0.13123473525,0,0.0531511418521,0.0157192852348,0.318381935358,0.265230774879,3.01758670807,0.320502221584,-1.46067047119,-0.0151896877214,5.62046432495,0.121084883809,0.182643890381,0.00494888378307,9.41518211365,96.1619796753,46.4175567627,36.9060783386,258
1.63084627488826E+018,21,1.63084627488826E+018,base_footprint,0,1.63084627488826E+018,map,-7.14170335932,-0.758293128362,0,0,0,-0.744567577804,0.667547093532,1,61.6429672241,6.57439422607,43.9148483276,97.5951919556,40.7622375488,40.7622375488,61.6429672241,61.6429672241,42.0014610291,0.0610339865088,0,0.0721631571651,0.0375739857554,0.337846130133,0.265682965517,3.13475227356,0.322865903378,-1.4270324707,-0.0148389283568,5.75814056396,0.123776733875,-5.14105224609,-0.139473557472,9.70914649963,96.1681594849,46.5203781128,36.860408783,262
1.63084627498813E+018,22,1.63084627498813E+018,base_footprint,0,1.63084627498813E+018,map,-7.14566040251,-0.773544849076,0,0,0,-0.765525228214,0.643405878872,1,61.9793968201,16.7420806885,43.8136062622,97.6069564819,40.8306312561,40.8306312561,61.9793968201,61.9793968201,36.7267112732,0.0548891574144,0,0.0677729323506,0.0656751841307,0.326795428991,0.259022474289,-6.82768535614,-0.688663840294,-1.40334320068,-0.0145872188732,5.68485641479,0.122214272618,0.0289764404297,0.000788352568634,9.91439533234,96.2036132812,46.5154876709,36.7556877136,267
1.63084627508808E+018,23,1.63084627508808E+018,base_footprint,0,1.63084627508808E+018,map,-7.15635012571,-0.817108922947,0,0,0,-0.809593285772,0.586991236419,1,61.7759857178,14.0271492004,43.3323249817,97.5842819214,40.7960281372,40.7960281372,61.7759857178,61.7759857178,39.9327507019,0.178670421243,0,0.0687616616488,0.0871109515429,0.287741392851,0.218979746103,-3.9122095108,-0.386775374413,-1.32875823975,-0.013804487884,5.66371536255,0.121905870736,-3.22988128662,-0.0880007818341,10.1149396896,96.2555236816,46.4597434998,36.7028694153,275
1.63084627518943E+018,24,1.63084627518943E+018,base_footprint,0,1.63084627518943E+018,map,-7.16674163218,-0.850750046825,0,0,0,-0.829458820784,0.558567869308,1,61.5654983521,12.8540306091,43.6246604919,97.6014785767,40.8038330078,40.8038330078,61.5654983521,61.5654983521,43.8677253723,0.0836210399866,0,0.0650245696306,0.100496515632,0.222180992365,0.157156422734,-2.73909091949,-0.270796567202,-1.34595489502,-0.0139831444249,5.65591049194,0.121737875044,-7.16485595703,-0.195212423801,10.1149396896,96.2555236816,46.4597434998,36.7028694153,275
1.63084627528832E+018,25,1.63084627528832E+018,base_footprint,0,1.63084627528832E+018,map,-7.19249267084,-0.903496044936,0,0,0,-0.844670819026,0.535286098724,1,61.8778572083,10.6590003967,43.9509353638,97.5486907959,40.8730735779,40.8730735779,61.8778572083,61.8778572083,38.8030509949,0.252139270306,0,0.0564289726317,0.102696023881,0.172119736671,0.115690760314,-0.178307533264,-0.0170129518956,-1.24863433838,-0.0129660815001,5.53851699829,0.11933477968,-2.11530685425,-0.0576570443809,10.4806928635,96.3000564575,46.4115905762,36.6877441406,284
1.63084627538815E+018,26,1.63084627538815E+018,base_footprint,0,1.63084627538815E+018,map,-7.19249267084,-0.903496044936,0,0,0,-0.844670819026,0.535286098724,1,61.7570953369,6.57439422607,44.2011909485,97.5486907959,41.0453262329,41.0453262329,61.7570953369,61.7570953369,42.8370819092,0.0044841398485,0,0.0350873433053,0.0964590162039,0.116041451693,0.0809541046619,3.90629863739,0.372713774443,-1.24863433838,-0.0129660815001,5.36626434326,0.115623369813,-6.14933776855,-0.167612865567,10.4806928635,96.3000564575,46.4115905762,36.6877441406,284
1.63084627548817E+018,27,1.63084627548817E+018,base_footprint,0,1.63084627548817E+018,map,-7.16809040807,-0.928043983303,0,0,0,-0.845704353103,0.533651709585,1,62.5049858093,16.2082099915,44.3824119568,97.576751709,41.4278411865,41.4278411865,62.5049858093,62.5049858093,33.6072616577,0.0928323641419,0,0.023947795853,0.0897073298693,0.0872069373727,0.0632591471076,-5.6904964447,-0.541039288044,-1.24802398682,-0.0129558853805,4.96811676025,0.107080809772,2.96534729004,0.0810810998082,10.5177135468,96.3287277222,46.3959579468,36.5726089478,282
1.63084627558816E+018,28,1.63084627558816E+018,base_footprint,0,1.63084627558816E+018,map,-7.20245556978,-0.997258724443,0,0,0,-0.834827232414,0.550512027135,1,62.6743087769,5.37084388733,44.5258407593,97.9810562134,41.600276947,41.600276947,62.6743087769,62.6743087769,33.8772468567,0.381314992905,0,0.00986150372773,0.0822598710656,0.0559190399945,0.0460575371981,5.33780956268,0.498457580805,-1.54249572754,-0.0159945953637,4.78493499756,0.103156477213,2.64075469971,0.0723137781024,10.70865345,96.4385604858,46.3852119446,36.5180015564,278
1.63084627568809E+018,29,1.63084627568809E+018,base_footprint,0,1.63084627568809E+018,map,-7.22629152853,-1.06035330327,0,0,0,-0.813175137122,0.582019068731,1,62.6488380432,9.83254623413,44.6514701843,98.0748519897,41.6825828552,41.6825828552,62.6488380432,62.6488380432,35.5623168945,0.377102196217,0,0.00520647736266,0.0775312706828,0.0518391132355,0.0466326363385,0.885433197021,0.0826119482517,-1.53520202637,-0.0159022957087,4.37853622437,0.0950592681766,0.7034034729,0.0193958226591,10.7179794312,96.5396499634,46.0611190796,36.2657203674,266
1.63084627578825E+018,30,1.63084627578825E+018,base_footprint,0,1.63084627578825E+018,map,-7.23974276779,-1.10812001046,0,0,0,-0.79561992047,0.605796122595,0,62.5127677917,17.4714660645,44.6845855713,98.3303375244,41.8016395569,41.8016395569,62.5127677917,62.5127677917,40.2170829773,-0.104846902192,0,0.00563282053918,0.0736886560917,0.054441396147,0.0488085784018,-6.72590637207,-0.625924229622,-1.82984161377,-0.0189619921148,4.33436203003,0.0939474999905,-3.8847618103,-0.106923028827,10.7455596924,96.5004959106,46.1360015869,36.332321167,269
1.63084627588812E+018,31,1.63084627588812E+018,base_footprint,0,1.63084627588812E+018,map,-7.25831858955,-1.1941466942,0,0,0,-0.761649559896,0.647989157248,0,62.7623329163,14.1262340546,44.5726966858,98.299118042,41.7353439331,41.7353439331,62.7623329163,62.7623329163,34.8965263367,0.0136529002339,0,0.00381525536068,0.0686859861016,0.0621233657002,0.0583081096411,-2.59081172943,-0.224596172571,-1.45053100586,-0.0149773070589,4.12340164185,0.0899152755737,1.28533554077,0.0355243049562,11.5354223251,96.8485870361,45.858745575,36.1818618774,229
1.63084627598904E+018,32,1.63084627598904E+018,base_footprint,0,1.63084627598905E+018,map,-7.26103217883,-1.20282111829,0,0,0,-0.759429420735,0.65058969783,0,62.4603652954,15.8437099457,44.5027999878,98.1967391968,41.6968460083,41.6968460083,62.4603652954,62.4603652954,39.5476341248,0.0248639620841,0,0.00116870831698,0.0597831569612,0.0702118948102,0.0690431818366,-4.30828762054,-0.373483300209,-1.34815216064,-0.0139202047139,4.16189956665,0.0907547622919,-3.36577224731,-0.0930237472057,11.5354223251,96.8485870361,45.858745575,36.1818618774,229
1.63084627608832E+018,33,1.63084627608832E+018,base_footprint,0,1.63084627608832E+018,map,-7.27361412314,-1.26335038734,0,0,0,-0.743395211815,0.668852419485,0,62.7906417847,16.7024478912,44.6562957764,98.1387786865,41.7928543091,41.7928543091,62.7906417847,62.7906417847,34.4308662415,-0.0377985872328,0,0.00436618225649,0.0514565967023,0.0766929462552,0.0723267644644,-0.700008392334,-0.0437438562512,-0.46076965332,-0.00471723033115,3.45756149292,0.076409496367,-0.223976135254,-0.00654769083485,16.0024394989,97.6780090332,45.250415802,34.2068901062,114
1.63084627618815E+018,34,1.63084627618815E+018,base_footprint,0,1.63084627618815E+018,map,-7.28299209901,-1.35035565298,0,0,0,-0.725368337555,0.688360933575,0,62.9115028381,23.0103797913,44.9102058411,98.2249984741,42.0782737732,42.0782737732,62.9115028381,62.9115028381,35.648273468,0.0628240481019,0,0.00653892196715,0.0446539111435,0.0800440460443,0.0735051184893,-4.49887466431,-0.243031278253,-0.490394592285,-0.00501761492342,3.51693344116,0.0771338418126,-2.40595245361,-0.0723761841655,18.511505127,97.7346038818,45.5952072144,33.2423210144,99
1.63084627628844E+018,35,1.63084627628844E+018,base_footprint,0,1.63084627628844E+018,map,-7.28299209901,-1.35035565298,0,0,0,-0.725368337555,0.688360933575,0,63.2553672791,24.9786872864,44.9833755493,98.2249984741,42.3530578613,42.3530578613,63.2553672791,63.2553672791,32.4263687134,0.0588778480887,0,0.00730442022905,0.0425277389586,0.0482575409114,0.0409531220794,-6.46718215942,-0.349360138178,-0.490394592285,-0.00501761492342,3.24214935303,0.0711072385311,0.815952301025,0.0245455875993,18.511505127,97.7346038818,45.5952072144,33.2423210144,99
1.63084627638844E+018,36,1.63084627638844E+018,base_footprint,0,1.63084627638844E+018,map,-7.28429247878,-1.43582862938,0,0,0,-0.714672498364,0.699459234038,0,63.3644599915,22.9792633057,44.9160575867,98.3588638306,42.5321388245,42.5321388245,63.3644599915,63.3644599915,32.8787651062,0.0803626403213,0,0.00485530262813,0.0338694266975,0.0133342333138,0.00847893115133,-4.56918907166,-0.248189613223,-0.661422729492,-0.00677011301741,3.11730957031,0.0682879984379,-0.228008270264,-0.00698324618861,18.410074234,97.6974411011,45.6494483948,32.6507568359,97
1.63084628078833E+018,37,1.63084628078833E+018,base_footprint,0,1.63084628078833E+018,map,-7.26186941137,-2.57844563034,0,0,0,-0.704727143192,0.709478437762,0,63.3864364624,17.0545921326,44.8696594238,98.0418319702,42.7328834534,42.7328834534,63.3864364624,63.3864364624,33.5099143982,0.103926546872,0,0.00597377121449,0.134747192264,0.00734477303922,0.0133185442537,-7.17522621155,-0.726284086704,0.157829284668,0.00160722841974,2.1591758728,0.0480970554054,-1.28115081787,-0.0397517830133,9.87936592102,98.1996612549,44.8920593262,32.2287635803,30
1.63084628088826E+018,38,1.63084628088826E+018,base_footprint,0,1.63084628088826E+018,map,-7.26186941137,-2.57844563034,0,0,0,-0.704727143192,0.709478437762,0,64.2960739136,0,44.9513282776,98.0418319702,42.149520874,42.149520874,64.2960739136,64.2960739136,10.8361225128,0.27185061574,0,0.00479262508452,0.166739806533,0.00790371745825,0.0126963425428,9.87936592102,1,0.157829284668,0.00160722841974,2.74253845215,0.0610918402672,21.3926410675,0.66377478838,9.87936592102,98.1996612549,44.8920593262,32.2287635803,30
1.63084628098822E+018,39,1.63084628098822E+018,base_footprint,0,1.63084628098822E+018,map,-7.26186941137,-2.57844563034,0,0,0,-0.704727143192,0.709478437762,0,62.849067688,0.255754470825,45.0476226807,98.0418319702,41.7092056274,41.7092056274,62.849067688,62.849067688,32.1268196106,0.388416528702,0,0.00562464352697,0.208531051874,0.0095567824319,0.0151814259589,9.6236114502,0.974112272263,0.157829284668,0.00160722841974,3.18285369873,0.0709001496434,0.101943969727,0.00316313630901,9.87936592102,98.1996612549,44.8920593262,32.2287635803,30
1.63084628108846E+018,40,1.63084628108846E+018,base_footprint,0,1.63084628108846E+018,map,-7.26186941137,-2.57844563034,0,0,0,-0.704727143192,0.709478437762,0,63.1675262451,0.126957252622,45.2157745361,98.0418319702,41.1562728882,41.1562728882,63.1675262451,63.1675262451,20.4228630066,0.349802553654,0,0.00550958095118,0.233644217253,0.0114230196923,0.0169326011091,9.75240898132,0.987149298191,0.157829284668,0.00160722841974,3.73578643799,0.0832170844078,11.8059005737,0.366315662861,9.87936592102,98.1996612549,44.8920593262,32.2287635803,30
1.63084628118833E+018,41,1.63084628118833E+018,base_footprint,0,1.63084628118833E+018,map,-7.26186941137,-2.57844563034,0,0,0,-0.704727143192,0.709478437762,0,63.0480499268,0,45.4336547852,98.0418319702,40.5649299622,40.5649299622,63.0480499268,63.0480499268,16.1869106293,0.182905554771,0,0.00297287362628,0.253838777542,0.0148947639391,0.0178676377982,9.87936592102,1,0.157829284668,0.00160722841974,4.32712936401,0.0963896363974,16.041852951,0.497749567032,9.87936592102,98.1996612549,44.8920593262,32.2287635803,30
1.63084628128808E+018,42,1.63084628128808E+018,base_footprint,0,1.63084628128809E+018,map,-7.26186941137,-2.57844563034,0,0,0,-0.704727143192,0.709478437762,0,61.767868042,0,45.7223434448,98.0418319702,39.8484382629,39.8484382629,61.767868042,61.767868042,31.4920845032,0.141909152269,0,0.00471530342475,0.255430459976,0.0148594491184,0.0195747520775,9.87936592102,1,0.157829284668,0.00160722841974,5.04362106323,0.112349957228,0.736679077148,0.0228578131646,9.87936592102,98.1996612549,44.8920593262,32.2287635803,30
1.63084628138809E+018,43,1.63084628138809E+018,base_footprint,0,1.63084628138809E+018,map,-7.26099978982,-2.49534220342,0,0,0,-0.706908303311,0.707305203367,0,61.834487915,0,46.1393013,98.1927947998,39.1219291687,39.1219291687,61.834487915,61.834487915,22.9901371002,0.182503461838,0,0.0073148268275,0.247946619987,0.019068216905,0.0263830441982,10.4501428604,1,-0.0519409179688,-0.000529248674866,5.87409591675,0.130547001958,10.3414402008,0.31025955081,10.4501428604,98.1408538818,44.9960250854,33.331577301,36
1.63084628148841E+018,44,1.63084628148841E+018,base_footprint,0,1.63084628148841E+018,map,-7.26212979105,-2.41990832418,0,0,0,-0.708253157284,0.70595854354,0,61.1890106201,0,46.1000480652,98.1236419678,38.6625518799,38.6625518799,61.1890106201,61.1890106201,29.3984851837,0.286038190126,0,0.00373078463599,0.231900915504,0.0207930132747,0.0245237983763,10.5989599228,1,0.0451583862305,0.000460007518996,6.22055053711,0.13859449327,3.81325721741,0.11481653899,10.5989599228,98.168800354,44.883102417,33.2117424011,38
1.63084628158851E+018,45,1.63084628158851E+018,base_footprint,0,1.63084628158851E+018,map,-7.26045291429,-2.34641895331,0,0,0,-0.708275505074,0.705936122402,0,60.6231803894,0,46.0779762268,98.0690994263,38.3095817566,38.3095817566,60.6231803894,60.6231803894,35.5749778748,0.186794355512,0,0.00592433614656,0.217404291034,0.0184039920568,0.0243283286691,11.2873983383,1,0.0543670654297,0.00055406789761,6.66025924683,0.148105025291,-3.07958221436,-0.0947698056698,11.2873983383,98.1234664917,44.9698410034,32.4953956604,44
1.63084628168811E+018,46,1.63084628168811E+018,base_footprint,0,1.63084628168811E+018,map,-7.26045291429,-2.34641895331,0,0,0,-0.708275505074,0.705936122402,0,60.3573760986,0,46.0989723206,98.0690994263,38.1917266846,38.1917266846,60.3573760986,60.3573760986,39.0866203308,0.118492551148,0,0.00553786335513,0.211614847183,0.0190857965499,0.0246236603707,11.2873983383,1,0.0543670654297,0.00055406789761,6.77811431885,0.150725781918,-6.59122467041,-0.202835649252,11.2873983383,98.1234664917,44.9698410034,32.4953956604,44
1.63084628178815E+018,47,1.63084628178815E+018,base_footprint,0,1.63084628178815E+018,map,-7.26195281502,-2.26649095924,0,0,0,-0.708076389297,0.70613584169,0,60.507194519,0,46.1473922729,97.9828338623,38.1040229797,38.1040229797,60.507194519,60.507194519,35.1321487427,0.088439270854,0,0.00636287080124,0.21001534164,0.0186497196555,0.0250125899911,12.0128660202,1,0.122901916504,0.00125274958555,6.87336349487,0.152818202972,-2.6376914978,-0.0811735838652,12.0128660202,98.1057357788,44.9773864746,32.4944572449,46
1.6308462818884E+018,48,1.6308462818884E+018,base_footprint,0,1.6308462818884E+018,map,-7.26195281502,-2.26649095924,0,0,0,-0.708076389297,0.70613584169,0,60.3669319153,3.21234869957,46.19581604,97.9828338623,38.1652526855,38.1652526855,60.3669319153,60.3669319153,38.3181915283,0.101963378489,0,0.00697959540412,0.210042819381,0.0181177239865,0.0250973198563,8.80051708221,0.732590973377,0.122901916504,0.00125274958555,6.81213378906,0.151456862688,-5.82373428345,-0.179222390056,12.0128660202,98.1057357788,44.9773864746,32.4944572449,46
1.63084628198825E+018,49,1.63084628198825E+018,base_footprint,0,1.63084628198825E+018,map,-7.26024062758,-2.18428440605,0,0,0,-0.70818396701,0.706027951904,0,60.5429229736,0.326797395945,46.3055992126,97.8848190308,38.2362289429,38.2362289429,60.5429229736,60.5429229736,35.5639686584,0.074219122529,0,0.00568628450856,0.191988170147,0.0119051933289,0.0175914764404,12.8089523315,0.975121498108,0.226829528809,0.00231195311062,6.80890655518,0.151157423854,-3.17557144165,-0.0980465784669,13.1357498169,98.1116485596,45.045135498,32.3883972168,56
1.63084628218821E+018,50,1.63084628218821E+018,base_footprint,0,1.63084628218821E+018,map,-7.26185034287,-2.089926353,0,0,0,-0.708226290203,0.705985496923,0,61.3034934998,3.89395189285,46.3100624084,97.6804046631,38.383026123,38.383026123,61.3034934998,61.3034934998,22.7232818604,0.268627524376,0,0.00507560605183,0.148181512952,0.00920394528657,0.0142795508727,10.9103412628,0.736971437931,0.36254119873,0.00369777949527,6.92101669312,0.152768194675,9.79062652588,0.301121175289,14.8042926788,98.0429458618,45.3040428162,32.5139083862,70
1.63084628228829E+018,51,1.63084628228829E+018,base_footprint,0,1.63084628228829E+018,map,-7.25837492406,-2.02882799592,0,0,0,-0.708246638398,0.705965083554,0,60.8410072327,7.0341424942,46.5976638794,97.5183792114,38.6671028137,38.6671028137,60.8410072327,60.8410072327,33.5327606201,0.34276470542,0,0.00426828349009,0.120422914624,0.00308168190531,0.00734996562824,8.30526733398,0.541433274746,0.482345581055,0.00492185726762,6.64305114746,0.146612852812,-1.37763214111,-0.0428433082998,15.3394098282,98.0007247925,45.3101539612,32.155128479,75
1.63084628238874E+018,52,1.63084628238874E+018,base_footprint,0,1.63084628238874E+018,map,-7.25837492406,-2.02882799592,0,0,0,-0.708246638398,0.705965083554,0,60.4417419434,5.88235282898,46.9249420166,97.5183792114,38.9617729187,38.9617729187,60.4417419434,60.4417419434,43.9019393921,0.16918155551,0,0.00177139183506,0.091730363667,0.00466404296458,0.00643543479964,9.45705699921,0.616520285606,0.482345581055,0.00492185726762,6.34838104248,0.140109449625,-11.7468109131,-0.365316867828,15.3394098282,98.0007247925,45.3101539612,32.155128479,75
1.63084628248848E+018,53,1.63084628248848E+018,base_footprint,0,1.63084628248848E+018,map,-7.25545072051,-1.95778641546,0,0,0,-0.708274120127,0.705937511936,0,61.2277870178,7.1628651619,47.1556892395,97.3856277466,39.3254585266,39.3254585266,61.2277870178,61.2277870178,33.2030563354,0.282907932997,0,0.00158097629901,0.0868767499924,0.00485445838422,0.00643543479964,9.28540420532,0.564521670341,0.520896911621,0.00532034924254,6.32166671753,0.138489916921,-1.38467407227,-0.0435180552304,16.4482688904,97.9065246582,45.6471252441,31.8183822632,79
1.63084628258838E+018,54,1.63084628258838E+018,base_footprint,0,1.63084628258838E+018,map,-7.2540808164,-1.96084006595,0,0,0,-0.708083236932,0.706128975171,0,61.0816078186,8.1385974884,47.3588142395,97.471244812,39.5278434753,39.5278434753,61.0816078186,61.0816078186,38.3282356262,0.328490942717,0,0.00135244219564,0.079939968884,0.00508299237117,0.00643543479964,8.00417709351,0.495836526155,0.505027770996,0.00515459245071,5.98588180542,0.131518170238,-6.21150970459,-0.193404197693,16.1427745819,97.976272583,45.5137252808,32.1167259216,78
1.63084628268821E+018,55,1.63084628268821E+018,base_footprint,0,1.63084628268821E+018,map,-7.25410872139,-1.87169743288,0,0,0,-0.708195098196,0.706016786551,0,61.230381012,10.7505073547,47.8821907043,97.0723876953,39.766784668,39.766784668,61.230381012,61.230381012,36.7950553894,0.359288096428,0,4.71707644465E-05,0.0694648399949,0.0063882637769,0.00643543479964,5.45788574219,0.336732059717,0.848289489746,0.0086630275473,5.84664154053,0.128178089857,-4.64130783081,-0.144347339869,16.2083930969,97.9206771851,45.6134262085,32.1537475586,80
1.6308462827881E+018,56,1.6308462827881E+018,base_footprint,0,1.6308462827881E+018,map,-7.2501334678,-1.80915322352,0,0,0,-0.706952312808,0.707261215829,0,61.4724082947,8.31643009186,48.6308555603,96.8653869629,39.9287261963,39.9287261963,61.4724082947,61.4724082947,33.4422798157,0.387561917305,0,0.000500801135786,0.0588001683354,0.00593463378027,0.00643543479964,8.31066608429,0.499826669693,0.97688293457,0.00998426321894,5.67428588867,0.124427877367,-0.780208587646,-0.0238872971386,16.6270961761,97.8422698975,45.603012085,32.662071228,86
1.63084628288821E+018,57,1.63084628288821E+018,base_footprint,0,1.63084628288821E+018,map,-7.2501334678,-1.80915322352,0,0,0,-0.706952312808,0.707261215829,0,61.0716400146,7.67973852158,53.7471427917,96.8653869629,39.9865493774,39.9865493774,61.0716400146,61.0716400146,41.2806091309,0.562167346478,0,0.000464778888272,0.0562904179096,0.00597065594047,0.00643543479964,8.94735717773,0.538119077682,0.97688293457,0.00998426321894,5.61646270752,0.123159907758,-8.61853790283,-0.263869911432,16.6270961761,97.8422698975,45.603012085,32.662071228,86
1.63084628298839E+018,58,1.63084628298839E+018,base_footprint,0,1.63084628298839E+018,map,-7.2529762666,-1.73640771092,0,0,0,-0.70716780247,0.707045754637,0,61.1716690063,8.67955589294,52.2586898804,96.637298584,40.0829963684,40.0829963684,61.1716690063,61.1716690063,39.7006187439,0.259538799524,0,8.06447060313E-05,0.0506905727088,0.00635479018092,0.00643543479964,9.13596725464,0.51280939579,1.13122558594,0.0115704480559,5.62895202637,0.123139619827,-7.02041625977,-0.21482168138,17.8155231476,97.7685241699,45.7119483948,32.6802024841,94
1.63084628308831E+018,59,1.63084628308831E+018,base_footprint,0,1.63084628308831E+018,map,-7.25471935009,-1.6658741621,0,0,0,-0.706330600057,0.707882111246,0,61.1427612305,11.3504552841,51.4970817566,96.6434249878,40.0746994019,40.0746994019,61.1427612305,61.1427612305,40.1533660889,0.290950387716,0,0.000467561301775,0.0412479974329,0.00596787361428,0.00643543479964,6.65546894073,0.369626611471,1.14308929443,0.0116896415129,5.59387588501,0.122488513589,-7.4016418457,-0.225992426276,18.0059242249,97.7865142822,45.6685752869,32.7517242432,94
1.63084628318875E+018,60,1.63084628318875E+018,base_footprint,0,1.63084628318875E+018,map,-7.25307514801,-1.5823281886,0,0,0,-0.70649650436,0.70771653176,0,61.3765258789,10.0840339661,50.7616920471,96.5945739746,40.102230072,40.102230072,61.3765258789,61.3765258789,36.0670585632,0.313588738441,0,0.000746568897739,0.0369502343237,0.00568886566907,0.00643543479964,8.41766929626,0.454967260361,1.16351318359,0.0119019635022,5.59447097778,0.122426144779,-3.19850921631,-0.0973121523857,18.5017032623,97.7580871582,45.6967010498,32.8685493469,95
1.63084628328874E+018,61,1.63084628328874E+018,base_footprint,0,1.63084628328874E+018,map,-7.25307514801,-1.5823281886,0,0,0,-0.70649650436,0.70771653176,0,61.1109352112,10.7217359543,50.2369384766,96.5945739746,40.1281738281,40.1281738281,61.1109352112,61.1109352112,41.1279335022,0.321323484182,0,0.000734529399779,0.0290933847427,0.00514259329066,0.00587712274864,7.77996730804,0.420500069857,1.16351318359,0.0119019635022,5.56852722168,0.121858410537,-8.25938415527,-0.25128531456,18.5017032623,97.7580871582,45.6967010498,32.8685493469,95
1.63084628348819E+018,62,1.63084628348819E+018,base_footprint,0,1.63084628348819E+018,map,-7.25448711836,-1.41375355214,0,0,0,-0.706690021075,0.707523295809,0,60.9744262695,14.0592403412,49.2504844666,96.0688476562,40.2494010925,40.2494010925,60.9744262695,60.9744262695,43.0016937256,0.424705356359,0,0.000510391546413,0.0120342103764,0.00596474017948,0.00647513195872,4.35083389282,0.236328974366,1.62859344482,0.0166697651148,5.40004730225,0.118293814361,-10.3509368896,-0.317019820213,18.410074234,97.6974411011,45.6494483948,32.6507568359,97
1.63084628358815E+018,63,1.63084628358815E+018,base_footprint,0,1.63084628358815E+018,map,-7.25367618132,-1.33214325653,0,0,0,-0.706722939158,0.707490414965,0,61.664806366,10.924369812,49.1968383789,96.0043334961,40.3316040039,40.3316040039,61.664806366,61.664806366,31.2304019928,0.210558131337,0,0.000959208991844,0.089787133038,0.00205519935116,0.00109599030111,7.58713531494,0.409860521555,1.73027038574,0.0177037641406,5.26360321045,0.115442030132,2.01191902161,0.0605228208005,18.511505127,97.7346038818,45.5952072144,33.2423210144,99
1.63084628368817E+018,64,1.63084628368817E+018,base_footprint,0,1.63084628368817E+018,map,-7.25500094947,-1.33797451807,0,0,0,-0.706254466054,0.707958070212,0,61.342300415,11.764705658,49.1771697998,95.7899780273,40.3355865479,40.3355865479,61.342300415,61.342300415,36.306842804,0.0158037114888,0,0.000663002079818,0.110991343856,0.000555228267331,0.00121823034715,6.74679946899,0.364465206861,1.94462585449,0.0198970045894,5.2596206665,0.115354679525,-3.06452178955,-0.0921873599291,18.511505127,97.7346038818,45.5952072144,33.2423210144,99
1.63084628378813E+018,65,1.63084628378813E+018,base_footprint,0,1.63084628378813E+018,map,-7.25500094947,-1.33797451807,0,0,0,-0.706254466054,0.707958070212,0,61.6232376099,12.6050424576,49.129234314,95.7899780273,40.3541717529,40.3541717529,61.6232376099,61.6232376099,31.4506950378,0.290043890476,0,0.00116417673416,0.127512797713,0.00230496376753,0.00346914050169,5.90646266937,0.319069832563,1.94462585449,0.0198970045894,5.24103546143,0.114947073162,1.79162597656,0.0538959354162,18.511505127,97.7346038818,45.5952072144,33.2423210144,99
1.63084628388841E+018,66,1.63084628388841E+018,base_footprint,0,1.63084628388841E+018,map,-7.25319864565,-1.26238918772,0,0,0,-0.706664188877,0.707549096642,0,61.2907218933,13.0074567795,49.0991706848,95.3912582397,40.3786125183,40.3786125183,61.2907218933,61.2907218933,36.2645263672,0.0935601145029,0,0.00272427801974,0.144202053547,0.00140286458191,0.00412714248523,2.99498271942,0.18715788424,2.28675079346,0.0234111119062,4.87180328369,0.107663169503,-2.05763626099,-0.0601526834071,16.0024394989,97.6780090332,45.250415802,34.2068901062,114
1.6308462839892E+018,67,1.6308462839892E+018,base_footprint,0,1.6308462839892E+018,map,-7.25954760229,-1.17842085066,0,0,0,-0.705879135828,0.708332298856,0,61.1487045288,10.924369812,49.0669288635,95.5614318848,40.3650360107,40.3650360107,61.1487045288,61.1487045288,39.2868766785,0.205420926213,0,0.000823144742753,0.154303148389,0.0021407676395,0.00296391244046,0.611052513123,0.0529718361795,1.28715515137,0.013290386647,5.49370956421,0.119796335697,-3.10501480103,-0.0858168900013,11.5354223251,96.8485870361,45.858745575,36.1818618774,229
1.63084628408835E+018,68,1.63084628408835E+018,base_footprint,0,1.63084628408835E+018,map,-7.25695028331,-1.17908399313,0,0,0,-0.706720185643,0.707493165482,0,61.9749717712,15.4929580688,48.9813575745,95.5954742432,40.3482513428,40.3482513428,61.9749717712,61.9749717712,24.3553562164,0.239413231611,0,0.000935420393944,0.1547986269,0.00194038019981,0.00287580047734,-3.95753574371,-0.34307679534,1.25311279297,0.0129388859496,5.51049423218,0.120162338018,11.826505661,0.326862841845,11.5354223251,96.8485870361,45.858745575,36.1818618774,229
1.63084628418815E+018,69,1.63084628418815E+018,base_footprint,0,1.63084628418816E+018,map,-7.2596263228,-1.09591665765,0,0,0,-0.705592763111,0.708617564449,0,61.1588783264,10.3249692917,48.9313583374,95.5213699341,40.2630767822,40.2630767822,61.1588783264,61.1588783264,37.8583679199,0.0802755951881,0,2.04058978852E-05,0.155425712466,0.00264926673844,0.00262886076234,0.420590400696,0.0391408540308,0.979125976562,0.0101463310421,5.87292480469,0.127295926213,-1.52604675293,-0.0420024581254,10.7455596924,96.5004959106,46.1360015869,36.332321167,269
1.63084628428824E+018,70,1.63084628428824E+018,base_footprint,0,1.63084628428824E+018,map,-7.2596263228,-1.09591665765,0,0,0,-0.705592763111,0.708617564449,0,61.8373451233,15.2612094879,48.9164619446,95.5213699341,40.1563491821,40.1563491821,61.8373451233,61.8373451233,24.4933242798,0.428624331951,0,0.00208005146123,0.156454354525,0.00193654152099,0.000143509998452,-4.51564979553,-0.420234024525,0.979125976562,0.0101463310421,5.97965240479,0.129609242082,11.8389968872,0.325853019953,10.7455596924,96.5004959106,46.1360015869,36.332321167,269
1.63084628438847E+018,71,1.63084628438847E+018,base_footprint,0,1.63084628438847E+018,map,-7.26031010498,-1.02013630629,0,0,0,-0.705655789346,0.708554801665,0,61.7851486206,14.0592403412,48.9507408142,95.2965545654,40.0804290771,40.0804290771,61.7851486206,61.7851486206,23.8035297394,0.343406230211,0,0.00106197188143,0.153285220265,0.00067003472941,0.000391937181121,-3.27156162262,-0.303268373013,1.18376159668,0.0122694624588,6.2126121521,0.134201854467,12.6829586029,0.347606986761,10.7876787186,96.4803161621,46.2930412292,36.4864883423,274
1.63084628448864E+018,72,1.63084628448864E+018,base_footprint,0,1.63084628448864E+018,map,-7.26113359357,-1.01851272438,0,0,0,-0.705615570254,0.708594853929,0,61.3739318848,14.807302475,49.0273399353,95.3365631104,40.1068687439,40.1068687439,61.3739318848,61.3739318848,31.6350078583,0.10416726768,0,0.00247088377364,0.151994749904,0.00243118661456,3.96971590817E-05,-4.01962375641,-0.372612476349,1.14375305176,0.0118547817692,6.18617248535,0.133630722761,4.85148048401,0.1329664886,10.7876787186,96.4803161621,46.2930412292,36.4864883423,274
1.63084628458832E+018,73,1.63084628458832E+018,base_footprint,0,1.63084628458833E+018,map,-7.25984912853,-0.928322222447,0,0,0,-0.706271000378,0.707941575291,0,60.738697052,16.4300193787,49.0207557678,94.9583129883,40.1237678528,40.1237678528,60.738697052,60.738697052,41.8901100159,0.112878881395,0,0.00200424622744,0.151709377766,0.00196454906836,3.96971590817E-05,-5.82677078247,-0.549526929855,1.41138458252,0.0146455224603,6.26329040527,0.135022372007,-5.34241104126,-0.1461763978,10.6032485962,96.3696975708,46.3870582581,36.5476989746,278
1.63084628468842E+018,74,1.63084628468842E+018,base_footprint,0,1.63084628468842E+018,map,-7.26049207468,-0.853315315738,0,0,0,-0.70724193118,0.706971605356,0,61.1152877808,15.6186609268,49.0467948914,94.5705795288,40.1810493469,40.1810493469,61.1152877808,61.1152877808,34.3342552185,0.192349269986,0,0.00114234536886,0.154347345233,0.00118204252794,3.96971590817E-05,-5.29833507538,-0.513388335705,1.72779083252,0.0179420560598,6.28704071045,0.135298028588,2.37172317505,0.0646140873432,10.3203258514,96.2983703613,46.4680900574,36.7059783936,271
1.63084628478871E+018,75,1.63084628478871E+018,base_footprint,0,1.63084628478873E+018,map,-7.25793108166,-0.845566065624,0,0,0,-0.707340085508,0.706873399862,0,61.1072616577,14.807302475,49.0899581909,94.6329956055,40.2160453796,40.2160453796,61.1072616577,61.1072616577,35.0813980103,0.115401208401,0,0.00103037653025,0.151695996523,0.00107007368933,3.96971590817E-05,-4.48697662354,-0.434770822525,1.66537475586,0.0172939039767,6.25204467773,0.134544909,1.6245803833,0.0442592874169,10.3203258514,96.2983703613,46.4680900574,36.7059783936,271
1.6308462848881E+018,76,1.6308462848881E+018,base_footprint,0,1.6308462848881E+018,map,-7.25879134992,-0.768776706124,0,0,0,-0.705601766603,0.708608599276,0,61.7267684937,15.8496732712,49.1512565613,94.3725357056,40.3013877869,40.3013877869,61.7267684937,61.7267684937,23.9142932892,0.301763683558,0,0.001175639336,0.152852684259,0.00121533649508,3.96971590817E-05,-5.88862323761,-0.591164886951,1.84976959229,0.0192239172757,6.22133255005,0.133726760745,12.863451004,0.349761813879,9.96105003357,96.2223052979,46.5227203369,36.7777442932,265
1.63084628498831E+018,77,1.63084628498831E+018,base_footprint,0,1.63084628498831E+018,map,-7.25852455018,-0.683635170311,0,0,0,-0.706962749363,0.707250783678,0,61.7868232727,16.0839157104,49.1783256531,93.8943557739,40.3111076355,40.3111076355,61.7868232727,61.7868232727,21.2168235779,0.338753253222,0,0.000225644616876,0.151115313172,0.000689480104484,0.000463835516712,-6.34180736542,-0.650968670845,2.29421234131,0.0238511953503,6.20385742188,0.133373364806,15.6930809021,0.425172626972,9.74210834503,96.1885681152,46.5149650574,36.90990448,254
1.6308462850882E+018,78,1.6308462850882E+018,base_footprint,0,1.6308462850882E+018,map,-7.25852455018,-0.683635170311,0,0,0,-0.706962749363,0.707250783678,0,61.2306442261,18.8640975952,49.2639427185,93.8943557739,40.3731002808,40.3731002808,61.2306442261,61.2306442261,31.897600174,0.176632761955,0,0.00057024450507,0.153753533959,0.00103408005089,0.000463835516712,-9.12198925018,-0.936346530914,2.29421234131,0.0238511953503,6.14186477661,0.13204061985,5.01230430603,0.135798349977,9.74210834503,96.1885681152,46.5149650574,36.90990448,254
1.63084628608819E+018,79,1.63084628608819E+018,base_footprint,0,1.63084628608819E+018,map,-7.26043147117,-0.537778663782,0,0,0,-0.706230984968,0.707981494017,0,61.2832565308,18.0527381897,49.1986351013,93.7511520386,40.3351020813,40.3351020813,61.2832565308,61.2832565308,30.0246658325,0.16036875546,0,0.00850889086723,0.254278004169,0.0590362623334,0.0505273714662,-8.73087406158,-0.936601758003,2.37451934814,0.0247022397816,6.11397171021,0.131627425551,7.06029510498,0.190381631255,9.32186412811,96.1256713867,46.4490737915,37.0849609375,240
1.63084628618808E+018,80,1.63084628618808E+018,base_footprint,0,1.63084628618808E+018,map,-7.25861807552,-0.496361601614,0,0,0,-0.687207617542,0.726461072868,0,60.7226600647,7.67973852158,49.2313575745,94.0914993286,40.1029777527,40.1029777527,60.7226600647,60.7226600647,38.8336486816,0.187085703015,0,0.0145769305527,0.256688386202,0.0894886180758,0.0749116912484,1.39251279831,0.153491422534,2.01293945312,0.0209453329444,6.34510040283,0.136606305838,-1.61265563965,-0.0433265082538,9.07225131989,96.1044387817,46.4480781555,37.220993042,232
1.6308462862881E+018,81,1.6308462862881E+018,base_footprint,0,1.6308462862881E+018,map,-7.25999738632,-0.515134888793,0,0,0,-0.665932423429,0.746012069222,0,61.1031036377,7.56302499771,49.2786026001,94.3747024536,39.9762535095,39.9762535095,61.1031036377,61.1031036377,31.636598587,0.276189267635,0,0.0185601543635,0.257700890303,0.114048376679,0.0954882204533,1.7588391304,0.188678905368,1.75096893311,0.0182154141366,6.47282028198,0.139353051782,5.44836235046,0.146915689111,9.32186412811,96.1256713867,46.4490737915,37.0849609375,240
1.63084628638842E+018,82,1.63084628638842E+018,base_footprint,0,1.63084628638842E+018,map,-7.25999738632,-0.515134888793,0,0,0,-0.665932423429,0.746012069222,0,60.7501945496,8.4033613205,49.2819404602,94.3747024536,39.8107719421,39.8107719421,60.7501945496,60.7501945496,36.201751709,0.0217347685248,0,0.0230341590941,0.2571439147,0.122747972608,0.0997138097882,0.918502807617,0.0985320955515,1.75096893311,0.0182154141366,6.63830184937,0.142915695906,0.883209228516,0.0238158330321,9.32186412811,96.1256713867,46.4490737915,37.0849609375,240
1.63084628648823E+018,83,1.63084628648823E+018,base_footprint,0,1.63084628648823E+018,map,-7.25466708088,-0.525874442075,0,0,0,-0.636141670061,0.771572275041,0,59.7457466125,5.71547746658,49.2535896301,94.1758270264,39.5729560852,39.5729560852,59.7457466125,59.7457466125,50.9974479675,0.238786011934,0,0.0278554856777,0.256354898214,0.131535932422,0.103680454195,3.60638666153,0.386873990297,1.94984436035,0.0202843248844,6.8761177063,0.148035630584,-13.91248703,-0.375151723623,9.32186412811,96.1256713867,46.4490737915,37.0849609375,240
1.6308462865881E+018,84,1.6308462865881E+018,base_footprint,0,1.6308462865881E+018,map,-7.25155112546,-0.553670558412,0,0,0,-0.609558980237,0.792740720294,0,60.3831214905,0.709219872952,51.0312728882,94.2893981934,39.3000564575,39.3000564575,60.3831214905,60.3831214905,36.9862442017,-0.0602800436318,0,0.0312700234354,0.258442252874,0.145246654749,0.113976635039,8.61264419556,0.923918664455,1.83627319336,0.0191028378904,7.14901733398,0.15391087532,0.0987167358398,0.00266190757975,9.32186412811,96.1256713867,46.4490737915,37.0849609375,240
1.63084628668808E+018,85,1.63084628668808E+018,base_footprint,0,1.63084628668808E+018,map,-7.23645686899,-0.596269079938,0,0,0,-0.553273475983,0.832999676335,0,60.5960578918,2.66610240936,49.2331390381,93.7390975952,39.1642951965,39.1642951965,60.5960578918,60.5960578918,29.7061309814,0.138633847237,0,0.0339738503098,0.254064917564,0.160782620311,0.12680876255,6.82900714874,0.719213068485,2.3959274292,0.0249225236475,7.35073471069,0.15802924335,7.38948822021,0.199201107025,9.49510955811,96.1350250244,46.5150299072,37.0956192017,244
1.63084628678804E+018,86,1.63084628678804E+018,base_footprint,0,1.63084628678804E+018,map,-7.22479879419,-0.61658111596,0,0,0,-0.507525027653,0.861637015399,0,60.3025894165,4.41176462173,48.9057769775,93.7860870361,39.1068954468,39.1068954468,60.3025894165,60.3025894165,34.5377998352,0.142558723688,0,0.0398640334606,0.253761202097,0.161230251193,0.121366210282,5.10828924179,0.536581993103,2.29275512695,0.0238632671535,7.40679550171,0.159239038825,2.31538391113,0.062827244401,9.52005386353,96.0788421631,46.5136909485,36.8531837463,256
1.63084628688805E+018,87,1.63084628688805E+018,base_footprint,0,1.63084628688805E+018,map,-7.21827852685,-0.603695451827,0,0,0,-0.458706477795,0.888587850034,0,60.0101470947,1.54359614849,48.5159950256,93.4723587036,38.9571990967,38.9571990967,60.0101470947,60.0101470947,37.0555992126,0.229734539986,0,0.0399827547371,0.253476381302,0.147968560457,0.107985809445,7.76604652405,0.834193825722,2.60105133057,0.0270735826343,7.51217651367,0.161658644676,-0.0540885925293,-0.00146179413423,9.30964279175,96.0734100342,46.4693756104,37.0015106201,248
1.63084628698828E+018,88,1.63084628698828E+018,base_footprint,0,1.63084628698828E+018,map,-7.18706472122,-0.640207458013,0,0,0,-0.376217025139,0.926531569886,0,60.3424491882,0.709219872952,48.1700286865,94.5154876709,38.8770828247,38.8770828247,60.3424491882,60.3424491882,33.9641494751,0.203600764275,0,0.0398226566613,0.252776473761,0.110864534974,0.0710418745875,8.81083393097,0.925502538681,1.56335449219,0.0162715800107,7.63660812378,0.16417978704,2.88903427124,0.0783930718899,9.52005386353,96.0788421631,46.5136909485,36.8531837463,256
1.63084628708824E+018,89,1.63084628708824E+018,base_footprint,0,1.63084628708824E+018,map,-7.16433221752,-0.656061596301,0,0,0,-0.33159270634,0.943422639702,0,60.2728996277,0,47.9645271301,94.7849197388,38.6308555603,38.6308555603,60.2728996277,60.2728996277,33.5267829895,0.397157967091,0,0.0370293930173,0.251998990774,0.102293990552,0.0652645975351,9.44034004211,1,1.33786773682,0.0139183206484,7.89981842041,0.169776573777,3.39935684204,0.0920582786202,9.44034004211,96.1227874756,46.5306739807,36.9261398315,254
1.63084628718813E+018,90,1.63084628718813E+018,base_footprint,0,1.63084628718813E+018,map,-7.13859876849,-0.672219877401,0,0,0,-0.286914553165,0.957956178112,0,60.3518753052,0.653594791889,47.6584320068,94.4453048706,38.4848060608,38.4848060608,60.3518753052,60.3518753052,29.3052444458,0.247321337461,0,0.0315695405006,0.249106422067,0.0666581168771,0.0350885763764,9.02421569824,0.932464599609,1.70663452148,0.017749350518,8.03450012207,0.172713235021,7.5583114624,0.205034792423,9.67781066895,96.1519393921,46.5193061829,36.8635559082,259
1.63084628728844E+018,91,1.63084628728844E+018,base_footprint,0,1.63084628728844E+018,map,-7.11368702378,-0.677888482979,0,0,0,-0.248719832079,0.968575472088,0,60.1428337097,0,47.3106079102,94.7369918823,38.2953186035,38.2953186035,60.1428337097,60.1428337097,32.0716285706,0.471928149462,0,0.0286483466625,0.248731151223,0.0465951599181,0.0179468132555,9.40202522278,1,1.36748504639,0.014229150489,8.1100730896,0.174765750766,4.7730140686,0.129544317722,9.40202522278,96.1044769287,46.4053916931,36.8446426392,257
1.63084628738838E+018,92,1.63084628738838E+018,base_footprint,0,1.63084628738838E+018,map,-7.07163718162,-0.696315584593,0,0,0,-0.206754799387,0.978392790719,0,59.8448753357,0,46.9577560425,94.8681716919,38.1998596191,38.1998596191,59.8448753357,59.8448753357,36.876121521,0.0559829138219,0,0.0161700285971,0.243948698044,0.0106438659132,0.0055261622183,9.30690574646,1,1.22019195557,0.0126986447722,8.31804656982,0.17881385982,-0.138965606689,-0.00378269911744,9.30690574646,96.0883636475,46.517906189,36.7371559143,257
1.63084628748822E+018,93,1.63084628748822E+018,base_footprint,0,1.63084628748822E+018,map,-7.03371838326,-0.706477448837,0,0,0,-0.173709431151,0.984796950406,0,60.0180244446,0,46.6894302368,94.8104629517,38.0204544067,38.0204544067,60.0180244446,60.0180244446,31.6140995026,0.349864989519,0,0.0126316379756,0.239386245608,0.00199224776588,0.0146238859743,9.31724071503,1,1.31143951416,0.0136435031891,8.49952697754,0.1827070117,4.9672794342,0.1357870996,9.31724071503,96.1219024658,46.5199813843,36.5813789368,257
1.63084628758849E+018,94,1.63084628758849E+018,base_footprint,0,1.63084628758849E+018,map,-6.98856238253,-0.720876512718,0,0,0,-0.143262090034,0.989684784949,0,59.8584213257,0,46.4753227234,95.413444519,37.9698562622,37.9698562622,59.8584213257,59.8584213257,36.1112785339,0.2650565207,0,0.00541450781748,0.239375889301,0.0228576362133,0.0282721444964,9.54801082611,1,0.730575561523,0.00759876240045,8.54286956787,0.183667361736,0.428646087646,0.0117308972403,9.54801082611,96.1440200806,46.5127258301,36.5399246216,263
1.6308462876882E+018,95,1.6308462876882E+018,base_footprint,0,1.6308462876882E+018,map,-6.92770481856,-0.732033408089,0,0,0,-0.108831454346,0.99406021676,0,59.8851623535,0,46.3923721313,95.7822265625,38.0558509827,38.0558509827,59.8851623535,59.8851623535,37.8862762451,0.231904000044,0,0.00245050597005,0.22775273025,0.0426726602018,0.045123167336,9.19604301453,1,0.356857299805,0.00371188577265,8.40915298462,0.18097820878,-1.16289138794,-0.0316662378609,9.19604301453,96.1390838623,46.4650039673,36.7233848572,254
1.63084628778811E+018,96,1.63084628778811E+018,base_footprint,0,1.63084628778811E+018,map,-6.85504637706,-0.739571797823,0,0,0,-0.0800343537243,0.996792105819,0,60.140838623,1.24516963959,46.2564964294,95.8905792236,38.302822113,38.302822113,60.140838623,60.140838623,36.3414573669,0.145866423845,0,0.00660716788843,0.172398984432,0.0628084167838,0.056201249361,8.02132511139,0.865626692772,0.255462646484,0.00265702721663,8.16530609131,0.175718426704,0.300960540771,0.00821344647557,9.26649475098,96.1460418701,46.4681282043,36.6424179077,243
1.63084628788814E+018,97,1.63084628788814E+018,base_footprint,0,1.63084628788814E+018,map,-6.77031653464,-0.735325689694,0,0,0,-0.0500915977643,0.998744627937,0,60.9314193726,0,46.142791748,95.5892791748,38.5392036438,38.5392036438,60.9314193726,60.9314193726,23.5792388916,0.136545553803,0,0.0103618782014,0.131243795156,0.0731244161725,0.0627625361085,10.449514389,1,0.238502502441,0.00248886598274,8.51586914062,0.180976644158,11.9174041748,0.335733264685,10.449514389,95.8277816772,47.0550727844,35.4966430664,181
1.63084628798891E+018,98,1.63084628798891E+018,base_footprint,0,1.63084628798891E+018,map,-6.68286084004,-0.738515453672,0,0,0,-0.0290447780012,0.99957811144,0,60.6599769592,3.6658141613,46.1772537231,95.3720703125,38.9541244507,38.9541244507,60.6599769592,60.6599769592,32.1644325256,0.395141422749,0,0.00881752371788,0.104955621064,0.0801219120622,0.0713043957949,8.11212348938,0.688755810261,0.144226074219,0.0015099629527,8.99700546265,0.187628641725,3.10495376587,0.0880353748798,11.7779378891,95.5162963867,47.9511299133,35.2693862915,147
1.63084628808824E+018,99,1.63084628808824E+018,base_footprint,0,1.63084628808824E+018,map,-6.58394726975,-0.737121295542,0,0,0,-0.0145763197817,0.999893759807,0,61.5232429504,11.5561113358,46.4396133423,95.4369659424,39.6204147339,39.6204147339,61.5232429504,61.5232429504,24.0551624298,0.375484406948,0,0.0136174876243,0.0921250507236,0.0948229730129,0.0812054872513,0.992485046387,0.0790913179517,-0.0207672119141,-0.000217648703256,8.65956497192,0.179361402988,11.2089481354,0.317857116461,12.5485963821,95.4161987305,48.2799797058,35.2641105652,138
1.63084628818819E+018,100,1.63084628818819E+018,base_footprint,0,1.63084628818819E+018,map,-6.49711722997,-0.738023177587,0,0,0,-0.00683110636849,0.999976667721,0,61.7613792419,17.9009742737,46.6540527344,95.3479309082,40.4152069092,40.4152069092,61.7613792419,61.7613792419,28.0319538116,0.37760129571,0,0.021747790277,0.0859160274267,0.11116424948,0.0894164592028,-5.28141307831,-0.418510049582,0.0944747924805,0.000989861786366,7.88011169434,0.163165122271,7.56070137024,0.212423071265,12.6195611954,95.4424057007,48.2953186035,35.5926551819,137
1.63084628828811E+018,101,1.63084628828811E+018,base_footprint,0,1.63084628828811E+018,map,-6.40717456617,-0.737124115548,0,0,0,-0.0022896195711,0.999997378818,0,62.4285545349,15.3618278503,46.8954734802,95.7518768311,41.2571411133,41.2571411133,62.4285545349,62.4285545349,26.5698814392,0.377100110054,0,0.0224707629532,0.0850904658437,0.113442912698,0.090972147882,-2.60727405548,-0.204419076443,-0.383193969727,-0.00401802733541,7.05015563965,0.145943909883,9.04906845093,0.254052072763,12.7545537949,95.3686828613,48.3072967529,35.6189498901,139
1.63084628838814E+018,102,1.63084628838814E+018,base_footprint,0,1.63084628838814E+018,map,-6.3013198027,-0.737099676204,0,0,0,0.000646490531348,0.999999791025,0,62.8566856384,15.966386795,47.2450294495,96.0159301758,41.8978538513,41.8978538513,62.8566856384,62.8566856384,26.7338371277,0.364015102386,0,0.0238360129297,0.0788832977414,0.11856289953,0.0947268903255,-3.82520484924,-0.315060347319,-0.467864990234,-0.0048966454342,6.0714225769,0.126568987966,9.106300354,0.254081070423,12.1411819458,95.5480651855,47.9692764282,35.8401374817,152
1.63084628848822E+018,103,1.63084628848822E+018,base_footprint,0,1.63084628848822E+018,map,-6.222040015,-0.73754297179,0,0,0,0.00406894342302,0.999991721815,0,63.895904541,14.2857141495,47.6291770935,96.2083358765,42.5402107239,42.5402107239,63.895904541,63.895904541,15.657989502,0.0724232792854,0,0.0247464254498,0.0782258287072,0.124634549022,0.0998881235719,-2.03790950775,-0.166389778256,-0.564979553223,-0.00590714905411,5.40615081787,0.112754143775,19.9320983887,0.560046315193,12.2478046417,95.6433563232,47.9463615417,35.5900878906,147
1.63084628858821E+018,104,1.63084628858821E+018,base_footprint,0,1.63084628858821E+018,map,-6.12398879351,-0.737438770611,0,0,0,0.00553230928887,0.99998469666,0,64.0966720581,22.1453285217,48.0321731567,96.3918991089,43.08177948,43.08177948,64.0966720581,64.0966720581,18.5539970398,0.541013062,0,0.0254437625408,0.0762933418155,0.128096953034,0.102653183043,-9.66559505463,-0.774503350258,-0.732711791992,-0.00765960710123,4.80487823486,0.100338555872,16.957611084,0.477523028851,12.4797334671,95.6591873169,47.8866577148,35.5116081238,152
1.63084628868807E+018,105,1.63084628868807E+018,base_footprint,0,1.63084628868807E+018,map,-6.04147884153,-0.735561341693,0,0,0,0.00648776014376,0.999978954263,0,64.3248596191,20.4152240753,48.3293571472,96.4663925171,43.5772781372,43.5772781372,64.3248596191,64.3248596191,20.0660991669,0.502501010895,0,0.0290450062603,0.0615937039256,0.145521610975,0.116476602852,-8.40842914581,-0.700305879116,-0.754959106445,-0.00788786727935,4.13189315796,0.0866058468819,15.4980678558,0.43577760458,12.0067949295,95.7114334106,47.7091712952,35.5641670227,151
1.63084628878885E+018,106,1.63084628878885E+018,base_footprint,0,1.63084628878885E+018,map,-5.95337548127,-0.733481552025,0,0,0,0.00409013814022,0.99999163535,0,64.783782959,17.4714660645,48.359210968,96.5432891846,44.0352210999,44.0352210999,64.783782959,64.783782959,17.0281238556,0.238229364157,0,0.0309264902025,0.0468800477684,0.156515091658,0.125588610768,-5.54229450226,-0.464600116014,-0.772834777832,-0.00806965772063,3.67181777954,0.07696595788,18.1145076752,0.515456795692,11.9291715622,95.7704544067,47.7070388794,35.1426315308,151
1.63084628888805E+018,107,1.63084628888805E+018,base_footprint,0,1.63084628888805E+018,map,-5.85112892269,-0.731704733739,0,0,0,0.00116920861521,0.999999316475,0,65.2505111694,18.3494300842,48.1801490784,96.7006225586,44.5085639954,44.5085639954,65.2505111694,65.2505111694,14.3055725098,0.258589565754,0,0.0380529090762,0.0298090893775,0.178072959185,0.140020057559,-6.34869384766,-0.529025375843,-0.933403015137,-0.00974658131599,3.52894973755,0.0734623745084,20.5311088562,0.589353203773,12.0007362366,95.7672195435,48.0375137329,34.836681366,156
1.63084628898817E+018,108,1.63084628898817E+018,base_footprint,0,1.63084628898817E+018,map,-5.56934947144,-0.729654915624,0,0,0,-0.00186413108463,0.999998262506,0,64.871421814,16.8509502411,47.9655647278,96.9263381958,44.8013191223,44.8013191223,64.871421814,64.871421814,25.1034603119,0.190225616097,0,0.0400826260448,0.0255992896855,0.19109852612,0.151015907526,-6.77593803406,-0.672548890114,-1.30062866211,-0.0136012444273,3.00015640259,0.0627628415823,9.78818321228,0.280530869961,10.075012207,95.6257095337,47.8014755249,34.8916435242,160
