%time,field.header.seq,field.header.stamp,field.header.frame_id,field.pose.header.seq,field.pose.header.stamp,field.pose.header.frame_id,field.pose.pose.position.x,field.pose.pose.position.y,field.pose.pose.position.z,field.pose.pose.orientation.x,field.pose.pose.orientation.y,field.pose.pose.orientation.z,field.pose.pose.orientation.w,field.label,field.main_output,field.scan_score,field.pose_score,field.cov_score,field.lhood_map_score,field.lhood_robot_score,field.lhood_map_score_all,field.lhood_robot_score_all,field.point_angle_diff,field.average_orientation,field.map_average_orientation,field.sensor_div,field.odom_div_x,field.odom_div_w,field.imu_div_w,field.kdtree_div,field.kdtree_div_p,field.cov_div,field.cov_div_p,field.likelihood_div,field.likelihood_div_p,field.normal_diff_div,field.normal_diff_div_p,field.kdtree_average,field.cov_average,field.likelihood_average,field.normal_diff_average,field.map_update_count
1.64952060229918E+018,0,1.64952060229918E+018,r1000913c5/base_footprint,0,1.64952060229918E+018,v/m1vw10zy74w/map,-15.3967628322,-0.600682892281,0,0,0,0.999967511915,0.00806071422642,0,63.8184509277,6.9359087944,100,93.8473892212,44.0970153809,44.0970153809,63.8184509277,63.8184509277,25.3662719727,0.0811510756612,0,0.00531834969297,0.629888653755,0.0129017354921,0.0182200856507,20.1327152252,0.743765711784,0.373817443848,0.00396744487807,7.05791854858,0.137971416116,5.38962554932,0.175238773227,27.0686240196,94.221206665048,51.15493392948,30.75589752202,359
1.64952060239762E+018,1,1.64952060239762E+018,r1000913c5/base_footprint,0,1.64952060239762E+018,v/m1vw10zy74w/map,-15.5289212922,-0.602328402846,0,0,0,-0.999935376327,0.0113685166019,0,64.317024231,39.8883628845,41.9923477173,93.4879379272,44.6289176941,44.6289176941,64.317024231,64.317024231,20.842508316,0.381741046906,0,0.00436884863302,0.628231585026,0.0146242463961,0.0189930945635,-6.92027282715,-0.209908217192,0.73600769043,0.00781125947833,6.71288299561,0.13074888289,3.29604721069,0.136546999216,32.96809005735,94.22394561763,51.34180068971,24.13855552669,843
1.64952060249785E+018,2,1.64952060249785E+018,r1000913c5/base_footprint,0,1.64952060249785E+018,v/m1vw10zy74w/map,-15.5348565795,-0.602374352998,0,0,0,-0.999940719711,0.0108883912809,0,64.6373443604,41.1764717102,42.8122367859,93.8126754761,45.0950126648,45.0950126648,64.6373443604,64.6373443604,21.2796230316,0.315201461315,0,0.00395925994962,0.627141833305,0.0149940550327,0.018953314051,-7.28898239136,-0.215093612671,0.413185119629,0.00438504992053,6.30558776855,0.12267537415,1.8334903717,0.0793268457055,33.88748931884,94.225860595729,51.40060043335,23.1131134033,1020
1.64952060269758E+018,3,1.64952060269758E+018,r1000913c5/base_footprint,0,1.64952060269758E+018,v/m1vw10zy74w/map,-15.5348565795,-0.602374352998,0,0,0,-0.999940719711,0.0108883912809,0,64.8871917725,39.029624939,43.7045974731,93.8126754761,45.5468254089,45.5468254089,64.8871917725,64.8871917725,21.6618518829,0.273189306259,0,0.00361877679825,0.621623575687,0.0120902666822,0.0157090444118,-5.14213562012,-0.151741415262,0.413185119629,0.00438504992053,5.85377502441,0.113885343075,1.45126152039,0.062789529562,33.88748931888,94.225860595729,51.40060043331,23.11311340329,1020
1.6495206027976E+018,4,1.6495206027976E+018,r1000913c5/base_footprint,0,1.6495206027976E+018,v/m1vw10zy74w/map,-15.6621050731,-0.601625671813,0,0,0,-0.99976116437,0.0218543866912,0,65.3539047241,41.1764717102,44.536819458,93.7742919922,45.9899024963,45.9899024963,65.3539047241,65.3539047241,17.9081459045,0.305332541466,0,0.0032552741468,0.614804983139,0.0187939535826,0.0220492277294,-9.09806060791,-0.283619433641,0.836410522461,0.00884054880589,3.4214630127,0.0692444518209,-0.683572769165,-0.0396859049797,32.07841110229,94.610702514661,49.411365509,17.224573135335,1597
1.64952060289765E+018,5,1.64952060289765E+018,r1000913c5/base_footprint,0,1.64952060289765E+018,v/m1vw10zy74w/map,-15.7853559894,-0.625003618598,0,0,0,-0.999328441608,0.0366424043034,0,65.5057983398,38.1263618469,45.198513031,93.7989654541,46.2953567505,46.2953567505,65.5057983398,65.5057983398,18.5617866516,0.386323094368,0,0.00390032818541,0.607678174973,0.0186272189021,0.0225275475532,-5.74019241333,-0.177242085338,0.824638366699,0.00871493294835,3.30042648315,0.0665465146303,-1.42014122009,-0.0828474238515,32.38616943357,94.623603820799,49.59578323365,17.14164543151,1653
1.6495206029982E+018,6,1.6495206029982E+018,r1000913c5/base_footprint,0,1.6495206029982E+018,v/m1vw10zy74w/map,-15.7853559894,-0.625003618598,0,0,0,-0.999328441608,0.0366424043034,0,65.498664856,35.9861602783,45.6643333435,93.7989654541,46.5349388123,46.5349388123,65.498664856,65.498664856,21.2776870728,0.374709159136,0,0.00106530066114,0.594484210014,0.0297376401722,0.0286723393947,-3.59999084473,-0.111158281565,0.824638366699,0.00871493294835,3.06084442139,0.0617158189416,-4.13604164124,-0.241286143661,32.38616943357,94.623603820799,49.59578323369,17.14164543156,1653
1.64952060309878E+018,7,1.64952060309878E+018,r1000913c5/base_footprint,0,1.64952060309878E+018,v/m1vw10zy74w/map,-15.9015758881,-0.662258133635,0,0,0,-0.998671689645,0.0515252976843,0,65.4880218506,26.9162216187,46.1462059021,93.7840881348,46.6731109619,46.6731109619,65.4880218506,65.4880218506,22.9078979492,0.494693309069,0,0.00111754285172,0.588877677917,0.0521824471653,0.0532999895513,5.98525238037,0.181914418936,0.8564453125,0.00904945563525,3.07636642456,0.0618371590972,-5.84550476074,-0.342595815659,32.90147399907,94.6405334473,49.74947738646,17.06239318846,1689
1.64952060349761E+018,8,1.64952060349761E+018,r1000913c5/base_footprint,0,1.64952060349761E+018,v/m1vw10zy74w/map,-15.9998874627,-0.670165580984,0,0,0,0.999987608082,0.00497832126567,0,65.7481689453,25.1336898804,46.5254058838,93.8121261597,46.740650177,46.740650177,65.7481689453,65.7481689453,19.0555839539,0.337873727083,0,0.00173012970481,0.575059235096,0.104420796037,0.106150925159,8.07117843628,0.243072137237,0.836364746094,0.00883653573692,3.01982116699,0.0606871508062,-2.23881912231,-0.133130192757,33.20486831668,94.648490905794,49.76047134399,16.81676483159,1668
1.64952060359749E+018,9,1.64952060359749E+018,r1000913c5/base_footprint,0,1.64952060359749E+018,v/m1vw10zy74w/map,-15.9998874627,-0.670165580984,0,0,0,0.999987608082,0.00497832126567,0,65.2337112427,41.1764717102,45.5197105408,93.8121261597,46.9062919617,46.9062919617,65.2337112427,65.2337112427,30.1048679352,0.280620068312,0,5.92589203734E-05,0.555832445621,0.120081193745,0.120140455663,-7.97160339355,-0.240073338151,0.836364746094,0.00883653573692,2.85417938232,0.0573583655059,-13.2881031036,-0.790170013905,33.20486831665,94.648490905794,49.76047134402,16.8167648316,1668
1.64952060369782E+018,10,1.64952060369782E+018,r1000913c5/base_footprint,0,1.64952060369782E+018,v/m1vw10zy74w/map,-16.0318267688,-0.678826016284,0,0,0,-0.995054565809,0.0993298095337,0,65.032875061,26.6837177277,44.9205322266,93.8467178345,46.8845024109,46.8845024109,65.032875061,65.032875061,33.6090583801,0.220632702112,0,0.00183647871017,0.532747626305,0.117047131062,0.115210652351,6.52115058899,0.196391403675,0.801773071289,0.00847106054425,2.87596893311,0.0577962547541,-16.7922935486,-0.998544812202,33.20486831669,94.648490905789,49.76047134401,16.8167648315,1668
1.64952060379764E+018,11,1.64952060379764E+018,r1000913c5/base_footprint,0,1.64952060379765E+018,v/m1vw10zy74w/map,-16.0316885655,-0.67824629847,0,0,0,-0.994737432155,0.102457020598,0,64.9084014893,27.2563991547,44.5749855042,94.2132720947,46.7304039001,46.7304039001,64.9084014893,64.9084014893,35.5048789978,0.274888753891,0,0.00126271264162,0.518199622631,0.107398472726,0.106135755777,5.94846916199,0.179144486785,0.435218811035,0.00459826458246,3.03006744385,0.0608930625021,-18.6881141663,-1.11127877235,33.20486831669,94.648490905735,49.76047134395,16.8167648315,1668
1.64952060389809E+018,12,1.64952060389809E+018,r1000913c5/base_footprint,0,1.64952060389809E+018,v/m1vw10zy74w/map,-16.0317202578,-0.677404799134,0,0,0,-0.987315564024,0.158770201975,0,64.9626922607,28.1544685364,44.3917808533,94.8672943115,46.4482040405,46.4482040405,64.9626922607,64.9626922607,33.8344078064,0.256392002106,0,0.00101455091499,0.481965333223,0.0906656309962,0.0896510779858,5.05039978027,0.152098178864,-0.218803405762,-0.00231174752116,3.31226730347,0.0665642246604,-17.0176429749,-1.01194512844,33.20486831667,94.648490905738,49.76047134397,16.8167648315,1668
1.64952060399773E+018,13,1.64952060399773E+018,r1000913c5/base_footprint,0,1.64952060399773E+018,v/m1vw10zy74w/map,-16.0289190048,-0.674859262048,0,0,0,-0.976350992032,0.216191443766,0,65.9262924194,25.9259262085,44.6169891357,94.7964324951,46.2270851135,46.2270851135,65.9262924194,65.9262924194,13.846449852,0.377588927746,0,0.000952991074882,0.435927718878,0.0852582752705,0.0843052864075,7.27894210815,0.219213098288,-0.147941589355,-0.00156306335703,3.53338623047,0.0710078924894,2.97031497955,0.1766282022,33.20486831665,94.648490905745,49.76047134397,16.81676483155,1668
1.64952060409762E+018,14,1.64952060409762E+018,r1000913c5/base_footprint,0,1.64952060409762E+018,v/m1vw10zy74w/map,-16.0288645628,-0.674271255978,0,0,0,-0.974855361325,0.222838561511,0,65.4008636475,29.7629508972,44.8668289185,94.7261428833,46.1260185242,46.1260185242,65.4008636475,65.4008636475,21.9595031738,0.368363797665,0,0.00420098565519,0.304235965014,0.0543932951987,0.0501923076808,3.44191741943,0.103657014668,-0.0776519775391,-0.000820424873382,3.63445281982,0.0730389580131,-5.14273834229,-0.305810213089,33.20486831663,94.6484909057609,49.76047134402,16.81676483151,1668
1.64952060419774E+018,15,1.64952060419774E+018,r1000913c5/base_footprint,0,1.64952060419774E+018,v/m1vw10zy74w/map,-16.0278420911,-0.673059388547,0,0,0,-0.961798404953,0.273758704391,0,65.4022903442,31.660900116,45.136264801,94.833770752,46.1479759216,46.1479759216,65.4022903442,65.4022903442,22.5585460663,0.406322449446,0,0.00407207850367,0.236260965466,0.0257719829679,0.0216999053955,1.54396820068,0.046498246491,-0.185279846191,-0.00195755739696,3.61249542236,0.0725976899266,-5.74178123474,-0.341431975365,33.20486831668,94.648490905809,49.76047134396,16.81676483156,1668
1.64952060429767E+018,16,1.64952060429767E+018,r1000913c5/base_footprint,0,1.64952060429767E+018,v/m1vw10zy74w/map,-16.0276762824,-0.670075497284,0,0,0,-0.944831666585,0.327556288016,0,65.3855895996,32.8976020813,45.3346862793,94.7975463867,46.1887321472,46.1887321472,65.3855895996,65.3855895996,23.1688098907,0.36666238308,0,0.00274611939676,0.205908760428,0.00915245246142,0.00640633329749,0.307266235352,0.00925364997238,-0.149055480957,-0.00157483213115,3.57173919678,0.0717786476016,-6.3520450592,-0.377720981836,33.204868316652,94.648490905743,49.76047134398,16.8167648315,1668
1.64952060439746E+018,17,1.64952060439746E+018,r1000913c5/base_footprint,0,1.64952060439746E+018,v/m1vw10zy74w/map,-16.0317775666,-0.674307239039,0,0,0,-0.921030198032,0.3894911736,0,65.6776046753,33.9366531372,45.4800643921,95.0563201904,46.3660163879,46.3660163879,65.6776046753,65.6776046753,20.7588195801,0.244844540954,0,0.00189418974333,0.182215169072,0.00247504701838,0.000580857216846,-0.731784820557,-0.0220384802669,-0.407829284668,-0.00430888310075,3.39445495605,0.0682158917189,-3.94205474854,-0.234412193298,33.204868316643,94.648490905732,49.76047134395,16.81676483156,1668
1.64952060449742E+018,18,1.64952060449742E+018,r1000913c5/base_footprint,0,1.64952060449742E+018,v/m1vw10zy74w/map,-16.0317775666,-0.674307239039,0,0,0,-0.921030198032,0.3894911736,0,65.6631622314,38.2835083008,45.5856018066,95.0563201904,46.7490844727,46.7490844727,65.6631622314,65.6631622314,25.1558704376,0.127915769815,0,0.00209323572926,0.167526960373,0.000106205035991,0.0021994409617,-5.07863998413,-0.152948662639,-0.407829284668,-0.00430888310075,3.01138687134,0.0605176500976,-8.33910560608,-0.495880484581,33.20486831667,94.648490905732,49.76047134404,16.81676483152,1668
1.64952060459768E+018,19,1.64952060459768E+018,r1000913c5/base_footprint,0,1.64952060459768E+018,v/m1vw10zy74w/map,-16.0314055048,-0.671104026705,0,0,0,-0.899577910674,0.436760326297,0,66.0638580322,39.6419448853,45.589630127,95.392036438,47.1663513184,47.1663513184,66.0638580322,66.0638580322,23.6584434509,0.232991427183,0,0.00144048407674,0.153246223927,0.0045142006129,0.00595468468964,-6.4370765686,-0.193859428167,-0.743545532227,-0.00785586237907,2.59412002563,0.0521321445704,-6.84167861938,-0.406836777925,33.2048683167,94.648490905773,49.76047134403,16.81676483152,1668
1.64952060469788E+018,20,1.64952060469788E+018,r1000913c5/base_footprint,0,1.64952060469788E+018,v/m1vw10zy74w/map,-16.0256626733,-0.666300109214,0,0,0,-0.871991925187,0.489520257404,0,66.5109710693,41.1764717102,46.4510993958,95.0538406372,47.5148925781,47.5148925781,66.5109710693,66.5109710693,18.1571884155,0.244992539287,0,0.000849221949466,0.145877942443,0.00918754842132,0.0100367702544,-7.97160339355,-0.240073338151,-0.405349731445,-0.00428268546239,2.24557876587,0.0451277643442,-1.34042358398,-0.0797075778246,33.20486831665,94.648490905755,49.76047134397,16.81676483152,1668
1.64952060479892E+018,21,1.64952060479892E+018,r1000913c5/base_footprint,0,1.64952060479892E+018,v/m1vw10zy74w/map,-16.0209411183,-0.66380268797,0,0,0,-0.841477583469,0.540292028925,0,66.1049041748,42.2084617615,46.3645782471,94.9618835449,47.7537536621,47.7537536621,66.1049041748,66.1049041748,27.7150993347,0.222452610731,0,0.000618869788013,0.136182412505,0.0179953128099,0.0186141822487,-9.00359344482,-0.271152824163,-0.31339263916,-0.00331112137064,2.00671768188,0.0403275452554,-10.8983345032,-0.648063659668,33.20486831668,94.64849090574,49.76047134398,16.8167648315,1668
1.64952060489753E+018,22,1.64952060489753E+018,r1000913c5/base_footprint,0,1.64952060489753E+018,v/m1vw10zy74w/map,-16.0209411183,-0.66380268797,0,0,0,-0.841477583469,0.540292028925,0,66.5621185303,45.5337677002,46.2546653748,94.9618835449,48.1996765137,48.1996765137,66.5621185303,66.5621185303,24.3011932373,0.209042668343,0,0.000302498112433,0.124645881355,0.0394577607512,0.0391552597284,-12.3288993835,-0.371297955513,-0.31339263916,-0.00331112137064,1.56079483032,0.0313661582768,-7.48442840576,-0.445057570934,33.2048683167,94.64849090574,49.76047134402,16.81676483154,1668
1.64952060499765E+018,23,1.64952060499765E+018,r1000913c5/base_footprint,0,1.64952060499765E+018,v/m1vw10zy74w/map,-16.019764515,-0.661911603985,0,0,0,-0.810831462028,0.585279711066,0,66.7992858887,42.2459907532,46.0779380798,95.0503158569,48.6133460999,48.6133460999,66.7992858887,66.7992858887,24.818151474,0.198709905148,0,9.66774314293E-05,0.118425130844,0.051784042269,0.0518807172775,-9.04112243652,-0.272283047438,-0.401824951172,-0.00424544466659,1.14712524414,0.0230529420078,-8.00138664246,-0.475798219442,33.20486831668,94.648490905728,49.76047134404,16.81676483154,1668
1.64952060509743E+018,24,1.64952060509743E+018,r1000913c5/base_footprint,0,1.64952060509743E+018,v/m1vw10zy74w/map,-16.0165992355,-0.658006863832,0,0,0,-0.778920911301,0.627122168272,0,66.9093170166,41.1764717102,45.8235092163,95.1642608643,48.927936554,48.927936554,66.9093170166,66.9093170166,26.645324707,0.299362063408,0,0.000245471979724,0.111048817635,0.0646640956402,0.0649095699191,-8.31508636475,-0.253035187721,-0.523750305176,-0.00553410267457,0.701622009277,0.0141371805221,-9.97202301025,-0.598083257675,32.86138534545,94.640510559124,49.629558563277,16.67330169675,1625
1.64952060529751E+018,25,1.64952060529751E+018,r1000913c5/base_footprint,0,1.64952060529751E+018,v/m1vw10zy74w/map,-16.0165992355,-0.658006863832,0,0,0,-0.778920911301,0.627122168272,0,67.3378448486,44.8204078674,45.5764503479,95.1642608643,49.2236366272,49.2236366272,67.3378448486,67.3378448486,22.1254653931,0.199709564447,0,0.000679612276144,0.105699799955,0.0568865798414,0.0562069676816,-11.959022522,-0.363923251629,-0.523750305176,-0.00553410267457,0.405921936035,0.00817903596908,-5.45216369629,-0.326999634504,32.8613853454,94.640510559124,49.629558563235,16.67330169681,1625
1.64952060549857E+018,26,1.64952060549857E+018,r1000913c5/base_footprint,0,1.64952060549857E+018,v/m1vw10zy74w/map,-16.0157410457,-0.657596589165,0,0,0,-0.746785795961,0.665064639679,0,67.364906311,39.6681747437,45.2608070374,95.0339889526,49.4337539673,49.4337539673,67.364906311,67.364906311,23.4386348724,0.26743388176,0,0.000964880513493,0.101813010871,0.0488316230476,0.047866743058,-6.80678939819,-0.207136407495,-0.393478393555,-0.00415761070326,0.195804595947,0.00394532224163,-6.76533317566,-0.405758470297,32.86138534551,94.640510559045,49.629558563247,16.67330169674,1625
1.64952060699855E+018,27,1.64952060699855E+018,r1000913c5/base_footprint,0,1.64952060699857E+018,v/m1vw10zy74w/map,-16.0139357458,-0.654175441716,0,0,0,-0.707190739118,0.707022813285,0,67.4906158447,35.8288764954,44.8031921387,95.4822921753,49.4763298035,49.4763298035,67.4906158447,67.4906158447,23.2494869232,0.255798071623,0,0.000394279457396,0.0199876185507,0.136945128441,0.137339398265,-2.9674911499,-0.0903032869101,-0.841781616211,-0.00889451708645,0.153228759766,0.00308744958602,-6.57618522644,-0.394414097071,32.8613853455,94.640510559089,49.629558563266,16.67330169676,1625
1.64952060709892E+018,28,1.64952060709892E+018,r1000913c5/base_footprint,0,1.64952060709892E+018,v/m1vw10zy74w/map,-16.0139357458,-0.654175441716,0,0,0,-0.707190739118,0.707022813285,0,67.3087158203,30.1194152832,44.3398628235,95.4822921753,49.1911010742,49.1911010742,67.3087158203,67.3087158203,23.4432277679,0.194059178233,0,0.00239851581864,0.0884009227157,0.091899164021,0.0942976847291,2.74197006226,0.083440490067,-0.841781616211,-0.00889451708645,0.438457489014,0.0088346041739,-6.76992607117,-0.406033933163,32.86138534546,94.640510559089,49.629558563214,16.67330169673,1625
1.64952060719809E+018,29,1.64952060719809E+018,r1000913c5/base_footprint,0,1.64952060719809E+018,v/m1vw10zy74w/map,-16.0139357458,-0.654175441716,0,0,0,-0.707190739118,0.707022813285,0,67.4963684082,32.3968391418,44.4922447205,95.4822921753,49.1376647949,49.1376647949,67.4963684082,67.4963684082,19.4883613586,0.156160458922,0,0.00275809294544,0.114627018571,0.108684979379,0.111443072557,0.464546203613,0.0141365369782,-0.841781616211,-0.00889451708645,0.491893768311,0.00991130620241,-2.81505966187,-0.168836370111,32.861385345413,94.640510559089,49.629558563211,16.67330169673,1625
1.64952060729772E+018,30,1.64952060729772E+018,r1000913c5/base_footprint,0,1.64952060729772E+018,v/m1vw10zy74w/map,-16.0047381922,-0.746954203297,0,0,0,-0.668522829757,0.743691620292,0,67.1417312622,30.6885547638,44.6769332886,95.2087249756,49.0200195312,49.0200195312,67.1417312622,67.1417312622,23.6164150238,0.297501862049,0,0.00291510671377,0.117014698684,0.111551187932,0.114466294646,2.94844245911,0.0876547470689,-0.550430297852,-0.00581491878256,0.892360687256,0.0178785435855,-6.72566986084,-0.398186683655,33.63699722291,94.658294677748,49.912380218456,16.89074516296,1707
1.64952060739737E+018,31,1.64952060739737E+018,r1000913c5/base_footprint,0,1.64952060739737E+018,v/m1vw10zy74w/map,-16.0013833121,-0.748761161232,0,0,0,-0.668249756586,0.743937001918,0,67.1536331177,23.9819011688,44.9473495483,95.1452255249,48.7680168152,48.7680168152,67.1536331177,67.1536331177,20.4519939423,0.341553717852,0,0.00449659256265,0.11408508569,0.114454835653,0.118951432407,9.65509605408,0.287037998438,-0.486930847168,-0.00514409085736,1.14436340332,0.0229274462909,-3.5612487793,-0.210840240121,33.63699722288,94.658294677732,49.91238021852,16.890745163,1707
1.64952060749773E+018,32,1.64952060749773E+018,r1000913c5/base_footprint,0,1.64952060749773E+018,v/m1vw10zy74w/map,-16.0013833121,-0.748761161232,0,0,0,-0.668249756586,0.743937001918,0,66.8233795166,25.0544662476,45.3243751526,95.1452255249,48.6097335815,48.6097335815,66.8233795166,66.8233795166,24.6870822906,0.291103631258,0,0.00648318324238,0.105114005506,0.114732839167,0.121216028929,8.58253097534,0.255151510239,-0.486930847168,-0.00514409085736,1.30264663696,0.0260986685753,-7.79633712769,-0.461574494839,33.63699722294,94.658294677732,49.91238021846,16.89074516291,1707
1.64952060759753E+018,33,1.64952060759753E+018,r1000913c5/base_footprint,0,1.64952060759753E+018,v/m1vw10zy74w/map,-15.9875418572,-0.862654485115,0,0,0,-0.65936127099,0.751826252746,0,66.7471618652,26.0249557495,45.3670921326,95.1769180298,48.406337738,48.406337738,66.7471618652,66.7471618652,23.976398468,0.294305860996,0,0.0065113529563,0.100278176367,0.109084933996,0.115596286952,8.42351150513,0.244525000453,-0.483673095703,-0.00510778883472,1.66397476196,0.0332327634096,-7.12245368958,-0.422598600388,34.44846725463,94.693244934097,50.07031249996,16.85394477842,1734
1.6495206076978E+018,34,1.6495206076978E+018,r1000913c5/base_footprint,0,1.6495206076978E+018,v/m1vw10zy74w/map,-15.9875418572,-0.862654485115,0,0,0,-0.65936127099,0.751826252746,0,66.7237472534,27.5362319946,45.8570671082,95.1769180298,48.1809196472,48.1809196472,66.7237472534,66.7237472534,21.9633255005,0.271589577198,0,0.00635271612555,0.0904208868742,0.080811329186,0.0871640443802,6.91223526001,0.200654357672,-0.483673095703,-0.00510778883472,1.88939285278,0.0377347916365,-5.10938072205,-0.303156375885,34.44846725461,94.693244934097,50.07031249998,16.85394477845,1734
1.64952060779851E+018,35,1.64952060779851E+018,r1000913c5/base_footprint,0,1.64952060779851E+018,v/m1vw10zy74w/map,-15.9758887996,-0.979401964804,0,0,0,-0.669652955203,0.742674167847,0,66.531036377,28.7247753143,46.2829818726,95.1024093628,47.9606399536,47.9606399536,66.531036377,66.531036377,22.7849903107,0.289658695459,0,0.00482567818835,0.08706664294,0.0582041852176,0.0630298629403,6.63123893738,0.187556177378,-0.395378112793,-0.00417474936694,2.19269943237,0.0437199100852,-5.93559837341,-0.352273732424,35.35601425168,94.707031250007,50.15333938597,16.84939193729,1752
1.64952060789804E+018,36,1.64952060789804E+018,r1000913c5/base_footprint,0,1.64952060789805E+018,v/m1vw10zy74w/map,-15.9758887996,-0.979401964804,0,0,0,-0.669652955203,0.742674167847,0,66.3436431885,27.8660373688,46.6766777039,95.1024093628,47.8017997742,47.8017997742,66.3436431885,66.3436431885,24.4424858093,0.241558551788,0,0.00168037065305,0.0836272537708,0.0402861572802,0.0419665277004,7.48997688293,0.211844488978,-0.395378112793,-0.00417474936694,2.35153961182,0.0468869991601,-7.59309387207,-0.45064496994,35.35601425173,94.707031250007,50.15333938602,16.84939193723,1752
1.64952060799762E+018,37,1.64952060799762E+018,r1000913c5/base_footprint,0,1.64952060799762E+018,v/m1vw10zy74w/map,-15.9758887996,-0.979401964804,0,0,0,-0.669652955203,0.742674167847,0,66.2586135864,29.7503166199,46.9910507202,95.1024093628,47.6669464111,47.6669464111,66.2586135864,66.2586135864,24.5166549683,0.296695232391,0,0.000269474083325,0.0802885964513,0.0279076099396,0.0281770844012,5.60569763184,0.158550038934,-0.395378112793,-0.00417474936694,2.48639297485,0.0495758205652,-7.66726303101,-0.455046862364,35.35601425174,94.707031250007,50.15333938595,16.84939193729,1752
1.64952060809759E+018,38,1.64952060809759E+018,r1000913c5/base_footprint,0,1.64952060809759E+018,v/m1vw10zy74w/map,-15.9687851312,-1.09845823024,0,0,0,-0.69088935278,0.72296051221,0,66.4070281982,30.9462909698,47.2406425476,95.4007873535,47.5908317566,47.5908317566,66.4070281982,66.4070281982,22.0973358154,0.238745629787,0,0.000841908913571,0.0724533051252,0.0255115404725,0.026353450492,5.4505405426,0.149753153324,-0.72631072998,-0.00767166353762,2.90776062012,0.0575810223818,-6.29366779327,-0.398240953684,36.3968315124,94.67447662352,50.49859237672,15.80366802213,1821
1.64952060819773E+018,39,1.64952060819773E+018,r1000913c5/base_footprint,0,1.64952060819774E+018,v/m1vw10zy74w/map,-15.9687851312,-1.09845823024,0,0,0,-0.69088935278,0.72296051221,0,66.4579849243,33.8772010803,47.0157775879,95.4007873535,47.4667854309,47.4667854309,66.4579849243,66.4579849243,19.8404121399,0.272998094559,0,0.0015328139998,0.0679916739464,0.0219445340335,0.0234773475677,2.51963043213,0.0692266449332,-0.72631072998,-0.00767166353762,3.0318069458,0.0600374527276,-4.03674411774,-0.255430847406,36.39683151243,94.67447662352,50.4985923767,15.80366802216,1821
1.64952060829772E+018,40,1.64952060829772E+018,r1000913c5/base_footprint,0,1.64952060829772E+018,v/m1vw10zy74w/map,-15.9696945384,-1.2166463808,0,0,0,-0.715859753931,0.698244092493,0,66.2073364258,35.2088661194,46.9160079956,95.249458313,47.4367713928,47.4367713928,66.2073364258,66.2073364258,23.4831809998,0.243329793215,0,0.00151655252557,0.0649051070213,0.0153381107375,0.0168546643108,2.21061325073,0.0590765364468,-0.324546813965,-0.0034189845901,3.51417541504,0.0689717382193,-9.81511688232,-0.718105852604,37.41947937013,94.924911499035,50.95094680784,13.66806411748,1342
1.64952060839755E+018,41,1.64952060839755E+018,r1000913c5/base_footprint,0,1.64952060839755E+018,v/m1vw10zy74w/map,-15.9715629835,-1.22324700536,0,0,0,-0.71400748451,0.700138066429,0,66.3651733398,36.383441925,46.8162384033,95.4890594482,47.420501709,47.420501709,66.3651733398,66.3651733398,21.3289451599,0.285826802254,0,0.00115412147716,0.0633112043142,0.0111676650122,0.012321786955,1.03603744507,0.0276871155947,-0.564147949219,-0.00594309670851,3.53044509888,0.0692910626531,-7.66088104248,-0.560494959354,37.41947937007,94.924911498981,50.95094680788,13.66806411742,1342
1.64952060849759E+018,42,1.64952060849759E+018,r1000913c5/base_footprint,0,1.6495206084976E+018,v/m1vw10zy74w/map,-15.9715629835,-1.22324700536,0,0,0,-0.71400748451,0.700138066429,0,66.3216247559,40.3114204407,46.4817352295,95.4890594482,47.4740409851,47.4740409851,66.3216247559,66.3216247559,22.6909427643,0.269418954849,0,0.00061202282086,0.0617769882083,0.00705839600414,0.007670418825,-2.89194107056,-0.077284373343,-0.564147949219,-0.00594309670851,3.47690582275,0.068240262568,-9.02287864685,-0.660143136978,37.41947937014,94.924911498981,50.95094680785,13.66806411745,1342
1.64952060859816E+018,43,1.64952060859816E+018,r1000913c5/base_footprint,0,1.64952060859816E+018,v/m1vw10zy74w/map,-15.9715629835,-1.22324700536,0,0,0,-0.71400748451,0.700138066429,0,66.4499893188,37.7162628174,45.9424209595,95.4890594482,47.5398712158,47.5398712158,66.4499893188,66.4499893188,21.0913467407,0.309229999781,0,0.000966735882685,0.0569967366755,0.00597375398502,0.00694048963487,-0.296783447266,-0.00793125573546,-0.564147949219,-0.00594309670851,3.41107559204,0.0669482275844,-7.42328262329,-0.543111503124,37.419479370134,94.924911498981,50.95094680784,13.66806411741,1342
1.64952060869854E+018,44,1.64952060869854E+018,r1000913c5/base_footprint,0,1.64952060869854E+018,v/m1vw10zy74w/map,-15.9758011562,-1.34101937096,0,0,0,-0.73281211194,0.680431046171,0,66.39012146,39.8692817688,45.5252914429,95.0676040649,47.639957428,47.639957428,66.39012146,66.39012146,21.7327194214,0.34786310792,0,0.00292895874009,0.0493270494044,0.0218968652189,0.0248258244246,-1.49085617065,-0.03884620592,-0.136001586914,-0.00143262709025,3.4193611145,0.0669684037566,-8.31380844116,-0.619559109211,38.37842559815,94.931602477986,51.0593185425,13.41891098024,1342
1.64952060879764E+018,45,1.64952060879764E+018,r1000913c5/base_footprint,0,1.64952060879764E+018,v/m1vw10zy74w/map,-15.9759725495,-1.35802627056,0,0,0,-0.734498894178,0.678609883845,0,66.5590133667,38.1263618469,44.9228096008,94.9773178101,47.8530006409,47.8530006409,66.5590133667,66.5590133667,20.6685180664,0.322248399258,0,0.00372605607845,0.0399551130831,0.0354252122343,0.0391512699425,0.252063751221,0.0065678502433,-0.0457153320312,-0.00048156073899,3.20631790161,0.0627959370613,-7.24960708618,-0.54025298357,38.378425598121,94.9316024780688,51.05931854251,13.41891098022,1342
1.64952060889772E+018,46,1.64952060889772E+018,r1000913c5/base_footprint,0,1.64952060889772E+018,v/m1vw10zy74w/map,-15.9759725495,-1.35802627056,0,0,0,-0.734498894178,0.678609883845,0,66.8434066772,38.618927002,44.3303756714,94.9773178101,48.2003097534,48.2003097534,66.8434066772,66.8434066772,19.3003673553,0.261848270893,0,0.000765387783758,0.0169198587537,0.0471598953009,0.047925285995,-0.240501403809,-0.00626657810062,-0.0457153320312,-0.00048156073899,2.85900878906,0.0559938699007,-5.88145637512,-0.438296109438,38.378425598191,94.9316024780688,51.05931854246,13.41891098018,1342
1.64952061069811E+018,47,1.64952061069811E+018,r1000913c5/base_footprint,0,1.64952061069811E+018,v/m1vw10zy74w/map,-15.9857078856,-1.85576369145,0,0,0,-0.71183013482,0.702351663458,0,66.9763641357,42.4460449219,43.8634986877,94.6748428345,48.4989814758,48.4989814758,66.9763641357,66.9763641357,19.0439014435,0.403207033873,0,0.003554336261,0.0770505741239,0.0542771369219,0.0578314736485,7.19897842407,0.145009070635,-0.0188217163086,-0.000198843306862,6.6863822937,0.121162243187,-3.78521442413,-0.24806946516,49.64502334597,94.6560211181914,55.1853637695,15.25868701937,904
1.64952061149757E+018,48,1.64952061149757E+018,r1000913c5/base_footprint,0,1.64952061149757E+018,v/m1vw10zy74w/map,-16.0037250699,-2.08884518003,0,0,0,-0.712100385056,0.702077660664,0,67.337272644,55.462184906,43.4589767456,94.4827651978,49.0119400024,49.0119400024,67.337272644,67.337272644,17.39594841,0.617339134216,0,0.00138880661689,0.0315271690488,0.009756132029,0.00836732517928,-2.99231338501,-0.0570291727781,0.271118164062,0.00286128814332,6.26892471313,0.113401353359,-1.67803764343,-0.10675958544,52.46987152099,94.753883361862,55.28086471553,15.71791076657,627
1.64952061299765E+018,49,1.64952061299765E+018,r1000913c5/base_footprint,0,1.64952061299765E+018,v/m1vw10zy74w/map,-16.0067708612,-2.33609882193,0,0,0,-0.712489236743,0.701683039217,0,67.5948104858,40.7341880798,43.3288040161,94.7430725098,49.1972122192,49.1972122192,67.5948104858,67.5948104858,15.6983833313,1.01099598408,0,0.000698623538483,0.124625742435,0.0165903214365,0.0172889456153,11.0059776306,0.212716326118,-0.0235366821289,-0.000248488155194,5.918384552,0.107381299138,-0.625221252441,-0.0414791032672,51.7401657104,94.7195358276711,55.1155967712,15.073162078859,470
1.6495206130976E+018,50,1.6495206130976E+018,r1000913c5/base_footprint,0,1.6495206130976E+018,v/m1vw10zy74w/map,-16.0067708612,-2.33609882193,0,0,0,-0.712489236743,0.701683039217,0,67.4159393311,39.8084831238,43.1369972229,94.7430725098,49.3371810913,49.3371810913,67.4159393311,67.4159393311,20.4296989441,0.973755538464,0,0.000427529186709,0.193058863282,0.00259314314462,0.00216561392881,11.9316825867,0.23060773313,-0.0235366821289,-0.000248488155194,5.77841567993,0.10484175384,-5.35653686523,-0.355369150639,51.7401657105,94.7195358276711,55.11559677123,15.07316207887,470
1.64952061319764E+018,51,1.64952061319764E+018,r1000913c5/base_footprint,0,1.64952061319764E+018,v/m1vw10zy74w/map,-16.0067708612,-2.33609882193,0,0,0,-0.712489236743,0.701683039217,0,67.5798950195,38.5026741028,43.0548210144,94.7430725098,49.4807357788,49.4807357788,67.5798950195,67.5798950195,19.0288543701,0.969003856182,0,0.000188006699318,0.214019089937,0.0080323042348,0.00784429814667,13.2374916077,0.255845546722,-0.0235366821289,-0.000248488155194,5.63486099243,0.102237142622,-3.95569229126,-0.262432813644,51.7401657105,94.7195358276711,55.11559677123,15.07316207884,470
1.64952061329745E+018,52,1.64952061329745E+018,r1000913c5/base_footprint,0,1.64952061329745E+018,v/m1vw10zy74w/map,-16.0067708612,-2.33609882193,0,0,0,-0.712489236743,0.701683039217,0,67.5651702881,34.9376106262,43.1868133545,94.7430725098,49.5561485291,49.5561485291,67.5651702881,67.5651702881,20.108423233,1.02638065815,0,0.000288904819172,0.211674526334,0.0136006874964,0.0138895921409,16.8025550842,0.324748754501,-0.0235366821289,-0.000248488155194,5.55944824219,0.100868873298,-5.03526115417,-0.334054738283,51.7401657104,94.7195358276711,55.11559677129,15.07316207883,470
1.64952061339802E+018,53,1.64952061339802E+018,r1000913c5/base_footprint,0,1.64952061339802E+018,v/m1vw10zy74w/map,-16.0131192857,-2.21200326225,0,0,0,-0.71779164549,0.696257964885,0,67.3998184204,33.2748031616,43.2381973267,94.7296981812,49.6079940796,49.6079940796,67.3998184204,67.3998184204,23.5965270996,1.03474223614,0,0.000877969840076,0.206267356873,0.0178378466517,0.0187158156186,18.7724914551,0.360681414604,0.0241622924805,0.00025500060292,5.52883148193,0.1002747491,-8.37620067596,-0.55032992363,52.0472946167,94.7538604736805,55.13682556153,15.22032642364,523
1.64952061349811E+018,54,1.64952061349811E+018,r1000913c5/base_footprint,0,1.64952061349811E+018,v/m1vw10zy74w/map,-16.0139666574,-2.22125478596,0,0,0,-0.718061117772,0.695980050824,0,67.5022583008,32.2894630432,43.4208679199,95.0114746094,49.6565475464,49.6565475464,67.5022583008,67.5022583008,23.2913722992,1.02912974358,0,6.05802124483E-05,0.189859628677,0.0188503023237,0.0187897216529,19.7578315735,0.379613041878,-0.257614135742,-0.00271877204068,5.48027801514,0.0993941500783,-8.07104587555,-0.530280709267,52.0472946167,94.753860473658,55.13682556154,15.22032642365,523
1.64952061359826E+018,55,1.64952061359826E+018,r1000913c5/base_footprint,0,1.64952061359826E+018,v/m1vw10zy74w/map,-16.0139666574,-2.22125478596,0,0,0,-0.718061117772,0.695980050824,0,67.8516159058,29.9307956696,43.8187179565,95.0114746094,49.860748291,49.860748291,67.8516159058,67.8516159058,19.2082996368,1.06613612175,0,4.42083801317E-05,0.180977478623,0.0172874275595,0.0172432195395,22.1164989471,0.424930810928,-0.257614135742,-0.00271877204068,5.27607727051,0.0956906229258,-3.9879732132,-0.262016266584,52.0472946167,94.753860473658,55.13682556151,15.2203264236,523
1.64952061369759E+018,56,1.64952061369759E+018,r1000913c5/base_footprint,0,1.64952061369759E+018,v/m1vw10zy74w/map,-16.0045033295,-2.09491516132,0,0,0,-0.71452156007,0.699613421966,0,67.7429733276,26.7973861694,44.2118682861,94.9717788696,50.0939331055,50.0939331055,67.7429733276,67.7429733276,23.5393829346,1.08003473282,0,0.000505570787936,0.169908955693,0.0180040039122,0.0185095760971,25.6724853516,0.48928052187,-0.217895507812,-0.00229959446006,5.18693161011,0.0938287004828,-7.82147216797,-0.497615247965,52.469871521,94.753883361788,55.28086471561,15.71791076663,627
1.64952061390992E+018,57,1.64952061390992E+018,r1000913c5/base_footprint,0,1.64952061390992E+018,v/m1vw10zy74w/map,-16.0069954428,-2.08235138652,0,0,0,-0.715278775736,0.698839232572,0,67.7010192871,29.7629508972,44.8364677429,95.3837890625,50.2919998169,50.2919998169,67.7010192871,67.7010192871,27.9169101715,1.04968678951,0,0.000180662755156,0.164945498109,0.0187684800476,0.0189491435885,22.7069206238,0.432761132717,-0.629905700684,-0.00664780894294,4.98886489868,0.090245783329,-12.1989994049,-0.776120901108,52.469871521,94.753883361816,55.28086471558,15.7179107666,627
1.64952061409749E+018,58,1.64952061409749E+018,r1000913c5/base_footprint,0,1.64952061409749E+018,v/m1vw10zy74w/map,-16.0069954428,-2.08235138652,0,0,0,-0.715278775736,0.698839232572,0,67.8392791748,26.5811595917,45.6177215576,95.3837890625,50.5349807739,50.5349807739,67.8392791748,67.8392791748,28.0524787903,1.06758284569,0,0.000520455592778,0.159720897675,0.0196662247181,0.0191457681358,25.8887119293,0.4934014678,-0.629905700684,-0.00664780894294,4.74588394165,0.0858503952622,-12.3345680237,-0.784746050835,52.469871521,94.753883361816,55.28086471555,15.7179107666,627
1.64952061420547E+018,59,1.64952061420547E+018,r1000913c5/base_footprint,0,1.64952061420547E+018,v/m1vw10zy74w/map,-16.0069954428,-2.08235138652,0,0,0,-0.715278775736,0.698839232572,0,67.8082351685,30.6409130096,46.1747322083,95.3837890625,50.723274231,50.723274231,67.8082351685,67.8082351685,30.6448402405,1.02954757214,0,0.000638836587314,0.157168135047,0.0198846329004,0.0192457959056,21.8289585114,0.416028439999,-0.629905700684,-0.00664780894294,4.55759048462,0.0824442654848,-14.9269294739,-0.949676454067,52.469871521,94.753883361816,55.28086471562,15.7179107666,627
1.64952061439933E+018,60,1.64952061439933E+018,r1000913c5/base_footprint,0,1.64952061439933E+018,v/m1vw10zy74w/map,-16.0069954428,-2.08235138652,0,0,0,-0.715278775736,0.698839232572,0,67.9772720337,26.2510967255,46.778377533,95.3837890625,50.8322906494,50.8322906494,67.9772720337,67.9772720337,28.7795162201,1.01613628864,0,0.000977845280431,0.152905419469,0.019676970318,0.0186991244555,26.2187747955,0.499691992998,-0.629905700684,-0.00664780894294,4.44857406616,0.0804722234607,-13.0616054535,-0.831001400948,52.469871521,94.753883361816,55.28086471556,15.7179107666,627
1.64952061449808E+018,61,1.64952061449808E+018,r1000913c5/base_footprint,0,1.64952061449808E+018,v/m1vw10zy74w/map,-16.0079948743,-1.95779207474,0,0,0,-0.716753643203,0.697326476591,0,67.8898696899,23.9274654388,47.449016571,95.3296508789,50.922744751,50.922744751,67.8898696899,67.8898696899,31.1346721649,1.06551527977,0,0.000869044044521,0.152907058597,0.0197176653892,0.0188486203551,25.7357158661,0.518205165863,-0.67626953125,-0.00714469468221,4.27783203125,0.0774961486459,-16.0627975464,-1.06574654579,49.6631813049,94.65338134765,55.20057678225,15.0718746185,847
1.64952061459751E+018,62,1.64952061459751E+018,r1000913c5/base_footprint,0,1.64952061459751E+018,v/m1vw10zy74w/map,-16.0068040935,-1.93598687162,0,0,0,-0.71707229401,0.696998798538,0,68.2258453369,24.2424240112,47.9431915283,95.579574585,51.0418357849,51.0418357849,68.2258453369,68.2258453369,27.2730712891,1.05771529675,0,0.000875642639585,0.151177510619,0.0193909853697,0.0185153428465,25.4207572937,0.511863231659,-0.926193237305,-0.00978510454297,4.15874099731,0.0753387212753,-12.2011966705,-0.809534132481,49.6631813049,94.653381347695,55.20057678221,15.0718746186,847
1.64952061469898E+018,63,1.64952061469898E+018,r1000913c5/base_footprint,0,1.64952061469898E+018,v/m1vw10zy74w/map,-16.0068040935,-1.93598687162,0,0,0,-0.71707229401,0.696998798538,0,68.1932525635,23.0429019928,48.3375282288,95.579574585,51.1196060181,51.1196060181,68.1932525635,68.1932525635,28.6996212006,1.0396283865,0,0.00233731116168,0.146351262927,0.0147969219834,0.0124596105888,26.6202793121,0.536016404629,-0.926193237305,-0.00978510454297,4.08097076416,0.0739298537374,-13.627746582,-0.904183924198,49.6631813049,94.653381347695,55.20057678226,15.0718746186,847
1.64952061479778E+018,64,1.64952061479778E+018,r1000913c5/base_footprint,0,1.64952061479778E+018,v/m1vw10zy74w/map,-16.0068040935,-1.93598687162,0,0,0,-0.71707229401,0.696998798538,0,68.3443527222,23.6172084808,48.7306785583,95.579574585,51.3024215698,51.3024215698,68.3443527222,68.3443527222,27.9543323517,0.95466530323,0,0.00197478663176,0.143025800586,0.0115109393373,0.00953615177423,26.0459728241,0.524452388287,-0.926193237305,-0.00978510454297,3.8981552124,0.070618018508,-12.8824577332,-0.854734957218,49.6631813049,94.653381347695,55.2005767822,15.0718746185,847
1.64952061490344E+018,65,1.64952061490344E+018,r1000913c5/base_footprint,0,1.64952061490344E+018,v/m1vw10zy74w/map,-16.0068040935,-1.93598687162,0,0,0,-0.71707229401,0.696998798538,0,68.3663024902,21.2737731934,48.8598327637,95.579574585,51.4195480347,51.4195480347,68.3663024902,68.3663024902,28.824180603,0.993106842041,0,0.00179183750879,0.138813883066,0.00940977223217,0.00761793460697,28.3894081116,0.571638941765,-0.926193237305,-0.00978510454297,3.78102874756,0.0684961825609,-13.7523059845,-0.91244828701,49.663181305,94.653381347695,55.20057678226,15.0718746185,847
1.64952061500433E+018,66,1.64952061500433E+018,r1000913c5/base_footprint,0,1.64952061500433E+018,v/m1vw10zy74w/map,-16.0068040935,-1.93598687162,0,0,0,-0.71707229401,0.696998798538,0,68.325340271,23.6172084808,49.0057220459,95.579574585,51.4805793762,51.4805793762,68.325340271,68.325340271,30.2206230164,0.962040901184,0,0.00192709860858,0.133286058903,0.00826649088413,0.0063393926248,26.0459728241,0.524452388287,-0.926193237305,-0.00978510454297,3.71999740601,0.0673905536532,-15.1487483978,-1.00510048866,49.6631813049,94.653381347695,55.20057678221,15.0718746186,847
1.64952061519759E+018,67,1.64952061519759E+018,r1000913c5/base_footprint,0,1.6495206151976E+018,v/m1vw10zy74w/map,-16.0044005569,-1.82365232751,0,0,0,-0.716375764083,0.697714672796,0,68.5466308594,25.0544662476,53.9976730347,95.5370788574,51.6147422791,51.6147422791,68.5466308594,68.5466308594,27.5333919525,0.905714035034,0,0.000878635677509,0.109867751598,0.0134752234444,0.0125965876505,24.5905570984,0.495327740908,-0.881057739258,-0.00930799450725,3.57062149048,0.0647023245692,-12.2747049332,-0.804440438747,49.645023346,94.656021118142,55.18536376958,15.2586870193,904
1.64952061529818E+018,68,1.64952061529818E+018,r1000913c5/base_footprint,0,1.64952061529818E+018,v/m1vw10zy74w/map,-16.0017551856,-1.8007276627,0,0,0,-0.715410017138,0.6987048786,0,68.7123565674,31.0039806366,49.9635162354,95.7370223999,51.563041687,51.563041687,68.7123565674,68.7123565674,24.7117595673,0.945078790188,0,0.0011476627551,0.0981117784977,0.0129286805168,0.011781017296,19.3363628387,0.384112656116,-1.03763580322,-0.0109571544454,3.76796340942,0.0680985897779,-9.18145370483,-0.591195940971,50.3403434753,94.69938659668,55.33100509642,15.53030586247,865
1.64952061539795E+018,69,1.64952061539795E+018,r1000913c5/base_footprint,0,1.64952061539795E+018,v/m1vw10zy74w/map,-16.0017551856,-1.8007276627,0,0,0,-0.715410017138,0.6987048786,0,68.8316192627,27.8074874878,49.0616073608,95.7370223999,51.5332527161,51.5332527161,68.8316192627,68.8316192627,22.2432727814,0.938926517963,0,0.00107252784073,0.0913589298725,0.0116367600858,0.0105642331764,22.5328559875,0.447610288858,-1.03763580322,-0.0109571544454,3.79775238037,0.0686369687319,-6.71296691895,-0.432249486446,50.3403434753,94.69938659668,55.33100509647,15.53030586245,865
1.64952061549748E+018,70,1.64952061549748E+018,r1000913c5/base_footprint,0,1.64952061549748E+018,v/m1vw10zy74w/map,-16.0033422905,-1.66978184909,0,0,0,-0.713810645663,0.700338748134,0,69.0707397461,26.2510967255,49.011505127,95.6610031128,51.6202278137,51.6202278137,69.0707397461,69.0707397461,18.6047477722,0.891050100327,0,0.00111551070586,0.084766857326,0.0110114691779,0.0098959589377,23.6797389984,0.474250793457,-0.974937438965,-0.0102965245023,3.78293609619,0.0682801455259,-2.31436347961,-0.142069295049,49.9308357239,94.686065673835,55.40316390989,16.29038429259,854
1.64952061559749E+018,71,1.64952061559749E+018,r1000913c5/base_footprint,0,1.64952061559749E+018,v/m1vw10zy74w/map,-16.0033422905,-1.66978184909,0,0,0,-0.713810645663,0.700338748134,0,68.8649749756,25.1336898804,49.0302658081,95.6610031128,51.6559295654,51.6559295654,68.8649749756,68.8649749756,22.6940917969,0.826119959354,0,0.0011565258028,0.0707924440503,0.0099656721577,0.00880914647132,24.7971458435,0.49662989378,-0.974937438965,-0.0102965245023,3.74723434448,0.0676357448101,-6.40370750427,-0.393097400665,49.9308357239,94.686065673835,55.40316390988,16.29038429263,854
1.6495206156976E+018,72,1.6495206156976E+018,r1000913c5/base_footprint,0,1.6495206156976E+018,v/m1vw10zy74w/map,-16.0033422905,-1.66978184909,0,0,0,-0.713810645663,0.700338748134,0,68.7326049805,24.8120307922,49.0086250305,95.6610031128,51.5489845276,51.5489845276,68.7326049805,68.7326049805,23.9217262268,0.841551840305,0,0.00112708075903,0.0660770237446,0.00953176710755,0.00840468611568,25.1188049316,0.503071963787,-0.974937438965,-0.0102965245023,3.85417938232,0.0695660486817,-7.6313419342,-0.468456834555,49.9308357238,94.686065673835,55.40316390992,16.2903842926,854
1.64952061579847E+018,73,1.64952061579847E+018,r1000913c5/base_footprint,0,1.64952061579847E+018,v/m1vw10zy74w/map,-16.0046693972,-1.53549076113,0,0,0,-0.71467326295,0.699458452822,0,68.6852722168,22.4598922729,48.941204071,95.7877502441,51.3971176147,51.3971176147,68.6852722168,68.6852722168,23.5898132324,0.639121592045,0,0.00125058542471,0.0548458620906,0.00877384562045,0.00752326007932,25.342124939,0.530147612095,-1.11717987061,-0.0118007091805,3.77730941772,0.0684612318873,-6.39068222046,-0.371570050716,47.8020172119,94.67057037349,55.17442703242,17.19913101194,811
1.64952061589837E+018,74,1.64952061589837E+018,r1000913c5/base_footprint,0,1.64952061589838E+018,v/m1vw10zy74w/map,-16.0046693972,-1.53549076113,0,0,0,-0.71467326295,0.699458452822,0,68.6934738159,23.6172084808,48.8034324646,95.7877502441,51.3342704773,51.3342704773,68.6934738159,68.6934738159,22.7634468079,0.593720376492,0,0.00105930876452,0.0454344078898,0.00858256872743,0.00752326007932,24.1848087311,0.505936980247,-1.11717987061,-0.0118007091805,3.84015655518,0.0696002990007,-5.5643157959,-0.323523074389,47.8020172119,94.67057037349,55.17442703248,17.199131012,811
1.64952061599742E+018,75,1.64952061599742E+018,r1000913c5/base_footprint,0,1.64952061599742E+018,v/m1vw10zy74w/map,-15.9968136006,-1.40712162876,0,0,0,-0.715667901666,0.698440730861,0,68.6617050171,22.7392444611,48.753364563,95.5250015259,51.2963676453,51.2963676453,68.6617050171,68.6617050171,21.9800109863,0.520935177803,0,0.00163831107784,0.03702846542,0.00853990390897,0.00690159248188,16.1256427765,0.414915472269,-0.59130859375,-0.00622864859179,-0.168334960938,-0.00329242018051,-8.71555137634,-0.657060444355,38.8648872376,94.93369293215,51.128032684362,13.26445960996,1343
1.64952061619761E+018,76,1.64952061619761E+018,r1000913c5/base_footprint,0,1.64952061619761E+018,v/m1vw10zy74w/map,-15.9958626522,-1.40508378212,0,0,0,-0.716055939289,0.698042901123,0,68.3226928711,25.0544662476,48.6772193909,95.6715316772,51.2089500427,51.2089500427,68.3226928711,68.3226928711,27.6657295227,0.504924297333,0,0.00126866321079,0.0278924312443,0.00817025545985,0.00690159248188,13.81042099,0.355344414711,-0.737838745117,-0.00777214812115,-0.0809173583984,-0.0015826417366,-14.4012699127,-1.08570349216,38.8648872376,94.933692932083,51.1280326843016,13.26445961,1343
1.64952061629767E+018,77,1.64952061629767E+018,r1000913c5/base_footprint,0,1.64952061629767E+018,v/m1vw10zy74w/map,-15.988296393,-1.27244043737,0,0,0,-0.715434565363,0.698679742575,0,68.6552963257,21.5686283112,48.6860466003,95.7826309204,51.167766571,51.167766571,68.6552963257,68.6552963257,21.6339931488,0.478051275015,0,0.000866117945407,0.0217645503581,0.00776771036908,0.00690159248188,16.3363666534,0.430981904268,-0.852890014648,-0.00898443441838,-0.145442962646,-0.00285057513975,-8.08465766907,-0.596682965755,37.9049949646,94.929740905752,51.022323608354,13.54933547973,1345
1.64952061639767E+018,78,1.64952061639767E+018,r1000913c5/base_footprint,0,1.64952061639767E+018,v/m1vw10zy74w/map,-15.988296393,-1.27244043737,0,0,0,-0.715434565363,0.698679742575,0,68.6997451782,20.6971683502,48.7638130188,95.7826309204,51.0650634766,51.0650634766,68.6997451782,68.6997451782,19.7247924805,0.332904011011,0,0.000869495153893,0.017470408231,0.0077710878104,0.00690159248188,17.2078266144,0.453972548246,-0.852890014648,-0.00898443441838,-0.0427398681641,-0.000837669940665,-6.17545700073,-0.455775648355,37.9049949646,94.929740905752,51.0223236084359,13.54933547977,1345
1.64952061649764E+018,79,1.64952061649764E+018,r1000913c5/base_footprint,0,1.64952061649764E+018,v/m1vw10zy74w/map,-15.988296393,-1.27244043737,0,0,0,-0.715434565363,0.698679742575,0,68.5687866211,22.1583366394,48.8415794373,95.7826309204,50.8848724365,50.8848724365,68.5687866211,68.5687866211,20.1359138489,0.395906627178,0,0.000684057944454,0.0112824197859,0.00758565077558,0.00690159248188,15.7466583252,0.415424346924,-0.852890014648,-0.00898443441838,0.137451171875,0.00269394181669,-6.58657836914,-0.486118197441,37.9049949646,94.929740905752,51.022323608375,13.54933547976,1345
1.64952061659765E+018,80,1.64952061659765E+018,r1000913c5/base_footprint,0,1.64952061659765E+018,v/m1vw10zy74w/map,-15.9856335081,-1.1353246001,0,0,0,-0.716600452458,0.697483900557,0,68.4031448364,24.4951705933,48.951335907,95.5224075317,50.8359375,50.8359375,68.4031448364,68.4031448364,21.6522407532,0.403465360403,0,0.000701407145243,0.00330549897626,0.00760299991816,0.00690159248188,12.3043556213,0.334361791611,-0.756065368652,-0.00797820556909,-0.245121002197,-0.00484516797587,-6.87987613678,-0.465726137161,36.7995262146,94.766342163048,50.590816497803,14.77236461642,1566
1.64952061669896E+018,81,1.64952061669896E+018,r1000913c5/base_footprint,0,1.64952061669896E+018,v/m1vw10zy74w/map,-15.9855523299,-1.13705698194,0,0,0,-0.716809654719,0.697268899996,0,68.1625823975,25.9259262085,51.562286377,95.6809463501,50.6345672607,50.6345672607,68.1625823975,68.1625823975,24.3782234192,0.191410601139,0,0.000673839473166,0.0271249171346,0.00757543183863,0.00690159248188,10.8736000061,0.295482069254,-0.914604187012,-0.0096511496231,-0.0437507629395,-0.000864796515089,-9.6058588028,-0.650258719921,36.7995262146,94.766342163088,50.5908164977605,14.7723646164,1566
1.64952061679762E+018,82,1.64952061679762E+018,r1000913c5/base_footprint,0,1.64952061679763E+018,v/m1vw10zy74w/map,-15.9855523299,-1.13705698194,0,0,0,-0.716809654719,0.697268899996,0,68.0873794556,27.8074874878,51.9460868835,95.6809463501,50.5029296875,50.5029296875,68.0873794556,68.0873794556,24.3102817535,0.240091070533,0,0.000617107900325,0.102275088429,0.00891805347055,0.0083009460941,8.99203872681,0.244352027774,-0.914604187012,-0.0096511496231,0.0878868103027,0.00173720880412,-9.53791713715,-0.645659446716,36.79952621461,94.766342163088,50.5908164978027,14.77236461635,1566
1.6495206168986E+018,83,1.6495206168986E+018,r1000913c5/base_footprint,0,1.64952061689861E+018,v/m1vw10zy74w/map,-15.9856410246,-1.00714114893,0,0,0,-0.715277408799,0.698840631662,0,67.8249130249,29.2348518372,48.9696464539,95.7355041504,50.3082733154,50.3082733154,67.8249130249,67.8249130249,27.1287479401,0.301688760519,0,0.000798180350102,0.113727457821,0.00832793675363,0.00752975605428,6.24343109131,0.175978958607,-1.0251083374,-0.0108236093074,-0.165943145752,-0.00330944219604,-10.4362010956,-0.625201225281,35.47828292851,94.710395813,50.142330169648,16.6925468445,1733
1.64952061699771E+018,84,1.64952061699771E+018,r1000913c5/base_footprint,0,1.64952061699771E+018,v/m1vw10zy74w/map,-15.9856410246,-1.00714114893,0,0,0,-0.715277408799,0.698840631662,0,67.8533096313,30.1194152832,48.8726158142,95.7355041504,50.1646652222,50.1646652222,67.8533096313,67.8533096313,25.0666618347,0.231001093984,0,0.00128815206699,0.128244534135,0.00688791461289,0.00559976231307,5.35886764526,0.151046425104,-1.0251083374,-0.0108236093074,-0.0223350524902,-0.000445433077402,-8.37411499023,-0.501667916775,35.47828292846,94.710395813,50.1423301697098,16.69254684447,1733
1.64952061709785E+018,85,1.64952061709785E+018,r1000913c5/base_footprint,0,1.64952061709785E+018,v/m1vw10zy74w/map,-15.9856410246,-1.00714114893,0,0,0,-0.715277408799,0.698840631662,0,67.9404830933,30.2832241058,48.7996635437,95.7355041504,49.9778289795,49.9778289795,67.9404830933,67.9404830933,21.4796524048,0.167547434568,0,0.00117184885312,0.150589674711,0.0034758951515,0.00230404618196,5.19505882263,0.146429255605,-1.0251083374,-0.0108236093074,0.164501190186,0.00328068505041,-4.7871055603,-0.286781013012,35.47828292843,94.710395813,50.142330169686,16.6925468445,1733
1.64952061719763E+018,86,1.64952061719763E+018,r1000913c5/base_footprint,0,1.64952061719763E+018,v/m1vw10zy74w/map,-15.9694157307,-0.875794754835,0,0,0,-0.715080321035,0.699042298054,0,67.7211685181,31.0039806366,48.7614364624,96.0360031128,49.7304229736,49.7304229736,67.7211685181,67.7211685181,23.837179184,0.16121353209,0,0.00194823555648,0.156239941716,0.00273394491524,0.00468218047172,3.39317131042,0.0986468717456,-1.35663604736,-0.0143287405372,0.355926513672,0.00710625806823,-6.86115646362,-0.404167503119,34.39715194702,94.67936706544,50.086349487272,16.97602272038,1756
1.64952061729757E+018,87,1.64952061729757E+018,r1000913c5/base_footprint,0,1.64952061729757E+018,v/m1vw10zy74w/map,-15.9694157307,-0.875794754835,0,0,0,-0.715080321035,0.699042298054,0,67.6491775513,29.0525379181,48.724067688,96.0360031128,49.6627235413,49.6627235413,67.6491775513,67.6491775513,24.4018268585,0.131035745144,0,0.00145490141585,0.15311101079,0.00212087295949,0.00357577437535,5.34461402893,0.155379548669,-1.35663604736,-0.0143287405372,0.423625946045,0.00845791213214,-7.42580413818,-0.437428981066,34.39715194703,94.67936706544,50.086349487345,16.97602272032,1756
1.64952061739797E+018,88,1.64952061739797E+018,r1000913c5/base_footprint,0,1.64952061739797E+018,v/m1vw10zy74w/map,-15.9687075253,-0.754992619993,0,0,0,-0.715668601465,0.6984400138,0,67.5893173218,25.5514698029,48.7702331543,95.5352706909,49.4589500427,49.4589500427,67.5893173218,67.5893173218,21.4759292603,0.231315180659,0,0.00171066413168,0.152967214584,0.000386795523809,0.0020974597428,7.94193840027,0.237119451165,-0.882278442383,-0.00932118948549,0.476459503174,0.00954151619226,-4.40072059631,-0.257725715637,33.49340820317,94.652992248517,49.935409545874,17.07520866399,1731
1.64952061749849E+018,89,1.64952061749849E+018,r1000913c5/base_footprint,0,1.64952061749849E+018,v/m1vw10zy74w/map,-15.96633448,-0.761746510955,0,0,0,-0.715623224328,0.698486507244,0,67.325668335,26.6968326569,48.8309898376,95.552116394,49.3084411621,49.3084411621,67.325668335,67.325668335,24.6567420959,0.171134412289,0,0.00211814232171,0.152830451727,0.000342206854839,0.00177593540866,7.08743476868,0.209785059094,-0.905212402344,-0.00956409983337,0.718482971191,0.0143619254231,-7.53975105286,-0.44048345089,33.78426742558,94.646903991656,50.026924133291,17.11699104304,1765
1.64952061759771E+018,90,1.64952061759771E+018,r1000913c5/base_footprint,0,1.64952061759771E+018,v/m1vw10zy74w/map,-15.96633448,-0.761746510955,0,0,0,-0.715623224328,0.698486507244,0,67.62084198,28.5067882538,48.9189071655,95.552116394,49.2737503052,49.2737503052,67.62084198,67.62084198,18.9690437317,0.306796312332,0,0.00248062284663,0.152472853661,0.000466697092634,0.00294731999747,5.27747917175,0.156211152673,-0.905212402344,-0.00956409983337,0.753173828125,0.0150553695858,-1.8520526886,-0.10819966346,33.78426742555,94.646903991656,50.026924133325,17.1169910431,1765
1.64952061769782E+018,91,1.64952061769782E+018,r1000913c5/base_footprint,0,1.64952061769782E+018,v/m1vw10zy74w/map,-15.9624715931,-0.623687869392,0,0,0,-0.715680500091,0.69842782146,0,67.4065246582,30.4812831879,48.9652824402,95.3955688477,49.293346405,49.293346405,67.4065246582,67.4065246582,22.4747581482,0.160271167755,0,0.000884976703674,0.153173327446,0.00129378575366,0.00217876234092,2.26619529724,0.0692021325231,-0.757026672363,-0.00799913704395,0.356468200684,0.00717964814976,-5.62680435181,-0.33397552371,32.74747848514,94.638542175337,49.649814605684,16.84795379639,1643
1.64952061779753E+018,92,1.64952061779753E+018,r1000913c5/base_footprint,0,1.64952061779753E+018,v/m1vw10zy74w/map,-15.9624715931,-0.623687869392,0,0,0,-0.715680500091,0.69842782146,0,67.4725494385,22.7660522461,48.9706802368,95.3955688477,49.2464523315,49.2464523315,67.4725494385,67.4725494385,20.7798843384,0.193931132555,0,0.000710216641892,0.153206467628,0.000430373504059,0.00114059017505,9.98142623901,0.304799854755,-0.757026672363,-0.00799913704395,0.40336227417,0.00812414474785,-3.93193054199,-0.233377337456,32.74747848511,94.638542175337,49.64981460567,16.84795379641,1643
1.64952061789753E+018,93,1.64952061789753E+018,r1000913c5/base_footprint,0,1.64952061789753E+018,v/m1vw10zy74w/map,-15.9624715931,-0.623687869392,0,0,0,-0.715680500091,0.69842782146,0,67.5331954956,23.9819011688,49.0113449097,95.3955688477,49.1141166687,49.1141166687,67.5331954956,67.5331954956,18.258928299,0.154509231448,0,0.000703799771145,0.152662307024,8.2132188254E-05,0.000621667597443,8.76557731628,0.267671823502,-0.757026672363,-0.00799913704395,0.535697937012,0.0107895256951,-1.41097450256,-0.0837475284934,32.74747848508,94.638542175337,49.649814605712,16.84795379644,1643
1.64952061799769E+018,94,1.64952061799769E+018,r1000913c5/base_footprint,0,1.64952061799769E+018,v/m1vw10zy74w/map,-15.9556921605,-0.491100594476,0,0,0,-0.716154895966,0.697941376467,0,67.239364624,25.7918548584,52.1412162781,94.9133758545,48.9788589478,48.9788589478,67.239364624,67.239364624,20.3512172699,0.25673982501,0,0.00079960282892,0.152599602938,0.000177935246029,0.000621667597443,6.56548690796,0.202905640006,-0.279220581055,-0.0029505265411,0.350032806396,0.00709589850157,-3.96236991882,-0.241772338748,32.35734176636,94.634155273445,49.328891754196,16.38884735108,1521
1.6495206191979E+018,95,1.6495206191979E+018,r1000913c5/base_footprint,0,1.6495206191979E+018,v/m1vw10zy74w/map,-15.9499587612,-0.358270660994,0,0,0,-0.716148767694,0.697947664607,0,67.300453186,26.0249557495,53.8907318115,95.1372680664,48.9665794373,48.9665794373,67.300453186,67.300453186,19.9250946045,0.172941684723,0,0.00017709939857,0.203036919236,0.0255639851093,0.0257410835475,9.15377044678,0.260207563639,-0.927383422852,-0.00984380207956,2.41965103149,0.0470875352621,1.40836524963,0.0660167261958,35.17872619628,94.209884643548,51.38623046879,21.33345985413,869
1.64952061929743E+018,96,1.64952061929743E+018,r1000913c5/base_footprint,0,1.64952061929743E+018,v/m1vw10zy74w/map,-15.9499587612,-0.358270660994,0,0,0,-0.716148767694,0.697947664607,0,67.3672866821,26.9162216187,54.7157402039,95.1372680664,48.9918899536,48.9918899536,67.3672866821,67.3672866821,18.9954071045,0.0340591408312,0,0.000729742343538,0.199948891997,0.0570030510426,0.0562733076513,8.26250457764,0.234872192144,-0.927383422852,-0.00984380207956,2.39434051514,0.0465949811041,2.33805274963,0.109595574439,35.17872619634,94.209884643548,51.38623046874,21.33345985413,869
1.64952061939744E+018,97,1.64952061939744E+018,r1000913c5/base_footprint,0,1.64952061939744E+018,v/m1vw10zy74w/map,-15.9499587612,-0.358270660994,0,0,0,-0.716148767694,0.697947664607,0,67.325012207,28.3502883911,56.7585487366,95.1372680664,48.9746551514,48.9746551514,67.325012207,67.325012207,19.5702476501,-0.0232882183045,0,0.00210776273161,0.197401732206,0.0740002766252,0.0718925148249,6.82843780518,0.194107025862,-0.927383422852,-0.00984380207956,2.41157531738,0.0469303801656,1.76321220398,0.0826500803232,35.17872619628,94.209884643548,51.38623046878,21.33345985408,869
1.64952061949782E+018,98,1.64952061949782E+018,r1000913c5/base_footprint,0,1.64952061949782E+018,v/m1vw10zy74w/map,-15.9482839228,-0.3951859734,0,0,0,-0.675724476231,0.737154279797,0,67.306968689,27.893737793,56.462562561,95.0648269653,48.7981567383,48.7981567383,67.306968689,67.306968689,17.7280426025,0.151798516512,0,0.00119203119539,0.193254798651,0.0975595116615,0.0963674858212,7.19300842285,0.205006420612,-0.846130371094,-0.00898049306124,2.64260482788,0.0513718053699,3.78210639954,0.175828918815,35.08674621585,94.218696594206,51.44076156618,21.51014900204,915
1.64952061959764E+018,99,1.64952061959764E+018,r1000913c5/base_footprint,0,1.64952061959764E+018,v/m1vw10zy74w/map,-15.9449607437,-0.392774939035,0,0,0,-0.677139752827,0.735854438827,0,67.3440093994,20.3036060333,56.1431121826,95.0183639526,48.3707618713,48.3707618713,67.3440093994,67.3440093994,12.2781362534,0.162190780044,0,0.000746887584683,0.190943539143,0.106076300144,0.106823191047,14.7831401825,0.421331167221,-0.799667358398,-0.00848735310137,3.06999969482,0.0596802942455,9.23201274872,0.429193347692,35.0867462158,94.218696594202,51.44076156612,21.51014900212,915
1.64952061969755E+018,100,1.64952061969755E+018,r1000913c5/base_footprint,0,1.64952061969755E+018,v/m1vw10zy74w/map,-15.9368191535,-0.449266051955,0,0,0,-0.630232393777,0.776406549324,0,66.9638748169,19.4071331024,56.092010498,94.6381072998,48.0557327271,48.0557327271,66.9638748169,66.9638748169,14.349357605,0.0569661855698,0,0.00304097402841,0.184703454375,0.129821866751,0.132862836123,15.4472942352,0.44319459796,-0.400299072266,-0.00424775434658,3.41452026367,0.0663396865129,7.33946228027,0.338398426771,34.8544273376,94.237808227534,51.47025299077,21.68881988527,957
