%time,field.header.seq,field.header.stamp,field.header.frame_id,field.pose.header.seq,field.pose.header.stamp,field.pose.header.frame_id,field.pose.pose.position.x,field.pose.pose.position.y,field.pose.pose.position.z,field.pose.pose.orientation.x,field.pose.pose.orientation.y,field.pose.pose.orientation.z,field.pose.pose.orientation.w,field.label,field.main_output,field.scan_score,field.pose_score,field.cov_score,field.lhood_map_score,field.lhood_robot_score,field.lhood_map_score_all,field.lhood_robot_score_all,field.point_angle_diff,field.average_orientation,field.map_average_orientation,field.sensor_div,field.odom_div_x,field.odom_div_w,field.imu_div_w,field.kdtree_div,field.kdtree_div_p,field.cov_div,field.cov_div_p,field.likelihood_div,field.likelihood_div_p,field.normal_diff_div,field.normal_diff_div_p,field.kdtree_average,field.cov_average,field.likelihood_average,field.normal_diff_average,field.map_update_count
1.64950666804358E+018,0,1.64950666804358E+018,r1000913c5/base_footprint,0,1.64950666804358E+018,v/m1vw10zy74w/map,-11.5139268768,-0.645703224101,0,0,0,-0.712670436517,0.701499001364,0,69.4085998535,39.7869377136,100,96.3281021118,53.6614189148,53.6614189148,69.4085998535,69.4085998535,36.9697265625,0.384393125772,0,0.0027696590405,0.0076121352613,0.233468130231,0.230698466301,-14.8477706909,-0.595359504223,-1.41106414795,-0.0148662896827,-6.00426101685,-0.125988647342,-4.74716567993,-0.147324278951,24.9391670227,94.91703796385,47.65715789795,32.22256088257,1954
1.64950666824383E+018,1,1.64950666824383E+018,r1000913c5/base_footprint,0,1.64950666824383E+018,v/m1vw10zy74w/map,-11.5139268768,-0.645703224101,0,0,0,-0.712670436517,0.701499001364,0,69.6259689331,24.2424240112,37.6897468567,96.3281021118,52.6733055115,52.6733055115,69.6259689331,69.6259689331,22.385351181,0.398701667786,0,0.00277523789555,0.019760446623,0.241936340928,0.239161103964,0.696743011475,0.027937700972,-1.41106414795,-0.0148662896827,-5.01614761353,-0.105254866183,9.83720970154,0.305289506912,24.939167022675,94.91703796385,47.65715789797,32.22256088254,1954
1.64950666834357E+018,2,1.64950666834357E+018,r1000913c5/base_footprint,0,1.64950666834357E+018,v/m1vw10zy74w/map,-11.5139268768,-0.645703224101,0,0,0,-0.712670436517,0.701499001364,0,68.8311157227,25.1336898804,37.6897468567,96.3281021118,51.8150672913,51.8150672913,68.8311157227,68.8311157227,27.4237327576,0.386350899935,0,0.00224759592675,0.0532165728509,0.271006464958,0.268758863211,-0.194522857666,-0.00779989408329,-1.41106414795,-0.0148662896827,-4.15790939331,-0.0872462689877,4.798828125,0.148927584291,24.939167022734,94.91703796385,47.65715789799,32.2225608826,1954
1.6495066684436E+018,3,1.6495066684436E+018,r1000913c5/base_footprint,0,1.6495066684436E+018,v/m1vw10zy74w/map,-11.5139268768,-0.645703224101,0,0,0,-0.712670436517,0.701499001364,0,68.3450088501,29.4117641449,37.6897468567,96.3281021118,51.0727920532,51.0727920532,68.3450088501,68.3450088501,28.1572170258,0.352574169636,0,0.00216364883818,0.0712990090251,0.293892204762,0.291728556156,-4.47259712219,-0.179340273142,-1.41106414795,-0.0148662896827,-3.41563415527,-0.0716709569097,4.06534385681,0.126164510846,24.93916702271,94.91703796385,47.65715789793,32.22256088261,1954
1.6495066685433E+018,4,1.6495066685433E+018,r1000913c5/base_footprint,0,1.6495066685433E+018,v/m1vw10zy74w/map,-11.5139268768,-0.645703224101,0,0,0,-0.712670436517,0.701499001364,0,67.7874145508,26.1285915375,37.6897468567,96.3281021118,50.3569831848,50.3569831848,67.7874145508,67.7874145508,30.4631786346,0.256264299154,0,0.00268055940978,0.0784192681313,0.303060978651,0.300380438566,-1.18942451477,-0.0476930327713,-1.41106414795,-0.0148662896827,-2.69982528687,-0.0566509924829,1.75938224792,0.0546009428799,24.93916702273,94.91703796385,47.65715789793,32.22256088252,1954
1.64950666864327E+018,5,1.64950666864327E+018,r1000913c5/base_footprint,0,1.64950666864327E+018,v/m1vw10zy74w/map,-11.5139268768,-0.645703224101,0,0,0,-0.712670436517,0.701499001364,0,67.2983169556,24.8120307922,37.6897468567,96.3281021118,49.6889533997,49.6889533997,67.2983169556,67.2983169556,32.0521240234,0.267731398344,0,0.00405734730884,0.0870112776756,0.312019079924,0.307961732149,0.127136230469,0.00509785395116,-1.41106414795,-0.0148662896827,-2.03179550171,-0.0426335856318,0.170436859131,0.00528936414048,24.939167022669,94.91703796385,47.65715789799,32.222560882531,1954
1.64950666874366E+018,6,1.64950666874366E+018,r1000913c5/base_footprint,0,1.64950666874366E+018,v/m1vw10zy74w/map,-11.5139268768,-0.645703224101,0,0,0,-0.712670436517,0.701499001364,0,66.9505844116,25.373134613,37.6897468567,96.3281021118,49.1625976562,49.1625976562,66.9505844116,66.9505844116,32.6266975403,0.340470522642,0,0.0045911562629,0.0889055281878,0.311522096395,0.306930959225,-0.433967590332,-0.0174010451883,-1.41106414795,-0.0148662896827,-1.5054397583,-0.0315889529884,-0.404136657715,-0.0125420400873,24.939167022668,94.91703796385,47.6571578979,32.222560882585,1954
1.6495066688469E+018,7,1.6495066688469E+018,r1000913c5/base_footprint,0,1.6495066688469E+018,v/m1vw10zy74w/map,-11.5139268768,-0.645703224101,0,0,0,-0.712670436517,0.701499001364,0,66.8192977905,28.0070228577,37.6897468567,96.3281021118,48.6538009644,48.6538009644,66.8192977905,66.8192977905,29.4948196411,0.326018452644,0,0.00486049707979,0.0895454287529,0.309023618698,0.304163128138,-3.06785583496,-0.123013563454,-1.41106414795,-0.0148662896827,-0.996643066406,-0.0209127683192,2.72774124146,0.084653146565,24.93916702274,94.91703796385,47.657157897994,32.22256088256,1954
1.64950666904453E+018,8,1.64950666904453E+018,r1000913c5/base_footprint,0,1.64950666904453E+018,v/m1vw10zy74w/map,-11.5139268768,-0.645703224101,0,0,0,-0.712670436517,0.701499001364,0,66.5807342529,29.5835113525,37.6897468567,96.3281021118,48.1847686768,48.1847686768,66.5807342529,66.5807342529,28.7233924866,0.307774692774,0,0.00492687337101,0.0865023285151,0.294167399406,0.289240539074,-4.64434432983,-0.186226919293,-1.41106414795,-0.0148662896827,-0.527610778809,-0.0110709657893,3.499168396,0.108593739569,24.93916702267,94.91703796385,47.657157897991,32.2225608826,1954
1.64950666914436E+018,9,1.64950666914436E+018,r1000913c5/base_footprint,0,1.64950666914436E+018,v/m1vw10zy74w/map,-11.518483978,-0.76958542851,0,0,0,-0.738341860154,0.674426643561,0,66.1931381226,28.0070228577,37.6897468567,96.5662384033,47.7677841187,47.7677841187,66.1931381226,66.1931381226,32.0540428162,0.271918207407,0,0.00500407908112,0.0828647986054,0.279550254345,0.274546176195,-2.18454170227,-0.0845984444022,-1.59867858887,-0.0168339442462,-0.140647888184,-0.00295310397632,-0.132293701172,-0.00414431234822,25.82248115543,94.96755981443,47.627136230516,31.921749115028,2135
1.64950666924461E+018,10,1.64950666924461E+018,r1000913c5/base_footprint,0,1.64950666924462E+018,v/m1vw10zy74w/map,-11.518483978,-0.76958542851,0,0,0,-0.738341860154,0.674426643561,0,65.8083496094,29.2412624359,37.6897468567,96.5662384033,47.3931808472,47.3931808472,65.8083496094,65.8083496094,34.9345092773,0.209442034364,0,0.00505195045844,0.0810414105654,0.271107941866,0.266055971384,-3.41878128052,-0.132395535707,-1.59867858887,-0.0168339442462,0.233955383301,0.00491222878918,-3.01276016235,-0.0943795442581,25.82248115538,94.96755981443,47.627136230501,31.92174911495,2135
1.64950666934472E+018,11,1.64950666934472E+018,r1000913c5/base_footprint,0,1.64950666934472E+018,v/m1vw10zy74w/map,-11.518483978,-0.76958542851,0,0,0,-0.738341860154,0.674426643561,0,65.8350067139,29.9123897552,37.6897468567,96.5662384033,47.0269126892,47.0269126892,65.8350067139,65.8350067139,30.4989471436,0.271974146366,0,0.00523681892082,0.0755462944508,0.245188727975,0.239951908588,-4.08990859985,-0.158385574818,-1.59867858887,-0.0168339442462,0.60022354126,0.0126025537029,1.42280197144,0.0445715524256,25.82248115535,94.96755981443,47.62713623046,31.92174911504,2135
1.64950666944345E+018,12,1.64950666944345E+018,r1000913c5/base_footprint,0,1.64950666944345E+018,v/m1vw10zy74w/map,-11.5403678284,-0.905986682386,0,0,0,-0.77333351369,0.633999429497,0,65.5056915283,29.7503166199,37.6897468567,96.3450241089,46.7148704529,46.7148704529,65.5056915283,65.5056915283,32.2602615356,0.304607272148,0,0.0054442230612,0.0688207745552,0.201699703932,0.196255490184,-3.31251144409,-0.125294491649,-1.36343383789,-0.0143547169864,0.827640533447,0.0174084305763,-0.624956130981,-0.0197550207376,26.43780517581,94.98159027101,47.542510986347,31.635305404619,2192
1.64950666954337E+018,13,1.64950666954337E+018,r1000913c5/base_footprint,0,1.64950666954337E+018,v/m1vw10zy74w/map,-11.5403678284,-0.905986682386,0,0,0,-0.77333351369,0.633999429497,0,65.6499252319,30.4422492981,38.7492713928,96.3450241089,46.5769577026,46.5769577026,65.6499252319,65.6499252319,28.1745738983,0.275729268789,0,0.0040367632173,0.0633684247732,0.167860150337,0.163823395967,-4.00444412231,-0.151466593146,-1.36343383789,-0.0143547169864,0.965553283691,0.0203092619777,3.46073150635,0.109394595027,26.43780517579,94.98159027101,47.542510986291,31.63530540465,2192
1.6495066696435E+018,14,1.6495066696435E+018,r1000913c5/base_footprint,0,1.6495066696435E+018,v/m1vw10zy74w/map,-11.5675130141,-1.04206002178,0,0,0,-0.771664613443,0.636029656824,0,65.9171905518,32.2894630432,40.4823379517,96.7319717407,46.5689048767,46.5689048767,65.9171905518,65.9171905518,24.6698226929,0.371281772852,0,0.00291300052777,0.0556032769382,0.144541427493,0.141628414392,-4.54211425781,-0.163695439696,-1.73838043213,-0.0182999763638,0.933284759521,0.0196471940726,6.66830062866,0.212785571814,27.74734878539,94.99359130857,47.502189636221,31.33812332156,2100
1.64950666974373E+018,15,1.64950666974373E+018,r1000913c5/base_footprint,0,1.64950666974373E+018,v/m1vw10zy74w/map,-11.5675130141,-1.04206002178,0,0,0,-0.771664613443,0.636029656824,0,66.1234283447,39.4463653564,42.057308197,96.7319717407,46.9208374023,46.9208374023,66.1234283447,66.1234283447,24.7584342957,0.285292327404,0,0.00243807188235,0.0494316145778,0.136095404625,0.133657321334,-11.699016571,-0.421626478434,-1.73838043213,-0.0182999763638,0.581352233887,0.0122384298593,6.57968902588,0.209957972169,27.7473487854,94.99359130857,47.502189636187,31.33812332158,2100
1.64950666984483E+018,16,1.64950666984483E+018,r1000913c5/base_footprint,0,1.64950666984483E+018,v/m1vw10zy74w/map,-11.5675130141,-1.04206002178,0,0,0,-0.771664613443,0.636029656824,0,66.097114563,42.9065742493,42.057308197,96.7319717407,47.3162536621,47.3162536621,66.097114563,66.097114563,29.5025405884,0.251789867878,0,0.00239254371263,0.0416860729456,0.13134239614,0.128949850798,-15.1592254639,-0.546330571175,-1.73838043213,-0.0182999763638,0.185935974121,0.00391426123679,1.83558273315,0.0585734732449,27.7473487854,94.99359130857,47.502189636221,31.33812332155,2100
1.64950666994432E+018,17,1.64950666994432E+018,r1000913c5/base_footprint,0,1.64950666994432E+018,v/m1vw10zy74w/map,-11.5928851772,-1.17714021024,0,0,0,-0.746400827989,0.665496659629,0,66.5090332031,47.1440734863,42.1819419861,96.4390258789,47.5875244141,47.5875244141,66.5090332031,66.5090332031,23.9631061554,0.22875161469,0,0.0018035795074,0.0326345302165,0.128168091178,0.126364514232,-14.7469558716,-0.455193459988,-1.1350402832,-0.011909683235,-0.170433044434,-0.00359433772974,5.54613685608,0.187945753336,32.3971176147,95.3039855957,47.417091369666,29.50924301148,1185
1.64950667004463E+018,18,1.64950667004463E+018,r1000913c5/base_footprint,0,1.64950667004463E+018,v/m1vw10zy74w/map,-11.5974399324,-1.30458768187,0,0,0,-0.720012330803,0.693961269446,0,66.5743026733,45.3189735413,42.5172538757,96.4381713867,47.731590271,47.731590271,66.5743026733,66.5743026733,24.3410816193,0.243886783719,0,0.00122405285947,0.0266945846379,0.132475674152,0.131251618266,-10.9030075073,-0.316800862551,-0.950469970703,-0.00995384715497,-0.391990661621,-0.00828039646149,4.33055686951,0.151039734483,34.415966034,95.487701415997,47.339599609379,28.67163848881,1002
1.64950667014421E+018,19,1.64950667014421E+018,r1000913c5/base_footprint,0,1.64950667014421E+018,v/m1vw10zy74w/map,-11.5992202249,-1.31083117997,0,0,0,-0.720236483693,0.69372862674,0,66.7731170654,43.2048683167,43.1354751587,96.3278427124,47.792224884,47.792224884,66.7731170654,66.7731170654,21.0201854706,0.238389104605,0,0.00167210539803,0.0211497172713,0.133320808411,0.131648689508,-8.27589797974,-0.236935064197,-0.832847595215,-0.00872137397528,-0.37077331543,-0.00781868305057,7.43124580383,0.261190593243,34.92897033696,95.494995117185,47.42145156857,28.45143127443,986
1.64950667274353E+018,20,1.64950667274353E+018,r1000913c5/base_footprint,0,1.64950667274353E+018,v/m1vw10zy74w/map,-11.6134502912,-2.16513825075,0,0,0,-0.709024459965,0.705183887487,0,66.4442062378,43.6619720459,43.1354751587,96.565071106,47.8263816833,47.8263816833,66.4442062378,66.4442062378,28.1634883881,0.283746391535,0,0.00229645543732,0.0398707166314,0.00265378132463,0.000357325770892,-11.7427520752,-0.36788970232,-0.574905395508,-0.00598921161145,-0.497428894043,-0.0105100339279,-9.72429275513,-0.527370750904,31.9192199707,95.990165710492,47.328952789257,18.43919563297,1473
1.64950667544442E+018,21,1.64950667544442E+018,r1000913c5/base_footprint,0,1.64950667544442E+018,v/m1vw10zy74w/map,-11.6231871159,-2.39092331609,0,0,0,-0.712599952967,0.701570600176,0,66.6588821411,33.5038375854,42.0617294312,96.3575973511,47.784324646,47.784324646,66.6588821411,66.6588821411,23.098115921,1.28790986538,0,0.000327664572978,0.0914904549718,0.0140432342887,0.0137155698612,-2.51812553406,-0.0812673121691,-0.326393127441,-0.00339882355183,-0.521644592285,-0.0110371354967,-5.37753295898,-0.303462535143,30.98571205134,96.031204223659,47.262680053715,17.72058296202,1318
1.64950667564472E+018,22,1.64950667564472E+018,r1000913c5/base_footprint,0,1.64950667564472E+018,v/m1vw10zy74w/map,-11.6231871159,-2.39092331609,0,0,0,-0.712599952967,0.701570600176,0,66.0071487427,26.263463974,41.4190330505,96.3575973511,47.5425109863,47.5425109863,66.0071487427,66.0071487427,32.2178535461,1.23456966877,0,0.000321567000356,0.108159922063,0.015376730822,0.0150551637635,4.72224807739,0.152400821447,-0.326393127441,-0.00339882355183,-0.279830932617,-0.00592075893655,-14.4972705841,-0.81810349226,30.98571205139,96.031204223659,47.262680053683,17.720582962,1318
1.64950667574426E+018,23,1.64950667574426E+018,r1000913c5/base_footprint,0,1.64950667574426E+018,v/m1vw10zy74w/map,-11.6231871159,-2.39092331609,0,0,0,-0.712599952967,0.701570600176,0,65.7849349976,27.4092617035,41.4190330505,96.3575973511,47.2691116333,47.2691116333,65.7849349976,65.7849349976,33.2648963928,1.28273832798,0,0.000355372787453,0.130902066827,0.0158011894673,0.0154458172619,3.5764503479,0.115422561765,-0.326393127441,-0.00339882355183,-0.00643157958984,-0.00013608156587,-15.5443134308,-0.87718975544,30.9857120514,96.031204223659,47.2626800537102,17.720582962,1318
1.64950667584343E+018,24,1.64950667584343E+018,r1000913c5/base_footprint,0,1.64950667584343E+018,v/m1vw10zy74w/map,-11.6231871159,-2.39092331609,0,0,0,-0.712599952967,0.701570600176,0,65.7284240723,25.518409729,41.4190330505,96.3575973511,47.073135376,47.073135376,65.7284240723,65.7284240723,32.1655807495,1.30788969994,0,0.00042829872109,0.151896774769,0.016329633072,0.0159013345838,5.46730232239,0.176445916295,-0.326393127441,-0.00339882355183,0.189544677734,0.00401045149192,-14.4449977875,-0.81515365839,30.98571205139,96.031204223659,47.262680053734,17.720582962,1318
1.64950667594348E+018,25,1.64950667594348E+018,r1000913c5/base_footprint,0,1.64950667594348E+018,v/m1vw10zy74w/map,-11.6231871159,-2.39092331609,0,0,0,-0.712599952967,0.701570600176,0,65.6567764282,26.3647899628,41.4190330505,96.3575973511,46.9888420105,46.9888420105,65.6567764282,65.6567764282,32.5448760986,1.30340433121,0,0.000450608611573,0.161453545094,0.0165869202465,0.0161363109946,4.62092208862,0.149130731821,-0.326393127441,-0.00339882355183,0.273838043213,0.00579395936802,-14.8242931366,-0.836557865143,30.98571205142,96.031204223659,47.262680053713,17.720582962,1318
1.64950667604343E+018,26,1.64950667604343E+018,r1000913c5/base_footprint,0,1.64950667604343E+018,v/m1vw10zy74w/map,-11.6231871159,-2.39092331609,0,0,0,-0.712599952967,0.701570600176,0,65.6575393677,25.518409729,41.4190330505,96.3575973511,46.9583053589,46.9583053589,65.6575393677,65.6575393677,32.201385498,1.32591104507,0,0.000179650669452,0.176819697022,0.019999012351,0.0198193602264,5.46730232239,0.176445916295,-0.326393127441,-0.00339882355183,0.304374694824,0.00644006440416,-14.480802536,-0.817174136639,30.98571205139,96.031204223659,47.262680053724,17.720582962,1318
1.64950667614422E+018,27,1.64950667614422E+018,r1000913c5/base_footprint,0,1.64950667614423E+018,v/m1vw10zy74w/map,-11.6231871159,-2.39092331609,0,0,0,-0.712599952967,0.701570600176,0,65.6989593506,30.7958469391,41.4190330505,96.3575973511,46.8867378235,46.8867378235,65.6989593506,65.6989593506,30.682888031,1.21454381943,0,0.000318872422213,0.182784721255,0.0210055187345,0.0206866450608,0.189865112305,0.00612750509754,-0.326393127441,-0.00339882355183,0.375942230225,0.00795431435108,-12.962305069,-0.731482982635,30.985712051405,96.031204223659,47.262680053725,17.720582962,1318
1.64950667624455E+018,28,1.64950667624455E+018,r1000913c5/base_footprint,0,1.64950667624455E+018,v/m1vw10zy74w/map,-11.6231871159,-2.39092331609,0,0,0,-0.712599952967,0.701570600176,0,65.7356185913,26.6837177277,41.4190330505,96.3575973511,46.8719787598,46.8719787598,65.7356185913,65.7356185913,29.8636474609,1.30318677425,0,0.000467339239549,0.194124281406,0.023900097236,0.0234327577055,4.30199432373,0.138838008046,-0.326393127441,-0.00339882355183,0.390701293945,0.00826659239829,-12.1430644989,-0.685251951218,30.98571205143,96.031204223659,47.262680053745,17.720582962,1318
1.64950667634488E+018,29,1.64950667634488E+018,r1000913c5/base_footprint,0,1.64950667634488E+018,v/m1vw10zy74w/map,-11.6231871159,-2.39092331609,0,0,0,-0.712599952967,0.701570600176,0,66.1560516357,28.243637085,41.4190330505,96.3575973511,46.9535751343,46.9535751343,66.1560516357,66.1560516357,23.1770820618,1.28777182102,0,0.000465422199341,0.198291435838,0.0247476324439,0.0242822095752,2.74207496643,0.0884948149323,-0.326393127441,-0.00339882355183,0.309104919434,0.00654014805332,-5.45649909973,-0.307918727398,30.98571205143,96.031204223659,47.262680053734,17.72058296207,1318
1.6495066764448E+018,30,1.6495066764448E+018,r1000913c5/base_footprint,0,1.6495066764448E+018,v/m1vw10zy74w/map,-11.6231871159,-2.39092331609,0,0,0,-0.712599952967,0.701570600176,0,66.2656784058,30.7467670441,41.4190330505,96.3575973511,47.0028991699,47.0028991699,66.2656784058,66.2656784058,21.7364196777,1.22378075123,0,0.000331339222612,0.20338755846,0.0262328479439,0.0259015094489,0.238945007324,0.00771145755425,-0.326393127441,-0.00339882355183,0.259780883789,0.00549653312191,-4.0158367157,-0.226619899273,30.985712051424,96.031204223659,47.262680053689,17.720582962,1318
1.64950667654453E+018,31,1.64950667654453E+018,r1000913c5/base_footprint,0,1.64950667654454E+018,v/m1vw10zy74w/map,-11.6231871159,-2.39092331609,0,0,0,-0.712599952967,0.701570600176,0,66.5153045654,32.0629653931,41.4190330505,96.3575973511,47.0110588074,47.0110588074,66.5153045654,66.5153045654,17.3312511444,1.21179962158,0,0.000493518600706,0.204244792461,0.0270209871233,0.0265274681151,-1.07725334167,-0.0347661301494,-0.326393127441,-0.00339882355183,0.251621246338,0.00532388873398,0.389331817627,0.0219705980271,30.98571205143,96.031204223659,47.262680053738,17.720582962027,1318
1.64950667664332E+018,32,1.64950667664332E+018,r1000913c5/base_footprint,0,1.64950667664332E+018,v/m1vw10zy74w/map,-11.6231871159,-2.39092331609,0,0,0,-0.712599952967,0.701570600176,0,66.6889801025,29.5774650574,41.4190330505,96.3575973511,47.0043182373,47.0043182373,66.6889801025,66.6889801025,14.1322889328,1.30471718311,0,0.000493640720379,0.203447803855,0.0276997368783,0.0272060967982,1.40824699402,0.045448269695,-0.326393127441,-0.00339882355183,0.258361816406,0.00546650774777,3.58829402924,0.20249299705,30.98571205142,96.031204223659,47.262680053706,17.72058296204,1318
1.64950667684556E+018,33,1.64950667684556E+018,r1000913c5/base_footprint,0,1.64950667684557E+018,v/m1vw10zy74w/map,-11.6108931398,-2.27264168193,0,0,0,-0.716778336809,0.697301094135,0,66.6105804443,34.9186477661,41.4190330505,96.094291687,46.9960861206,46.9960861206,66.6105804443,66.6105804443,14.5067863464,1.21806037426,0,0.000152699794853,0.200156837702,0.0292861294001,0.0291334297508,-3.48129463196,-0.110737524927,-0.0849304199219,-0.000884605629835,0.295845031738,0.0062557188794,3.55156135559,0.196671441197,31.43735313414,96.0093612670781,47.291931152338,18.05834770199,1392
1.64950667694375E+018,34,1.64950667694375E+018,r1000913c5/base_footprint,0,1.64950667694375E+018,v/m1vw10zy74w/map,-11.6111949454,-2.27572351025,0,0,0,-0.717033310222,0.697038902811,0,66.5871200562,33.2498970032,41.4190330505,96.3909454346,47.1064071655,47.1064071655,66.5871200562,66.5871200562,17.1884765625,1.26686382294,0,0.000214271829464,0.187937319279,0.034150172025,0.0343644432724,-1.81254386902,-0.0576557405293,-0.38158416748,-0.00397444749251,0.185523986816,0.00392295233905,0.869871139526,0.048170030117,31.43735313418,96.00936126712,47.291931152316,18.058347702026,1392
1.6495066770452E+018,35,1.6495066770452E+018,r1000913c5/base_footprint,0,1.6495066770452E+018,v/m1vw10zy74w/map,-11.6068968768,-2.15285860138,0,0,0,-0.718776756135,0.695240947327,0,66.6604995728,33.0065345764,41.4190330505,96.3603973389,47.2429885864,47.2429885864,66.6604995728,66.6604995728,17.2326850891,1.22870922089,0,0.000144103963976,0.180655181408,0.0384948663414,0.038638971746,-0.859199523926,-0.0267269276083,-0.381103515625,-0.00397068494931,0.10530090332,0.00222396431491,1.55869865417,0.0829475224018,32.147335052474,95.979293823275,47.34828948972,18.79138374327,1526
1.64950667714438E+018,36,1.64950667714438E+018,r1000913c5/base_footprint,0,1.64950667714439E+018,v/m1vw10zy74w/map,-11.6063586384,-2.15265063772,0,0,0,-0.718305566613,0.695727757799,0,66.8516540527,29.4117641449,40.7781105042,96.4927062988,47.4097251892,47.4097251892,66.8516540527,66.8516540527,16.0690250397,1.20152688026,0,0.000568939489312,0.164908587933,0.0303291715682,0.0297602321953,2.73557090759,0.085094794631,-0.513412475586,-0.00534920021892,-0.0614356994629,-0.0012975273421,2.72235870361,0.144872710109,32.14733505249,95.979293823214,47.3482894897371,18.79138374331,1526
1.6495066772443E+018,37,1.6495066772443E+018,r1000913c5/base_footprint,0,1.6495066772443E+018,v/m1vw10zy74w/map,-11.6063586384,-2.15265063772,0,0,0,-0.718305566613,0.695727757799,0,66.6304931641,30.0699291229,40.544002533,96.4927062988,47.5205001831,47.5205001831,66.6304931641,66.6304931641,21.2462730408,1.24076795578,0,0.000652295013424,0.134577408433,0.0274217110127,0.0280740056187,2.07740592957,0.0646214038134,-0.513412475586,-0.00534920021892,-0.172210693359,-0.00363710476086,-2.45488929749,-0.130639091134,32.14733505247,95.979293823214,47.348289489741,18.79138374331,1526
1.6495066773442E+018,38,1.6495066773442E+018,r1000913c5/base_footprint,0,1.6495066773442E+018,v/m1vw10zy74w/map,-11.6007039083,-2.02417914493,0,0,0,-0.718086240352,0.695954130254,0,66.577507019,29.0780143738,40.2919845581,96.4506988525,47.6946907043,47.6946907043,66.577507019,66.577507019,23.9300098419,1.13410794735,0,0.00075079780072,0.117383822799,0.0216784030199,0.0224292017519,3.41386032104,0.105068124831,-0.502258300781,-0.005234668497,-0.318298339844,-0.00671850098297,-4.59455680847,-0.237623438239,32.49187469484,95.948440551719,47.376392364456,19.33545303343,1632
1.6495066774436E+018,39,1.6495066774436E+018,r1000913c5/base_footprint,0,1.6495066774436E+018,v/m1vw10zy74w/map,-11.6007039083,-2.02417914493,0,0,0,-0.718086240352,0.695954130254,0,66.9713439941,32.6571998596,40.2919845581,96.4506988525,47.950050354,47.950050354,66.9713439941,66.9713439941,19.5988674164,1.00076818466,0,0.000665641447995,0.108225606382,0.0202088579535,0.020874498412,-0.165325164795,-0.00508820032701,-0.502258300781,-0.005234668497,-0.573657989502,-0.0121085196733,-0.263414382935,-0.0136233884841,32.491874694805,95.948440551719,47.376392364498,19.335453033465,1632
1.64950667754337E+018,40,1.64950667754337E+018,r1000913c5/base_footprint,0,1.64950667754337E+018,v/m1vw10zy74w/map,-11.596306301,-1.89798690497,0,0,0,-0.717690336506,0.696362391924,0,67.1999740601,33.0065345764,40.2132072449,96.3630371094,48.15990448,48.15990448,67.1999740601,67.1999740601,17.4343948364,1.0027680397,0,0.000573639757931,0.0985696092248,0.0189080517739,0.0194816906005,-0.0334129333496,-0.00101333844941,-0.460830688477,-0.00480521470308,-0.714195251465,-0.0150528941303,2.40307235718,0.121138066053,32.9731216430504,95.902206420923,47.445709228535,19.83746719358,1737
1.64950667764355E+018,41,1.64950667764355E+018,r1000913c5/base_footprint,0,1.64950667764355E+018,v/m1vw10zy74w/map,-11.596306301,-1.89798690497,0,0,0,-0.717690336506,0.696362391924,0,67.0411911011,32.189540863,40.2538642883,96.3630371094,48.5105819702,48.5105819702,67.0411911011,67.0411911011,24.0797557831,0.863485634327,0,0.000386769592296,0.0819759592414,0.0156210875139,0.0160078573972,0.783580780029,0.0237642284483,-0.460830688477,-0.00480521470308,-1.0648727417,-0.0224440265447,-4.24228858948,-0.213852331042,32.973121643029,95.902206420923,47.4457092285,19.83746719362,1737
1.64950667774436E+018,42,1.64950667774436E+018,r1000913c5/base_footprint,0,1.64950667774436E+018,v/m1vw10zy74w/map,-11.5906768972,-1.773234388,0,0,0,-0.719241103282,0.694760559725,0,67.0358810425,35.3769683838,40.2538642883,95.9476242065,48.7686767578,48.7686767578,67.0358810425,67.0358810425,25.4673500061,0.849727511406,0,0.00029588068719,0.0706991776824,0.0154994213954,0.015795301646,-2.278175354,-0.0688295587897,-0.0377731323242,-0.000393839960452,-1.2947769165,-0.0272734481841,-4.95789146423,-0.241736829281,33.0987930298,95.9098510741758,47.4738998413,20.50945854187,1727
1.6495066778448E+018,43,1.6495066778448E+018,r1000913c5/base_footprint,0,1.6495066778448E+018,v/m1vw10zy74w/map,-11.5906768972,-1.773234388,0,0,0,-0.719241103282,0.694760559725,0,66.700302124,35.8288764954,40.405670166,95.9476242065,48.9869155884,48.9869155884,66.700302124,66.700302124,33.8646430969,0.891825735569,0,0.000297600316117,0.0595383755863,0.0154977012426,0.015795301646,-2.73008346558,-0.0824828743935,-0.0377731323242,-0.000393839960452,-1.51301574707,-0.0318704769015,-13.3551845551,-0.651171982288,33.09879302982,95.9098510741758,47.47389984133,20.5094585418,1727
1.64950667794438E+018,44,1.64950667794438E+018,r1000913c5/base_footprint,0,1.64950667794438E+018,v/m1vw10zy74w/map,-11.5915642832,-1.65340353038,0,0,0,-0.717882326519,0.696164467114,0,66.9188537598,36.2054672241,40.405670166,95.6336898804,49.1178016663,49.1178016663,66.9188537598,66.9188537598,30.2141361237,0.898382246494,0,0.00030118774157,0.0531538277864,0.015494113788,0.015795301646,-2.76113510132,-0.0825591310859,0.264595031738,0.00275912159123,-1.58793258667,-0.03340915218,-9.13070487976,-0.433074891567,33.44433212278,95.898284912138,47.52986907963,21.08343124394,1768
1.64950667804444E+018,45,1.64950667804444E+018,r1000913c5/base_footprint,0,1.64950667804444E+018,v/m1vw10zy74w/map,-11.5915642832,-1.65340353038,0,0,0,-0.717882326519,0.696164467114,0,66.9532546997,34.8286094666,40.7196731567,95.6336898804,49.1973876953,49.1973876953,66.9532546997,66.9532546997,30.4545402527,0.804528355598,0,0.000294117373414,0.0487632006407,0.015501184389,0.015795301646,-1.38427734375,-0.0413904897869,0.264595031738,0.00275912159123,-1.66751861572,-0.035083591938,-9.37110900879,-0.444477409124,33.44433212285,95.898284912138,47.52986907958,21.08343124391,1768
1.64950667814426E+018,46,1.64950667814426E+018,r1000913c5/base_footprint,0,1.64950667814426E+018,v/m1vw10zy74w/map,-11.5837348836,-1.53051103691,0,0,0,-0.719046244073,0.694962228387,0,66.7793807983,33.613445282,40.7196731567,95.6106185913,49.1926498413,49.1926498413,66.7793807983,66.7793807983,33.4500083923,0.808319151402,0,0.000289126066491,0.041214838624,0.0155061753467,0.015795301646,-0.277412414551,-0.00832169875503,0.298187255859,0.00310907070525,-1.66733169556,-0.0350830219686,-11.9437332153,-0.555360376835,33.336032867449,95.908805847159,47.52531814574,21.506275177,1770
1.64950667824435E+018,47,1.64950667824435E+018,r1000913c5/base_footprint,0,1.64950667824435E+018,v/m1vw10zy74w/map,-11.5853048014,-1.53683918369,0,0,0,-0.719074156959,0.694933347015,0,66.791847229,36.453414917,40.9286804199,95.7155838013,49.1536750793,49.1536750793,66.791847229,66.791847229,33.1825485229,0.827913284302,0,0.00035448546987,0.0323072895408,0.0154408160597,0.015795301646,-3.12663650513,-0.0938175469637,0.193885803223,0.00202155020088,-1.63158416748,-0.0343331731856,-11.6829242706,-0.543401300907,33.32677841187,95.909469604523,47.52209091182,21.4996242523,1776
1.64950667834337E+018,48,1.64950667834337E+018,r1000913c5/base_footprint,0,1.64950667834337E+018,v/m1vw10zy74w/map,-11.5869345751,-1.39360914105,0,0,0,-0.716692875542,0.697388931765,0,66.5609512329,32.773109436,40.9286804199,95.8206176758,49.1383094788,49.1383094788,66.5609512329,66.5609512329,37.5508079529,0.719535052776,0,0.000366665655747,0.0279760360718,0.0154286362231,0.015795301646,2.83782958984,0.0796898305416,-0.323081970215,-0.00338314450346,-1.66579818726,-0.0350897423923,-9.4079208374,-0.334291249514,35.61093902584,95.497535705585,47.47251129154,28.1428871155,989
1.64950667844342E+018,49,1.64950667844342E+018,r1000913c5/base_footprint,0,1.64950667844343E+018,v/m1vw10zy74w/map,-11.5869345751,-1.39360914105,0,0,0,-0.716692875542,0.697388931765,0,66.457862854,27.3356399536,41.2185096741,95.8206176758,49.0421257019,49.0421257019,66.457862854,66.457862854,38.36769104,0.397217661142,0,0.000372346868971,0.0187143757939,0.0154229551554,0.015795301646,8.27529907227,0.232380822301,-0.323081970215,-0.00338314450346,-1.5696144104,-0.0330636464059,-10.2248039246,-0.363317519426,35.61093902587,95.497535705585,47.4725112915,28.1428871154,989
1.64950667854399E+018,50,1.64950667854399E+018,r1000913c5/base_footprint,0,1.64950667854399E+018,v/m1vw10zy74w/map,-11.5824348043,-1.27302440692,0,0,0,-0.718523907546,0.695502260446,0,66.6554031372,28.3887462616,41.2185096741,95.8508148193,48.9545783997,48.9545783997,66.6554031372,66.6554031372,33.975063324,0.403311043978,0,0.000368162669474,0.0144115453586,0.0154271386564,0.015795301646,6.01743888855,0.174894109368,-0.362350463867,-0.00379470409825,-1.60438156128,-0.0338833145797,-5.25849533081,-0.183117121458,34.40618515015,95.488464355433,47.35019683842,28.71656799319,997
1.64950667864472E+018,51,1.64950667864472E+018,r1000913c5/base_footprint,0,1.64950667864472E+018,v/m1vw10zy74w/map,-11.5818834136,-1.26205454222,0,0,0,-0.716715750758,0.697365422584,0,66.8222503662,27.0072994232,41.3692092896,96.1193466187,48.776638031,48.776638031,66.8222503662,66.8222503662,30.0168361664,0.531456828117,0,0.000243153510382,0.00864141993225,0.0152940740809,0.015537227504,7.39888572693,0.215045228601,-0.630882263184,-0.00660689501092,-1.42644119263,-0.0301253478974,-1.30026817322,-0.0452793724835,34.40618515013,95.488464355516,47.35019683837,28.71656799318,997
1.64950667874463E+018,52,1.64950667874463E+018,r1000913c5/base_footprint,0,1.64950667874463E+018,v/m1vw10zy74w/map,-11.5818834136,-1.26205454222,0,0,0,-0.716715750758,0.697365422584,0,66.5738754272,25.9259262085,41.3692092896,96.1193466187,48.6345291138,48.6345291138,66.5738754272,66.5738754272,32.9528465271,0.417179256678,0,0.000149376879563,0.0284883286804,0.0151384370402,0.0152878137305,8.48025894165,0.246474832296,-0.630882263184,-0.00660689501092,-1.28433227539,-0.0271241161972,-4.23627853394,-0.147520363331,34.40618515015,95.488464355516,47.35019683841,28.71656799316,997
1.64950667884421E+018,53,1.64950667884421E+018,r1000913c5/base_footprint,0,1.64950667884421E+018,v/m1vw10zy74w/map,-11.575118567,-1.11875848377,0,0,0,-0.717260825181,0.696804785188,0,66.4998703003,30.9462909698,41.4601707458,95.9960250854,48.4747009277,48.4747009277,66.4998703003,66.4998703003,32.1147232056,0.446231603622,0,6.32499795756E-05,0.10096757859,0.0119900600985,0.0120533099398,-1.74048995972,-0.0595939829946,-0.932601928711,-0.0098103126511,-1.02668762207,-0.0216381587088,-1.32512664795,-0.0430381298065,29.20580101008,95.063423156689,47.44801330563,30.78959655765,1885
1.64950667894389E+018,54,1.64950667894389E+018,r1000913c5/base_footprint,0,1.64950667894389E+018,v/m1vw10zy74w/map,-11.575118567,-1.11875848377,0,0,0,-0.717260825181,0.696804785188,0,66.3199539185,27.6688461304,42.3622245789,95.9960250854,48.3109359741,48.3109359741,66.3199539185,66.3199539185,33.5846138,0.385196775198,0,0.000498671433888,0.138700723648,0.00754912290722,0.00804779399186,1.53695487976,0.0526249855757,-0.932601928711,-0.0098103126511,-0.862922668457,-0.0181866977364,-2.79501724243,-0.090777978301,29.20580101016,95.063423156689,47.448013305643,30.78959655757,1885
1.64950667904468E+018,55,1.64950667904468E+018,r1000913c5/base_footprint,0,1.6495066790447E+018,v/m1vw10zy74w/map,-11.5726230933,-0.981923099379,0,0,0,-0.716830592709,0.697247374579,0,66.5252914429,32.0261421204,43.6134910583,96.0560073853,48.3465080261,48.3465080261,66.5252914429,66.5252914429,30.4886398315,0.505841910839,0,0.000604401226155,0.14662283659,0.00596856232733,0.0065729636699,-4.87725067139,-0.179648250341,-1.07769012451,-0.0113466959447,-0.853847503662,-0.017978515476,1.02268791199,0.0324546135962,27.14889144901,94.97831726079,47.492660522438,31.51132774349,2120
1.64950667914356E+018,56,1.64950667914356E+018,r1000913c5/base_footprint,0,1.64950667914356E+018,v/m1vw10zy74w/map,-11.5726230933,-0.981923099379,0,0,0,-0.716830592709,0.697247374579,0,66.508934021,32.0261421204,45.0899467468,96.0560073853,48.3540802002,48.3540802002,66.508934021,66.508934021,30.8648986816,0.385591924191,0,0.000195045111468,0.152232170105,0.00465641543269,0.00485146045685,-4.87725067139,-0.179648250341,-1.07769012451,-0.0113466959447,-0.861419677734,-0.0181379541755,0.64642906189,0.0205141808838,27.14889144901,94.97831726079,47.492660522466,31.51132774349,2120
1.64950667924337E+018,57,1.64950667924337E+018,r1000913c5/base_footprint,0,1.64950667924337E+018,v/m1vw10zy74w/map,-11.5726230933,-0.981923099379,0,0,0,-0.716830592709,0.697247374579,0,66.4962539673,33.391002655,46.4817695618,96.0560073853,48.2429351807,48.2429351807,66.4962539673,66.4962539673,29.8927135468,0.512999773026,0,0.000181566618267,0.151160612702,0.000655919488054,0.000837486120872,-6.24211120605,-0.229921400547,-1.07769012451,-0.0113466959447,-0.750274658203,-0.0157976970077,1.61861419678,0.0513661056757,27.14889144895,94.97831726079,47.492660522497,31.51132774358,2120
1.6495066793442E+018,58,1.6495066793442E+018,r1000913c5/base_footprint,0,1.6495066793442E+018,v/m1vw10zy74w/map,-11.5691810905,-0.848487234971,0,0,0,-0.716253556302,0.697840127167,0,66.388381958,31.3009872437,47.3137664795,95.8626937866,48.0653572083,48.0653572083,66.388381958,66.388381958,29.2206954956,0.364202558994,0,8.71318334248E-05,0.14897467196,0.0046496023424,0.00473673408851,-5.11137008667,-0.195167809725,-0.877349853516,-0.00923668686301,-0.472122192383,-0.00991994328797,2.52580451965,0.0795616656542,26.18961715703,94.985343933084,47.593235015917,31.74650001525,2157
1.64950667944522E+018,59,1.64950667944522E+018,r1000913c5/base_footprint,0,1.64950667944522E+018,v/m1vw10zy74w/map,-11.5691810905,-0.848487234971,0,0,0,-0.716253556302,0.697840127167,0,66.1917572021,31.9327735901,48.1440353394,95.8626937866,47.87525177,47.87525177,66.1917572021,66.1917572021,30.7068328857,0.36420071125,0,4.50358274975E-05,0.148609489202,0.0051785344258,0.00513349846005,-5.74315643311,-0.219291344285,-0.877349853516,-0.00923668686301,-0.28201675415,-0.00592556409538,1.03966712952,0.0327490307391,26.18961715699,94.985343933084,47.59323501585,31.74650001522,2157
1.64950667954468E+018,60,1.64950667954468E+018,r1000913c5/base_footprint,0,1.64950667954468E+018,v/m1vw10zy74w/map,-11.565159593,-0.734926898533,0,0,0,-0.717930175203,0.696115122328,0,66.1035690308,31.4430809021,49.0394935608,95.8808746338,47.7373657227,47.7373657227,66.1035690308,66.1035690308,30.8704452515,0.401347130537,0,0.000275294762105,0.148688435555,0.00549755198881,0.00577284675092,-5.84945869446,-0.228551417589,-0.932235717773,-0.00981831550598,-0.128246307373,-0.00269373413175,1.07513046265,0.0336550660431,25.59362220764,94.948638916027,47.609119415327,31.94557571415,2069
1.64950667964491E+018,61,1.64950667964491E+018,r1000913c5/base_footprint,0,1.64950667964492E+018,v/m1vw10zy74w/map,-11.5641180948,-0.742878772508,0,0,0,-0.718028735109,0.696013459322,0,66.0052490234,35.674987793,49.0813026428,95.9257354736,47.6837730408,47.6837730408,66.0052490234,66.0052490234,32.2228507996,0.36592823267,0,0.000514577957802,0.148898929358,0.00582708138973,0.00634165946394,-10.0813655853,-0.393901467323,-0.977096557617,-0.0102907903492,-0.0746536254883,-0.00156805303413,-0.277275085449,-0.0086796078831,25.5936222077,94.948638915983,47.6091194153117,31.945575714151,2069
1.64950667974432E+018,62,1.64950667974432E+018,r1000913c5/base_footprint,0,1.64950667974432E+018,v/m1vw10zy74w/map,-11.5641180948,-0.742878772508,0,0,0,-0.718028735109,0.696013459322,0,65.6003875732,32.1597251892,49.0296974182,95.9257354736,47.5891189575,47.5891189575,65.6003875732,65.6003875732,38.4882049561,0.390213906765,0,0.000463136122562,0.14895427227,0.00554630206898,0.00600943807513,-6.56610298157,-0.256552308798,-0.977096557617,-0.0102907903492,0.0200004577637,0.00042009720346,-6.54262924194,-0.204805493355,25.59362220763,94.948638915983,47.6091194152637,31.94557571416,2069
1.64950667994434E+018,63,1.64950667994434E+018,r1000913c5/base_footprint,0,1.64950667994434E+018,v/m1vw10zy74w/map,-11.5641180948,-0.742878772508,0,0,0,-0.718028735109,0.696013459322,0,65.6639785767,28.3887462616,49.0296974182,95.9257354736,47.4613647461,47.4613647461,65.6639785767,65.6639785767,35.9637527466,0.416967064142,0,0.000353550363798,0.14903254807,0.00328537751921,0.0036389278248,-2.79512405396,-0.109211742878,-0.977096557617,-0.0102907903492,0.147754669189,0.00310349510983,-4.01817703247,-0.125781953335,25.59362220764,94.948638915983,47.609119415289,31.94557571413,2069
1.6495066800436E+018,64,1.6495066800436E+018,r1000913c5/base_footprint,0,1.6495066800436E+018,v/m1vw10zy74w/map,-11.5611358012,-0.614885499461,0,0,0,-0.717998271468,0.696044885169,0,65.8317489624,26.8907566071,49.0296974182,96.0168304443,47.2945137024,47.2945137024,65.8317489624,65.8317489624,31.469877243,0.50553548336,0,0.000652472313959,0.149345591664,0.00176858378109,0.00242105615325,-1.92477226257,-0.0770957916975,-1.10493469238,-0.0116416877136,0.352695465088,0.00740222726017,0.707143783569,0.0219766702503,24.96598434453,94.91189575192,47.647209167488,32.177021026569,1934
1.64950668014403E+018,65,1.64950668014403E+018,r1000913c5/base_footprint,0,1.64950668014403E+018,v/m1vw10zy74w/map,-11.5611358012,-0.614885499461,0,0,0,-0.717998271468,0.696044885169,0,65.3775558472,22.9792633057,48.959197998,96.0168304443,47.1139831543,47.1139831543,65.3775558472,65.3775558472,37.69556427,0.364546507597,0,0.000650336558465,0.149660661817,0.00177071953658,0.00242105615325,1.98672103882,0.0795771181583,-1.10493469238,-0.0116416877136,0.533226013184,0.0111911278218,-5.51854324341,-0.171505719423,24.96598434452,94.91189575192,47.647209167484,32.17702102659,1934
1.64950668024581E+018,66,1.64950668024581E+018,r1000913c5/base_footprint,0,1.64950668024581E+018,v/m1vw10zy74w/map,-11.5548127959,-0.498451526626,0,0,0,-0.717675309778,0.696377878551,0,65.4613418579,31.0924377441,48.959197998,96.1292266846,46.9254417419,46.9254417419,65.4613418579,65.4613418579,34.5557785034,0.347748070955,0,0.000629453745205,0.149663940072,0.00179160234984,0.00242105615325,-6.57876777649,-0.268371403217,-1.25634765625,-0.0132424319163,0.685886383057,0.0144059490412,-2.34245681763,-0.0727170184255,24.51366996761,94.87287902835,47.611328124957,32.21332168577,1742
1.64950668134537E+018,67,1.64950668134537E+018,r1000913c5/base_footprint,0,1.64950668134538E+018,v/m1vw10zy74w/map,-11.5515233467,-0.361582397626,0,0,0,-0.71681062882,0.697267898594,0,65.3904724121,30.0937767029,48.959197998,96.1838150024,46.7046394348,46.7046394348,65.3904724121,65.3904724121,33.6433601379,0.337692886591,0,0.00119697640184,0.217380613089,0.0222061127424,0.0210091359913,-5.68862342834,-0.233091071248,-1.34729766846,-0.0142065286636,0.91731262207,0.0192623902112,-1.45699691772,-0.0452675223351,24.40515327456,94.83651733394,47.62195205687,32.18636322018,1576
1.64950668144348E+018,68,1.64950668144348E+018,r1000913c5/base_footprint,0,1.64950668144348E+018,v/m1vw10zy74w/map,-11.5515233467,-0.361582397626,0,0,0,-0.71681062882,0.697267898594,0,65.9014129639,30.4422492981,49.0324783325,96.1838150024,46.5305252075,46.5305252075,65.9014129639,65.9014129639,22.5659599304,0.482422411442,0,0.00210858741775,0.213643372059,0.0394664257765,0.0373578369617,-6.03709602356,-0.247369721532,-1.34729766846,-0.0142065286636,1.09142684937,0.0229185651988,9.62040328979,0.298896878958,24.40515327454,94.83651733394,47.62195205687,32.18636322019,1576
1.64950668154379E+018,69,1.64950668154379E+018,r1000913c5/base_footprint,0,1.64950668154379E+018,v/m1vw10zy74w/map,-11.5515233467,-0.361582397626,0,0,0,-0.71681062882,0.697267898594,0,65.2280349731,27.8660373688,49.0324783325,96.1838150024,46.2847709656,46.2847709656,65.2280349731,65.2280349731,32.032661438,0.488429635763,0,0.00288016418926,0.210988789797,0.0643301531672,0.0614499896765,-3.46088409424,-0.141809567809,-1.34729766846,-0.0142065286636,1.33718109131,0.0280790906399,0.153701782227,0.00477536953986,24.40515327456,94.83651733394,47.62195205691,32.186363220227,1576
1.64950668164403E+018,70,1.64950668164403E+018,r1000913c5/base_footprint,0,1.64950668164403E+018,v/m1vw10zy74w/map,-11.5534502752,-0.440737088181,0,0,0,-0.678427487724,0.734667369563,0,64.9247741699,23.0103797913,49.0324783325,95.7732543945,46.0084991455,46.0084991455,64.9247741699,64.9247741699,33.0296211243,0.41838991642,0,0.00348872621544,0.208329737186,0.0800743401051,0.0765856131911,1.41178512573,0.0578075349331,-0.915786743164,-0.00965434499085,1.5899810791,0.0334040299058,-0.802242279053,-0.0248931907117,24.42216491703,94.857467651336,47.5984802246,32.227378845247,1668
1.64950668174363E+018,71,1.64950668174363E+018,r1000913c5/base_footprint,0,1.64950668174363E+018,v/m1vw10zy74w/map,-11.5443352426,-0.506744021015,0,0,0,-0.634798023196,0.772678115224,0,64.827507019,17.1122989655,49.0324783325,95.836769104,45.7220458984,45.7220458984,64.827507019,64.827507019,31.9152965546,0.497713476419,0,0.00416655978188,0.200458005071,0.127627909184,0.123461350799,7.4013710022,0.301928311586,-0.963890075684,-0.0101598063484,1.88928222656,0.0396813601255,0.298025131226,0.00925161130726,24.5136699677,94.872879028316,47.61132812496,32.213321685826,1742
1.64950668184518E+018,72,1.64950668184518E+018,r1000913c5/base_footprint,0,1.64950668184518E+018,v/m1vw10zy74w/map,-11.5328111538,-0.554629133796,0,0,0,-0.591221300854,0.806509375901,0,64.4379425049,21.2669677734,49.0679359436,95.6225738525,45.2759933472,45.2759933472,64.4379425049,64.4379425049,33.339099884,0.538441300392,0,0.00463692005724,0.197302684188,0.139098957181,0.134462043643,3.37752532959,0.137049898505,-0.740882873535,-0.00780849158764,2.39241409302,0.0501886717975,-1.02789306641,-0.0318122766912,24.64449310299,94.881690978965,47.66840744022,32.31120681759,1828
1.64950668194444E+018,73,1.64950668194444E+018,r1000913c5/base_footprint,0,1.64950668194444E+018,v/m1vw10zy74w/map,-11.5146717374,-0.600443700765,0,0,0,-0.545324281973,0.83822516515,0,64.2502288818,17.2794113159,49.0879821777,95.9003829956,44.9421424866,44.9421424866,64.2502288818,64.2502288818,34.1123199463,0.702632546425,0,0.00593605870381,0.152283966541,0.101740956306,0.095804899931,7.5020980835,0.302729666233,-0.998031616211,-0.0105164051056,2.7098197937,0.0568669103086,-1.81109619141,-0.0560689643025,24.7815093994,94.902351379389,47.6519622803,32.30122375489,1900
1.64950668204415E+018,74,1.64950668204415E+018,r1000913c5/base_footprint,0,1.64950668204415E+018,v/m1vw10zy74w/map,-11.5089709473,-0.609564779102,0,0,0,-0.532308518322,0.846550436372,0,63.7707443237,13.4117650986,49.1206741333,95.9850616455,44.530330658,44.530330658,63.7707443237,63.7707443237,38.6003723145,0.395720392466,0,0.00582300918177,0.107611827552,0.0473102107644,0.0414872020483,11.5274019241,0.462220817804,-1.06802368164,-0.0112521806732,3.12682723999,0.0656108632684,-6.37781143188,-0.197929993272,24.9391670227,94.91703796386,47.65715789799,32.22256088262,1954
1.64950668214445E+018,75,1.64950668214445E+018,r1000913c5/base_footprint,0,1.64950668214445E+018,v/m1vw10zy74w/map,-11.4977533134,-0.63374618029,0,0,0,-0.486078755701,0.873915009172,0,63.8982963562,19.5575656891,49.097984314,95.9120254517,44.3849906921,44.3849906921,63.8982963562,63.8982963562,34.4718437195,0.429863959551,0,0.00427269050851,0.0849581584334,0.0217400807887,0.0174673907459,5.38160133362,0.215789139271,-0.994987487793,-0.0104827070609,3.27216720581,0.0686605647206,-2.24928283691,-0.0698045939207,24.93916702272,94.917037963907,47.65715789791,32.22256088259,1954
1.64950668224358E+018,76,1.64950668224358E+018,r1000913c5/base_footprint,0,1.64950668224358E+018,v/m1vw10zy74w/map,-11.4952245014,-0.62650241501,0,0,0,-0.437013445275,0.899454973108,0,64.168296814,29.0060844421,48.8758354187,96.021446228,44.3835601807,44.3835601807,64.168296814,64.168296814,29.9903049469,0.517815709114,0,0.0018961278256,0.0718153938651,0.0272740423679,0.0253779143095,-4.06691741943,-0.163073509932,-1.10440826416,-0.0116355111822,3.27359771729,0.0686905756593,2.23225593567,0.0692761838436,24.93916702267,94.91703796384,47.65715789799,32.22256088257,1954
1.64950668314338E+018,77,1.64950668314338E+018,r1000913c5/base_footprint,0,1.64950668314338E+018,v/m1vw10zy74w/map,-11.4888137126,-0.635255579859,0,0,0,-0.381588167098,0.924332446001,0,64.1427459717,22.9208927155,48.4045372009,96.2351989746,44.2555465698,44.2555465698,64.1427459717,64.1427459717,29.8372383118,0.524975478649,0,0.00034358992707,0.0133188990876,0.066095367074,0.0657517760992,2.01827430725,0.0809278935194,-1.31816101074,-0.0138875069097,3.40161132812,0.0713767111301,2.3853225708,0.0740264728665,24.93916702275,94.91703796386,47.65715789792,32.2225608826,1954
1.64950668324492E+018,78,1.64950668324492E+018,r1000913c5/base_footprint,0,1.64950668324492E+018,v/m1vw10zy74w/map,-11.4888137126,-0.635255579859,0,0,0,-0.381588167098,0.924332446001,0,63.8657951355,29.4117641449,47.6796302795,96.2351989746,44.3508644104,44.3508644104,63.8657951355,63.8657951355,35.851764679,0.540321052074,0,0.000566316884942,0.00296405469999,0.0613672919571,0.060800973326,-4.47259712219,-0.179340273142,-1.31816101074,-0.0138875069097,3.30629348755,0.0693766400218,-3.62920379639,-0.112629279494,24.93916702271,94.91703796386,47.65715789795,32.22256088261,1954
1.64950668334861E+018,79,1.64950668334861E+018,r1000913c5/base_footprint,0,1.64950668334861E+018,v/m1vw10zy74w/map,-11.4888137126,-0.635255579859,0,0,0,-0.381588167098,0.924332446001,0,64.1927185059,30.6184005737,46.8327674866,96.2351989746,44.7157783508,44.7157783508,64.1927185059,64.1927185059,33.9082450867,0.501374840736,0,0.000477849622257,0.00561707094312,0.0572680793703,0.0567902289331,-5.67923355103,-0.22772346437,-1.31816101074,-0.0138875069097,2.94137954712,0.0617195740342,-1.6856842041,-0.052313786,24.93916702267,94.91703796386,47.65715789792,32.2225608826,1954
1.64950668344374E+018,80,1.64950668344374E+018,r1000913c5/base_footprint,0,1.64950668344374E+018,v/m1vw10zy74w/map,-11.4834583556,-0.638186848268,0,0,0,-0.332764400644,0.943009996587,0,64.5461730957,28.2639884949,46.0031051636,96.0496292114,45.0531425476,45.0531425476,64.5461730957,64.5461730957,30.5214595795,0.396697342396,0,0.000259121356066,0.0216386821121,0.0448269955814,0.0450861155987,-3.47827720642,-0.140333965421,-1.16173553467,-0.0122432429343,2.57542419434,0.0540730990469,1.77757453918,0.0550349131227,24.78571128848,94.88789367673,47.62856674194,32.29903411868,1972
1.6495066835436E+018,81,1.6495066835436E+018,r1000913c5/base_footprint,0,1.6495066835436E+018,v/m1vw10zy74w/map,-11.4834583556,-0.638186848268,0,0,0,-0.332764400644,0.943009996587,0,64.5422439575,31.6888046265,46.0031051636,96.0496292114,45.3026657104,45.3026657104,64.5422439575,64.5422439575,33.2870750427,0.35952064395,0,0.00107257592026,0.0257050711662,0.0436601117253,0.0447326861322,-6.90309333801,-0.278511017561,-1.16173553467,-0.0122432429343,2.32590103149,0.0488341599703,-0.988040924072,-0.0305904168636,24.78571128849,94.88789367673,47.62856674189,32.299034118628,1972
1.64950668364339E+018,82,1.64950668364339E+018,r1000913c5/base_footprint,0,1.64950668364339E+018,v/m1vw10zy74w/map,-11.4475032772,-0.663679355736,0,0,0,-0.285629461646,0.958340133063,0,65.0755996704,28.6403083801,46.0031051636,96.1107940674,45.6617431641,45.6617431641,65.0755996704,65.0755996704,27.784942627,0.494258403778,0,0.00165021477733,0.0221100449562,0.0472561568022,0.0489063709974,-3.6602935791,-0.146528884768,-1.20951080322,-0.0127449361607,1.95630264282,0.0410832203925,4.46022415161,0.138322249055,24.980014801,94.90128326418,47.61804580692,32.24516677861,2016
1.64950668374497E+018,83,1.64950668374497E+018,r1000913c5/base_footprint,0,1.64950668374497E+018,v/m1vw10zy74w/map,-11.4433856739,-0.666483510887,0,0,0,-0.277567893891,0.96070602386,0,64.9363479614,27.8299560547,45.3274269104,96.1563415527,45.8812828064,45.8812828064,64.9363479614,64.9363479614,32.8264389038,0.417106717825,0,0.00190497806761,0.0197430811822,0.0556916743517,0.0575966536999,-2.84994125366,-0.114088855684,-1.25505828857,-0.0132248820737,1.73676300049,0.0364727899432,-0.581272125244,-0.018026644364,24.98001480104,94.90128326413,47.61804580689,32.245166778556,2016
1.64950668384336E+018,84,1.64950668384336E+018,r1000913c5/base_footprint,0,1.64950668384336E+018,v/m1vw10zy74w/map,-11.4074701742,-0.690273449665,0,0,0,-0.222968513322,0.974825647009,0,65.0560913086,29.61287117,45.3274269104,96.482460022,46.076915741,46.076915741,65.0560913086,65.0560913086,33.9578437805,0.554029524326,0,0.00200838735327,0.015422933735,0.0655344948173,0.0675428807735,-4.6796836853,-0.187688946724,-1.57501220703,-0.0165952444077,1.60432052612,0.0336467884481,-1.64910888672,-0.0510421991348,24.9331874847,94.90744781497,47.68123626712,32.30873489378,2024
1.64950668394362E+018,85,1.64950668394362E+018,r1000913c5/base_footprint,0,1.64950668394362E+018,v/m1vw10zy74w/map,-11.3565308885,-0.710148045917,0,0,0,-0.165221086176,0.986256555204,0,65.2169265747,42.1568641663,44.7274856567,96.4783706665,46.6008911133,46.6008911133,65.2169265747,65.2169265747,36.7070732117,0.321756094694,0,0.00245700823143,0.0123769231141,0.0842470377684,0.0867040455341,-17.0911808014,-0.681855797768,-1.56190490723,-0.0164555739611,1.05025863647,0.0220405720174,-4.39241027832,-0.135926231742,25.0656833649,94.91646575927,47.65114974977,32.31466293338,2068
1.64950668404355E+018,86,1.64950668404355E+018,r1000913c5/base_footprint,0,1.64950668404355E+018,v/m1vw10zy74w/map,-11.3565308885,-0.710148045917,0,0,0,-0.165221086176,0.986256555204,0,65.8927001953,30.2093715668,44.2986564636,96.4783706665,47.1348686218,47.1348686218,65.8927001953,65.8927001953,30.3100891113,0.376438498497,0,0.00280501274392,0.0144777772948,0.108171060681,0.110976077616,-5.1436882019,-0.20520837605,-1.56190490723,-0.0164555739611,0.51628112793,0.0108345998451,2.00457382202,0.0620329491794,25.0656833649,94.91646575927,47.65114974973,32.31466293332,2068
1.64950668414422E+018,87,1.64950668414422E+018,r1000913c5/base_footprint,0,1.64950668414422E+018,v/m1vw10zy74w/map,-11.3027677874,-0.723295556528,0,0,0,-0.11568672119,0.993285750698,0,65.783416748,31.6239318848,43.951385498,96.6257324219,47.5931777954,47.5931777954,65.783416748,65.783416748,37.7573852539,0.370798647404,0,0.00307856756262,0.0216615386307,0.151082292199,0.154160857201,-6.66452598572,-0.267014622688,-1.72928619385,-0.0182228758931,0.0986366271973,0.00206820876338,-5.33237075806,-0.164452373981,24.95940589908,94.89644622805,47.6918144225973,32.42501449584,2063
1.64950668424481E+018,88,1.64950668424481E+018,r1000913c5/base_footprint,0,1.64950668424481E+018,v/m1vw10zy74w/map,-11.2255535094,-0.73801353364,0,0,0,-0.0624303937458,0.998049320393,0,66.2122497559,34.9845199585,43.7058296204,96.669418335,48.1663169861,48.1663169861,66.2122497559,66.2122497559,36.3856163025,0.371926814318,0,0.0022111653816,0.0277242995799,0.173877462745,0.176088631153,-10.2042675018,-0.411790281534,-1.79822540283,-0.0189543887973,-0.399417877197,-0.00836181268096,-3.72537994385,-0.114064693451,24.7802524567,94.87119293217,47.766899108903,32.66023635865,1994
1.64950668434465E+018,89,1.64950668434465E+018,r1000913c5/base_footprint,0,1.64950668434465E+018,v/m1vw10zy74w/map,-11.2255535094,-0.73801353364,0,0,0,-0.0624303937458,0.998049320393,0,66.7011032104,32.3760986328,43.6163978577,96.669418335,48.6536216736,48.6536216736,66.7011032104,66.7011032104,32.8491172791,0.309033125639,0,0.0021704591345,0.0355729684234,0.194771304727,0.196941763163,-7.59584617615,-0.30652821064,-1.79822540283,-0.0189543887973,-0.886722564697,-0.0185635369271,-0.18888092041,-0.0057832072489,24.78025245665,94.87119293217,47.766899108903,32.66023635869,1994
1.64950668444465E+018,90,1.64950668444465E+018,r1000913c5/base_footprint,0,1.64950668444465E+018,v/m1vw10zy74w/map,-11.0925976805,-0.746716820882,0,0,0,-0.0132477658466,0.9999122445,0,67.0988388062,37.5,43.5730743408,96.4278411865,49.2062263489,49.2062263489,67.0988388062,67.0988388062,30.7883911133,0.309891849756,0,0.00143566878978,0.0394327230752,0.228397995234,0.229833677411,-12.6349601746,-0.508141577244,-1.60742950439,-0.0169523581862,-0.852348327637,-0.0176273006946,2.39876937866,0.0722800418735,24.8650398254,94.82041168211,48.353878021263,33.18716049196,1826
1.64950668454424E+018,91,1.64950668454424E+018,r1000913c5/base_footprint,0,1.64950668454424E+018,v/m1vw10zy74w/map,-11.0925976805,-0.746716820882,0,0,0,-0.0132477658466,0.9999122445,0,67.342918396,31.2217197418,43.723991394,96.4278411865,49.7709884644,49.7709884644,67.342918396,67.342918396,32.4943389893,0.254889369011,0,0.0011714566499,0.0411762446165,0.241649582982,0.242821037769,-6.35667991638,-0.255647271872,-1.60742950439,-0.0169523581862,-1.41711044312,-0.0293070692569,0.692821502686,0.0208761915565,24.86503982542,94.82041168211,48.35387802128,33.187160491986,1826
1.64950668464525E+018,92,1.64950668464525E+018,r1000913c5/base_footprint,0,1.64950668464525E+018,v/m1vw10zy74w/map,-10.9660894239,-0.743293082766,0,0,0,0.0112362481499,0.999936871371,0,67.2940597534,32.5125389099,43.723991394,96.4182510376,50.2597808838,50.2597808838,67.2940597534,67.2940597534,38.6182098389,0.303951114416,0,0.00116090103984,0.0460488349199,0.270170271397,0.269009381533,-6.97754669189,-0.273254305124,-1.75391387939,-0.0185277145356,-0.441242218018,-0.00885698851198,-4.43996047974,-0.129906028509,25.53499221801,94.66433715821,49.818538665782,34.17824935916,1034
1.64950668474324E+018,93,1.64950668474324E+018,r1000913c5/base_footprint,0,1.64950668474324E+018,v/m1vw10zy74w/map,-10.9660894239,-0.743293082766,0,0,0,0.0112362481499,0.999936871371,0,67.3986663818,29.4117641449,44.0654754639,96.4182510376,50.6584205627,50.6584205627,67.3986663818,67.3986663818,41.0406990051,0.248497158289,0,0.00196558074094,0.0517552495003,0.302815437317,0.300849854946,-3.87677192688,-0.151821941137,-1.75391387939,-0.0185277145356,-0.839881896973,-0.0168588217348,-6.862449646,-0.200784116983,25.53499221802,94.66433715821,49.818538665727,34.1782493591,1034
1.6495066848433E+018,94,1.6495066848433E+018,r1000913c5/base_footprint,0,1.6495066848433E+018,v/m1vw10zy74w/map,-10.8360247491,-0.738597424473,0,0,0,0.0218889415248,0.999760408417,0,67.9293823242,32.2638130188,44.0654754639,96.3270645142,51.2827301025,51.2827301025,67.9293823242,67.9293823242,37.9020996094,0.423116862774,0,0.00307060498744,0.0572022423148,0.338718920946,0.335648328066,-6.76154899597,-0.265135258436,-1.68098449707,-0.0177607405931,-1.23598098755,-0.0246965289116,-3.52583694458,-0.102566033602,25.50226402283,94.64608001713,50.04674911495,34.37626266482,937
1.64950668494404E+018,95,1.64950668494404E+018,r1000913c5/base_footprint,0,1.64950668494404E+018,v/m1vw10zy74w/map,-10.7296972537,-0.732427463957,0,0,0,0.02242393025,0.999748552063,0,68.1175460815,33.542881012,44.4573822021,96.134803772,51.7750663757,51.7750663757,68.1175460815,68.1175460815,39.1401443481,0.368907868862,0,0.00404974166304,0.0609059594572,0.359925299883,0.355875551701,-7.59313964844,-0.292609453201,-1.41268157959,-0.0149139566347,-1.39003753662,-0.0275883041322,-4.99607849121,-0.146323472261,25.94974136356,94.72212219241,50.38502883908,34.14406585689,873
1.64950668504478E+018,96,1.64950668504478E+018,r1000913c5/base_footprint,0,1.64950668504478E+018,v/m1vw10zy74w/map,-10.6143039985,-0.723596864998,0,0,0,0.0185134233918,0.99982861189,0,68.6020278931,38.0332298279,44.4573822021,96.1770782471,52.2479400635,52.2479400635,68.6020278931,68.6020278931,35.6787605286,0.525214493275,0,0.00555282877758,0.0371961519122,0.348066985607,0.342514157295,-12.1940975189,-0.471923649311,-1.33673095703,-0.0140945389867,-2.23460769653,-0.0446802414954,-2.18354034424,-0.0651896074414,25.839132309,94.84034729007,50.01333236697,33.49522018436,1035
1.64950668514422E+018,97,1.64950668514422E+018,r1000913c5/base_footprint,0,1.64950668514423E+018,v/m1vw10zy74w/map,-10.5053896663,-0.719063703939,0,0,0,0.0142750619702,0.999898106112,0,68.8154220581,34.6405220032,45.141658783,96.013420105,52.5527763367,52.5527763367,68.8154220581,68.8154220581,34.54063797,0.623560070992,0,0.00631904602051,0.000393493333831,0.293442696333,0.287123650312,-8.82414245605,-0.341804027557,-1.12698364258,-0.0118771838024,-2.86038970947,-0.057561930269,-1.55812454224,-0.0472409278154,25.81637954715,94.88643646242,49.69238662723,32.98251342776,1151
1.64950668524471E+018,98,1.64950668524471E+018,r1000913c5/base_footprint,0,1.64950668524471E+018,v/m1vw10zy74w/map,-10.4858236864,-0.716963297604,0,0,0,0.0129362168029,0.999916323647,0,68.9256210327,31.1546840668,45.8439979553,96.0327377319,52.8175010681,52.8175010681,68.9256210327,68.9256210327,35.4857063293,0.569431900978,0,0.00338037358597,0.0218310467899,0.25858566165,0.255205303431,-5.33830451965,-0.206779748201,-1.14630126953,-0.0120807709172,-3.12511444092,-0.0628892034292,-2.50319290161,-0.075894549489,25.81637954715,94.88643646237,49.69238662718,32.98251342769,1151
1.64950668534457E+018,99,1.64950668534457E+018,r1000913c5/base_footprint,0,1.64950668534457E+018,v/m1vw10zy74w/map,-10.354179677,-0.708939718867,0,0,0,0.00950038114056,0.999954870361,0,69.0697479248,26.2510967255,46.4777297974,95.5594787598,53.0111236572,53.0111236572,69.0697479248,69.0697479248,33.2788696289,0.708429336548,0,0.00171786779538,0.0228392332792,0.278084248304,0.276366382837,-0.545106887817,-0.0212054420263,-0.611251831055,-0.00643773842603,-3.43030929565,-0.0691862255335,-0.488689422607,-0.0149035295472,25.705989837683,94.948226928745,49.58081436155,32.790180206293,1233
1.64950668544333E+018,100,1.64950668544333E+018,r1000913c5/base_footprint,0,1.64950668544333E+018,v/m1vw10zy74w/map,-10.212209832,-0.70507313386,0,0,0,0.00186536173165,0.999998260211,0,69.1199645996,26.3583297729,47.1417236328,95.4374160767,53.1840553284,53.1840553284,69.1199645996,69.1199645996,33.8030586243,0.790331840515,0,0.00293498020619,0.0153988786042,0.242441833019,0.239506840706,-1.56816101074,-0.0632573738694,-0.593887329102,-0.00626175897196,-4.22651672363,-0.0863302499056,-1.14223098755,-0.0349725075066,24.79016876216,94.843528747598,48.95753860477,32.66082763675,1198
