%time,field.header.seq,field.header.stamp,field.header.frame_id,field.pose.header.seq,field.pose.header.stamp,field.pose.header.frame_id,field.pose.pose.position.x,field.pose.pose.position.y,field.pose.pose.position.z,field.pose.pose.orientation.x,field.pose.pose.orientation.y,field.pose.pose.orientation.z,field.pose.pose.orientation.w,field.label,field.main_output,field.scan_score,field.pose_score,field.cov_score,field.lhood_map_score,field.lhood_robot_score,field.lhood_map_score_all,field.lhood_robot_score_all,field.point_angle_diff,field.average_orientation,field.map_average_orientation,field.sensor_div,field.odom_div_x,field.odom_div_w,field.imu_div_w,field.kdtree_div,field.kdtree_div_p,field.cov_div,field.cov_div_p,field.likelihood_div,field.likelihood_div_p,field.normal_diff_div,field.normal_diff_div_p,field.kdtree_average,field.cov_average,field.likelihood_average,field.normal_diff_average,field.map_update_count
1.64951275466678E+018,0,1.64951275466678E+018,r1000913c5/base_footprint,0,1.64951275466678E+018,v/m1vw10zy74w/map,-14.2675631224,-0.648638686559,0,0,0,-0.999882439233,0.0153332225316,0,67.0548095703,1.65441179276,100,92.5551834106,51.6484375,51.6484375,67.0548095703,67.0548095703,44.0152435303,0.329414129257,0,0.00288544781506,1.05743253231,0.0582270212471,0.0553415715694,27.8519210815,0.943930268288,1.65660095215,0.0175837967545,-1.07359695435,-0.0212278869003,-16.0853404999,-0.575918257236,29.50633287426,94.21178436275,50.57484054565,27.9299030304,805
1.64951275476677E+018,1,1.64951275476677E+018,r1000913c5/base_footprint,0,1.64951275476677E+018,v/m1vw10zy74w/map,-14.3892777612,-0.6586894262,0,0,0,-0.998183518398,0.0602466895273,0,68.5989837646,51.1184768677,48.9810562134,93.035446167,52.0173950195,52.0173950195,68.5989837646,68.5989837646,21.9338226318,0.26249101758,0,0.00432770559564,1.03044831753,0.073399335146,0.0690716281533,-20.7244644165,-0.681860089302,1.20758056641,0.0128134740517,-1.30319213867,-0.0256967879832,5.72441482544,0.206969618797,30.3940124512,94.24302673341,50.71420288083,27.65823745724,808
1.64951275486741E+018,2,1.64951275486741E+018,r1000913c5/base_footprint,0,1.64951275486741E+018,v/m1vw10zy74w/map,-14.4766330812,-0.671973445677,0,0,0,-0.992910361465,0.118865529466,0,68.4622116089,44.5865287781,48.1756858826,93.3636627197,52.110584259,52.110584259,68.4622116089,68.4622116089,26.5836868286,0.101988397539,0,0.00653258664533,1.05776298046,0.0842144116759,0.0776818245649,-13.823972702,-0.449376583099,0.908843994141,0.00964060518891,-1.34375762939,-0.0264692064375,0.887163162231,0.0322947092354,30.7625560761,94.272506713841,50.76682662961,27.470849990831,836
1.64951275496677E+018,3,1.64951275496677E+018,r1000913c5/base_footprint,0,1.64951275496677E+018,v/m1vw10zy74w/map,-14.5063037792,-0.678704318442,0,0,0,-0.985062658454,0.172196280213,0,68.7960891724,43.2924232483,48.1756858826,93.2229156494,52.182258606,52.182258606,68.7960891724,68.7960891724,20.8413276672,0.1222814098,0,0.00618889555335,1.06699836254,0.0832549780607,0.0770660862327,-12.3505802155,-0.399154633284,1.04187774658,0.0110526708886,-1.37809371948,-0.0271256044507,6.57843589783,0.239915847778,30.9418430328,94.26479339598,50.80416488652,27.41976356503,829
1.64951275506721E+018,4,1.64951275506721E+018,r1000913c5/base_footprint,0,1.64951275506721E+018,v/m1vw10zy74w/map,-14.511743929,-0.681824754181,0,0,0,-0.974696445324,0.223532636258,0,68.7015838623,43.8103599548,47.8118171692,93.5294494629,52.1446304321,52.1446304321,68.7015838623,68.7015838623,23.2395172119,-0.0558878220618,0,0.00694367475808,1.0432612896,0.0762463361025,0.0693026632071,-12.868516922,-0.415893673897,0.735343933105,0.00780083332211,-1.34046554565,-0.0263849534094,4.18024635315,0.152453765273,30.9418430328,94.264793396005,50.80416488645,27.41976356505,829
1.64951275516675E+018,5,1.64951275516675E+018,r1000913c5/base_footprint,0,1.64951275516675E+018,v/m1vw10zy74w/map,-14.522312294,-0.6719519907,0,0,0,-0.971710070427,0.236176923156,0,69.0723571777,43.3878822327,47.3415374756,93.6609802246,52.2835502625,52.2835502625,69.0723571777,69.0723571777,18.5394496918,0.1707123667,0,0.00707805342972,1.01461017132,0.0545879304409,0.0475098751485,-12.4460391998,-0.402239739895,0.603813171387,0.00640550022945,-1.47938537598,-0.0291193723679,8.88031387329,0.323865443468,30.9418430329,94.264793395987,50.80416488652,27.41976356509,829
1.64951275526677E+018,6,1.64951275526677E+018,r1000913c5/base_footprint,0,1.64951275526677E+018,v/m1vw10zy74w/map,-14.5097797426,-0.682681060755,0,0,0,-0.957492468046,0.288458270178,0,68.8005828857,41.6187515259,47.2143974304,93.7516784668,52.142414093,52.142414093,68.8005828857,68.8005828857,22.2335681915,0.141364052892,0,0.00726481853053,0.991296827793,0.041750293225,0.0344854742289,-10.676908493,-0.345063745975,0.513114929199,0.00544333597645,-1.33824920654,-0.0263413283974,5.18619537354,0.18914078176,30.9418430329,94.264793395999,50.80416488646,27.41976356504,829
1.6495127553668E+018,7,1.6495127553668E+018,r1000913c5/base_footprint,0,1.6495127553668E+018,v/m1vw10zy74w/map,-14.502371728,-0.682265632675,0,0,0,-0.941419067194,0.337238995259,0,68.8299102783,42.5033187866,46.7971839905,93.4997940063,52.084564209,52.084564209,68.8299102783,68.8299102783,20.1741504669,0.0435472987592,0,0.00706893624738,0.961908996105,0.0188914928585,0.0118225570768,-11.5614757538,-0.37365180254,0.764999389648,0.00811543036252,-1.28039932251,-0.0252026449889,7.24561309814,0.264247834682,30.9418430328,94.264793395948,50.80416488649,27.41976356504,829
1.64951275546679E+018,8,1.64951275546679E+018,r1000913c5/base_footprint,0,1.64951275546679E+018,v/m1vw10zy74w/map,-14.4995733534,-0.677785126564,0,0,0,-0.919981166817,0.391962565435,0,68.5724411011,45.7013587952,46.2637939453,93.4717025757,52.0084152222,52.0084152222,68.5724411011,68.5724411011,23.8850746155,0.108533963561,0,0.00666311010718,0.936879038811,0.00794687122107,0.0012837612303,-14.7595157623,-0.477008283138,0.793090820312,0.00841343589127,-1.20425033569,-0.0237037725747,3.53468894958,0.128910258412,30.9418430329,94.264793396012,50.80416488651,27.41976356508,829
1.64951275556674E+018,9,1.64951275556674E+018,r1000913c5/base_footprint,0,1.64951275556674E+018,v/m1vw10zy74w/map,-14.4989799272,-0.675444852781,0,0,0,-0.893874700433,0.448316874461,0,68.5903091431,51.2195129395,45.8526306152,93.047958374,52.0970039368,52.0970039368,68.5903091431,68.5903091431,22.9947566986,0.166675552726,0,0.00614592665806,0.899093806744,0.00510429684073,0.0112502230331,-20.2776699066,-0.655347824097,1.21683502197,0.012908690609,-1.29283905029,-0.0254475008696,4.42500686646,0.161380201578,30.9418430329,94.26479339597,50.80416488651,27.41976356506,829
1.64951275566687E+018,10,1.64951275566687E+018,r1000913c5/base_footprint,0,1.64951275566687E+018,v/m1vw10zy74w/map,-14.494443934,-0.677303603105,0,0,0,-0.869702099,0.493577004118,0,68.6629333496,52.5457229614,45.6465148926,93.154510498,52.1973876953,52.1973876953,68.6629333496,68.6629333496,23.1552581787,0.150779783726,0,0.00647892616689,0.879783153534,0.00848772376776,0.014966650866,-21.6038799286,-0.698209226131,1.11028289795,0.0117783416063,-1.39322280884,-0.0274233967066,4.26450538635,0.155526697636,30.9418430328,94.26479339595,50.80416488646,27.41976356505,829
1.64951275576656E+018,11,1.64951275576656E+018,r1000913c5/base_footprint,0,1.64951275576656E+018,v/m1vw10zy74w/map,-14.4876497991,-0.678354336114,0,0,0,-0.838461893426,0.544960230909,0,68.7176208496,50.1495513916,45.2148551941,93.3702316284,52.3462944031,52.3462944031,68.7176208496,68.7176208496,24.5556602478,0.158943191171,0,0.00679044658318,0.853859424591,0.0213046558201,0.0280951019377,-19.2077083588,-0.620768070221,0.894561767578,0.00948988180608,-1.5421295166,-0.0303543917835,2.86410331726,0.104453973472,30.9418430328,94.264793395978,50.8041648865,27.41976356506,829
1.64951275586731E+018,12,1.64951275586731E+018,r1000913c5/base_footprint,0,1.64951275586732E+018,v/m1vw10zy74w/map,-14.4876497991,-0.678354336114,0,0,0,-0.838461893426,0.544960230909,0,68.8369827271,54.137588501,44.7971496582,93.3702316284,52.5387840271,52.5387840271,68.8369827271,68.8369827271,24.4859619141,0.192434176803,0,0.00662609981373,0.840767323971,0.0280050896108,0.0346311889589,-23.1957454681,-0.749656260014,0.894561767578,0.00948988180608,-1.73461914062,-0.0341432467103,2.933801651,0.106995880604,30.9418430329,94.264793395978,50.80416488648,27.4197635651,829
1.64951275596795E+018,13,1.64951275596795E+018,r1000913c5/base_footprint,0,1.64951275596795E+018,v/m1vw10zy74w/map,-14.5144382151,-0.676085350568,0,0,0,-0.806187300375,0.591660406579,0,68.9225540161,46.9623908997,44.2716369629,93.5533676147,52.6135940552,52.6135940552,68.9225540161,68.9225540161,24.4129428864,0.0961809307337,0,0.00628683203831,0.794799625874,0.044566038996,0.050852868706,-16.0205478668,-0.517763197422,0.71142578125,0.00754709960893,-1.8094291687,-0.0356157645583,3.00682067871,0.109658882022,30.9418430329,94.26479339595,50.8041648865,27.41976356511,829
1.64951275606681E+018,14,1.64951275606681E+018,r1000913c5/base_footprint,0,1.64951275606681E+018,v/m1vw10zy74w/map,-14.5090429221,-0.670759342647,0,0,0,-0.76961919422,0.638503168268,0,68.9737167358,40.2277030945,43.9533576965,93.9197921753,52.6167488098,52.6167488098,68.9737167358,68.9737167358,24.8452548981,0.159951165318,0,0.00575392134488,0.685881078243,0.0600428692997,0.0657967925072,-9.28586006165,-0.300106883049,0.345001220703,0.00365991587751,-1.81258392334,-0.0356778614223,2.57450866699,0.0938924476504,30.94184303285,94.264793396003,50.80416488646,27.41976356509,829
1.6495127576669E+018,15,1.6495127576669E+018,r1000913c5/base_footprint,0,1.6495127576669E+018,v/m1vw10zy74w/map,-14.5046713375,-0.658947164263,0,0,0,-0.731864154199,0.681450555652,0,68.9949417114,43.8502655029,43.6903953552,94.3417739868,52.8293190002,52.8293190002,68.9949417114,68.9949417114,28.2780056,0.0696590840816,0,0.00246019125916,0.0329016186297,0.215124055743,0.212663859129,-13.1280727386,-0.427315622568,-0.096923828125,-0.0010284257587,-2.08007049561,-0.0409872159362,-0.778793334961,-0.028320569545,30.7221927643,94.244850158675,50.74924850459,27.499212265039,800
1.64951275776668E+018,16,1.64951275776668E+018,r1000913c5/base_footprint,0,1.64951275776668E+018,v/m1vw10zy74w/map,-14.5046713375,-0.658947164263,0,0,0,-0.731864154199,0.681450555652,0,69.3167114258,32.5125389099,43.4657516479,94.3417739868,52.9308815002,52.9308815002,69.3167114258,69.3167114258,23.5830383301,0.221598848701,0,0.00365769513883,0.0903733819723,0.187210813165,0.183553129435,-1.79034614563,-0.0582753382623,-0.096923828125,-0.0010284257587,-2.18163299561,-0.0429884791374,3.91617393494,0.14241039753,30.72219276427,94.244850158675,50.74924850459,27.49921226504,800
1.64951275786681E+018,17,1.64951275786681E+018,r1000913c5/base_footprint,0,1.64951275786681E+018,v/m1vw10zy74w/map,-14.5046713375,-0.658947164263,0,0,0,-0.731864154199,0.681450555652,0,69.3243255615,31.985294342,43.4657516479,94.3417739868,53.0112304688,53.0112304688,69.3243255615,69.3243255615,24.3137817383,0.19644421339,0,0.00253081112169,0.13204626739,0.181791812181,0.179260998964,-1.26310157776,-0.0411136522889,-0.096923828125,-0.0010284257587,-2.26198196411,-0.0445717349648,3.18543052673,0.115837156773,30.72219276424,94.244850158675,50.74924850469,27.49921226503,800
1.64951275796688E+018,18,1.64951275796688E+018,r1000913c5/base_footprint,0,1.64951275796688E+018,v/m1vw10zy74w/map,-14.5046713375,-0.658947164263,0,0,0,-0.731864154199,0.681450555652,0,69.384979248,27.8074874878,43.4657516479,94.3417739868,53.2237434387,53.2237434387,69.384979248,69.384979248,25.5171146393,0.267170399427,0,0.00284306332469,0.134244635701,0.179956018925,0.177112951875,2.91470527649,0.0948729589581,-0.096923828125,-0.0010284257587,-2.47449493408,-0.0487592443824,1.98209762573,0.0720783397555,30.72219276429,94.244850158675,50.74924850462,27.49921226503,800
1.64951275806683E+018,19,1.64951275806683E+018,r1000913c5/base_footprint,0,1.64951275806683E+018,v/m1vw10zy74w/map,-14.5038753776,-0.782181415066,0,0,0,-0.709520364553,0.704684931217,0,69.4556884766,27.4657230377,43.4657516479,94.3387145996,53.2818222046,53.2818222046,69.4556884766,69.4556884766,24.860616684,0.28919288516,0,0.00253674131818,0.129885315895,0.184068262577,0.181531518698,4.32534980774,0.136055484414,-0.0177536010742,-0.000188225400052,-2.28696060181,-0.0448468849063,2.2673034668,0.0835782289505,31.79107284544,94.3209609985258,50.99486160279,27.1279201508,864
1.64951275816674E+018,20,1.64951275816674E+018,r1000913c5/base_footprint,0,1.64951275816674E+018,v/m1vw10zy74w/map,-14.5038753776,-0.782181415066,0,0,0,-0.709520364553,0.704684931217,0,69.4130783081,31.372549057,43.4657516479,94.3387145996,53.3710632324,53.3710632324,69.4130783081,69.4130783081,26.5914840698,0.231399059296,0,0.00348963146098,0.12328492105,0.185629710555,0.18214006722,0.418523788452,0.0131648210809,-0.0177536010742,-0.000188225400052,-2.37620162964,-0.0465968847275,0.536436080933,0.0197743158787,31.791072845452,94.3209609985258,50.99486160276,27.127920150733,864
1.6495127582669E+018,21,1.6495127582669E+018,r1000913c5/base_footprint,0,1.6495127582669E+018,v/m1vw10zy74w/map,-14.503974896,-0.905091973404,0,0,0,-0.708151572287,0.706060444061,0,69.4611663818,25.1336898804,43.4657516479,94.1376342773,53.3172912598,53.3172912598,69.4611663818,69.4611663818,24.4211769104,0.32751122117,0,0.00355421146378,0.115725561976,0.165924742818,0.162370532751,7.44731140137,0.228578343987,0.210517883301,0.00223128776997,-2.29235076904,-0.044926084578,2.5023021698,0.0929412618279,32.58100128177,94.348152160601,51.02494049076,26.9234790802,877
1.64951275836733E+018,22,1.64951275836733E+018,r1000913c5/base_footprint,0,1.64951275836733E+018,v/m1vw10zy74w/map,-14.503974896,-0.905091973404,0,0,0,-0.708151572287,0.706060444061,0,69.277671814,32.773109436,43.6046447754,94.1376342773,53.3239059448,53.3239059448,69.277671814,69.277671814,27.7955951691,0.236806809902,0,0.00369748752564,0.109709270298,0.144457384944,0.140759900212,-0.192108154297,-0.00589632429183,0.210517883301,0.00223128776997,-2.2989654541,-0.0450557209551,-0.872116088867,-0.0323924012482,32.581001281703,94.348152160601,51.0249404907,26.923479080233,877
1.64951275846677E+018,23,1.64951275846677E+018,r1000913c5/base_footprint,0,1.64951275846677E+018,v/m1vw10zy74w/map,-14.5068182472,-1.03076992496,0,0,0,-0.717220272616,0.696846525821,0,69.5797119141,33.7690620422,43.6046447754,94.4348297119,53.3611450195,53.3611450195,69.5797119141,69.5797119141,23.8309822083,0.283443719149,0,0.00356745487079,0.105232805014,0.128425270319,0.12485782057,0.906005859375,0.0261284522712,-0.0369720458984,-0.000391661917092,-2.22829055786,-0.0435784496367,2.48477554321,0.0944215878844,34.675067901575,94.3978576660016,51.13285446164,26.31575775151,809
1.64951275856668E+018,24,1.64951275856668E+018,r1000913c5/base_footprint,0,1.64951275856668E+018,v/m1vw10zy74w/map,-14.5181087855,-1.15784387025,0,0,0,-0.722334924898,0.691543387122,0,69.6230392456,38.5425796509,43.874671936,94.2385101318,53.5108528137,53.5108528137,69.6230392456,69.6230392456,23.9610939026,0.231782644987,0,0.00325028086081,0.0963279008865,0.0905208736658,0.0872705951333,-0.719203948975,-0.0190147999674,0.156555175781,0.00165851018392,-2.12730026245,-0.0414004139602,0.486259460449,0.0198900662363,37.823375701925,94.395065307581,51.38355255125,24.447353363049,668
1.6495127586666E+018,25,1.6495127586666E+018,r1000913c5/base_footprint,0,1.6495127586666E+018,v/m1vw10zy74w/map,-14.5181087855,-1.15784387025,0,0,0,-0.722334924898,0.691543387122,0,69.5225753784,42.4836616516,43.8430938721,94.2385101318,53.6605072021,53.6605072021,69.5225753784,69.5225753784,27.3858184814,0.292232632637,0,0.00278634391725,0.0924716442823,0.0780131369829,0.075226791203,-4.66028594971,-0.123211793602,0.156555175781,0.00165851018392,-2.27695465088,-0.0443129092455,-2.93846511841,-0.120195634663,37.82337570189,94.395065307581,51.38355255122,24.44735336299,668
1.64951275876754E+018,26,1.64951275876754E+018,r1000913c5/base_footprint,0,1.64951275876754E+018,v/m1vw10zy74w/map,-14.5181087855,-1.15784387025,0,0,0,-0.722334924898,0.691543387122,0,69.7309036255,51.8716583252,43.8450737,94.2385101318,53.9785461426,53.9785461426,69.7309036255,69.7309036255,27.0706691742,0.254414498806,0,0.00242678797804,0.0882203057408,0.0694182291627,0.0669914409518,-14.0482826233,-0.371417999268,0.156555175781,0.00165851018392,-2.59499359131,-0.0505024157465,-2.62331581116,-0.107304692268,37.8233757019,94.395065307581,51.38355255129,24.44735336304,668
1.64951275886676E+018,27,1.64951275886676E+018,r1000913c5/base_footprint,0,1.64951275886676E+018,v/m1vw10zy74w/map,-14.5213965506,-1.27347216188,0,0,0,-0.721150057629,0.692778892852,0,69.758026123,50.7523956299,43.8450737,94.0215530396,54.2814674377,54.2814674377,69.758026123,69.758026123,29.0729465485,0.291146427393,0,0.00222039641812,0.0837830379605,0.0562104545534,0.0539900586009,-10.2120170593,-0.251897424459,0.969833374023,0.01020969823,-1.05588912964,-0.019838001579,-5.28903007507,-0.222378432751,40.5403785706,94.991386413623,53.22557830806,23.78391647343,406
1.64951275896701E+018,28,1.64951275896701E+018,r1000913c5/base_footprint,0,1.64951275896701E+018,v/m1vw10zy74w/map,-14.5213965506,-1.27347216188,0,0,0,-0.721150057629,0.692778892852,0,70.5145645142,53.300403595,43.852684021,94.0215530396,54.7281303406,54.7281303406,70.5145645142,70.5145645142,20.2792625427,0.227941676974,0,0.00200765556656,0.0793187618256,0.0153510430828,0.0133433882147,-12.7600250244,-0.314748555422,0.969833374023,0.01020969823,-1.50255203247,-0.0282298866659,3.50465393066,0.147353947163,40.5403785706,94.991386413623,53.22557830813,23.78391647336,406
1.64951276206662E+018,29,1.64951276206662E+018,r1000913c5/base_footprint,0,1.64951276206662E+018,v/m1vw10zy74w/map,-14.5536466038,-1.90987531809,0,0,0,-0.71528422678,0.698833653253,0,70.8583145142,52.5763778687,43.852684021,94.4479446411,55.0723724365,55.0723724365,70.8583145142,70.8583145142,19.3445720673,0.222482010722,0,0.000757256872021,0.0661228001118,0.0233170203865,0.0225597638637,-8.32608795166,-0.188158944249,0.52855682373,0.00556513248011,-1.39598464966,-0.02600742504,0.254951477051,0.0130080450326,44.25028991704,94.97650146483,53.67638778684,19.599523544351,387
1.6495127627667E+018,30,1.6495127627667E+018,r1000913c5/base_footprint,0,1.6495127627667E+018,v/m1vw10zy74w/map,-14.5430578781,-2.25489068648,0,0,0,-0.709562718786,0.704642283793,0,71.3839645386,57.2192497253,43.633556366,95.2911758423,55.5735244751,55.5735244751,71.3839645386,71.3839645386,18.3309631348,0.589279949665,0,0.000745549274143,0.0144821191207,0.00145512877498,0.00220067799091,-12.1423072815,-0.269368469715,-0.409759521484,-0.00431864894927,-2.06545257568,-0.0386007651687,0.182769775391,0.00987211894244,45.0769424438,94.881416320816,53.50807189942,18.513732910191,259
1.64951276406849E+018,31,1.64951276406849E+018,r1000913c5/base_footprint,0,1.64951276406849E+018,v/m1vw10zy74w/map,-14.5471696387,-2.36482747206,0,0,0,-0.71373160755,0.700419297553,0,71.5126419067,53.8126373291,43.4279670715,95.6788101196,55.7806167603,55.7806167603,71.5126419067,71.5126419067,19.6467914581,0.972544014454,0,0.00064132566331,0.138502955437,0.000762580544688,0.00140390626621,-8.68734741211,-0.192516162992,-0.844497680664,-0.00890498049557,-2.3710975647,-0.0443946607411,-1.48063659668,-0.0815052315593,45.12528991699,94.834312438936,53.4095191956,18.16615486142,222
1.64951276416666E+018,32,1.64951276416666E+018,r1000913c5/base_footprint,0,1.64951276416666E+018,v/m1vw10zy74w/map,-14.5471696387,-2.36482747206,0,0,0,-0.71373160755,0.700419297553,0,70.6314697266,23.9819011688,43.1042442322,95.6788101196,55.3679389954,55.3679389954,70.6314697266,70.6314697266,31.0510349274,0.917477548122,0,0.000349513808032,0.172329425812,0.00468802638352,0.00503754010424,21.1433887482,0.468548536301,-0.844497680664,-0.00890498049557,-1.9584197998,-0.0366679914296,-12.8848800659,-0.709279417992,45.125289917,94.834312438936,53.4095191956,18.1661548615,222
1.64951276426674E+018,33,1.64951276426674E+018,r1000913c5/base_footprint,0,1.64951276426674E+018,v/m1vw10zy74w/map,-14.5471696387,-2.36482747206,0,0,0,-0.71373160755,0.700419297553,0,71.2009353638,47.3222122192,43.1042442322,95.6788101196,55.5393562317,55.5393562317,71.2009353638,71.2009353638,22.6519813538,0.827323913574,0,0.000575546757318,0.194286823273,0.0105893919244,0.0100138448179,-2.19692230225,-0.0486849471927,-0.844497680664,-0.00890498049557,-2.12983703613,-0.0398774817586,-4.48582649231,-0.246933192015,45.12528991695,94.834312438936,53.40951919557,18.16615486149,222
1.64951276436667E+018,34,1.64951276436667E+018,r1000913c5/base_footprint,0,1.64951276436667E+018,v/m1vw10zy74w/map,-14.5471696387,-2.36482747206,0,0,0,-0.71373160755,0.700419297553,0,71.176651001,42.4645767212,43.1042442322,95.6788101196,55.7270278931,55.7270278931,71.176651001,71.176651001,25.1158657074,0.791251122952,0,0.000926619279198,0.184631541371,0.00932566262782,0.0083990432322,2.6607131958,0.0589627958834,-0.844497680664,-0.00890498049557,-2.31750869751,-0.0433913059533,-6.94971084595,-0.38256368041,45.125289917,94.834312438936,53.40951919559,18.16615486145,222
1.64951276446675E+018,35,1.64951276446675E+018,r1000913c5/base_footprint,0,1.64951276446675E+018,v/m1vw10zy74w/map,-14.5404871243,-2.25751158794,0,0,0,-0.711467041377,0.70271946681,0,71.242805481,43.2924232483,43.1042442322,95.7073745728,55.9277038574,55.9277038574,71.242805481,71.242805481,26.1952171326,0.909353017807,0,0.000260455039097,0.174614325166,0.0135903107002,0.0133298551664,1.78451919556,0.039588291198,-0.825958251953,-0.00870516337454,-2.41963195801,-0.0452199429274,-7.68148422241,-0.414907366037,45.07694244386,94.881416320847,53.50807189939,18.51373291019,259
1.64951276456683E+018,36,1.64951276456683E+018,r1000913c5/base_footprint,0,1.64951276456683E+018,v/m1vw10zy74w/map,-14.5404871243,-2.25751158794,0,0,0,-0.711467041377,0.70271946681,0,70.9083938599,39.029624939,43.1042442322,95.7073745728,56.0721588135,56.0721588135,70.9083938599,70.9083938599,33.7748184204,0.949786365032,0,0.000249228149187,0.162978708744,0.0184997282922,0.0182504989207,6.04731750488,0.134155452251,-0.825958251953,-0.00870516337454,-2.56408691406,-0.047919627279,-15.2610855103,-0.824311614037,45.07694244388,94.881416320847,53.50807189944,18.5137329101,259
1.64951276466699E+018,37,1.64951276466699E+018,r1000913c5/base_footprint,0,1.64951276466699E+018,v/m1vw10zy74w/map,-14.5438640129,-2.15159176104,0,0,0,-0.711023931933,0.70316780943,0,71.0361480713,41.1764717102,43.1042442322,96.0533599854,56.1664810181,56.1664810181,71.0361480713,71.0361480713,33.7394256592,0.90554612875,0,0.00162086472847,0.158488735557,0.0113968169317,0.00977595243603,3.5930557251,0.0802567303181,-1.12954711914,-0.0118995122612,-2.50220870972,-0.0466270856559,-14.8378105164,-0.785002231598,44.7695274353,94.92381286626,53.66427230838,18.9016151428,294
1.64951276476695E+018,38,1.64951276476695E+018,r1000913c5/base_footprint,0,1.64951276476695E+018,v/m1vw10zy74w/map,-14.5438640129,-2.15159176104,0,0,0,-0.711023931933,0.70316780943,0,71.2698059082,39.8496246338,42.509262085,96.0533599854,56.3175048828,56.3175048828,71.2698059082,71.2698059082,31.1645812988,0.918299436569,0,0.000159010538482,0.131241351366,0.00341239850968,0.00325338775292,4.91990280151,0.109894007444,-1.12954711914,-0.0118995122612,-2.65323257446,-0.0494413226843,-12.262966156,-0.648778736591,44.76952743531,94.92381286626,53.66427230834,18.9016151428,294
1.64951276496676E+018,39,1.64951276496676E+018,r1000913c5/base_footprint,0,1.64951276496676E+018,v/m1vw10zy74w/map,-14.5444314683,-2.01960143723,0,0,0,-0.713260145983,0.700899396598,0,71.5567703247,35.4268035889,42.509262085,95.8445053101,56.5865058899,56.5865058899,71.5567703247,71.5567703247,28.1526432037,0.755848109722,0,4.72794563393E-05,0.120684638619,0.00642358604819,0.00647086557001,9.15240097046,0.205306515098,-0.88134765625,-0.00928094331175,-2.83230209351,-0.0526898726821,-8.83903694153,-0.457658559084,44.57920455936,94.96315765385,53.75420379639,19.31360626217,339
1.64951276506678E+018,40,1.64951276506678E+018,r1000913c5/base_footprint,0,1.64951276506678E+018,v/m1vw10zy74w/map,-14.5444314683,-2.01960143723,0,0,0,-0.713260145983,0.700899396598,0,71.9146957397,25.373134613,41.738910675,95.8445053101,56.8166618347,56.8166618347,71.9146957397,71.9146957397,24.1955795288,0.478197902441,0,0.000614392454736,0.107030853629,0.00478283269331,0.00416844012216,19.2060699463,0.43083024025,-0.88134765625,-0.00928094331175,-3.06245803833,-0.0569715090096,-4.8819732666,-0.252773791552,44.5792045593,94.96315765385,53.75420379637,19.3136062622,339
1.64951276516694E+018,41,1.64951276516694E+018,r1000913c5/base_footprint,0,1.64951276516694E+018,v/m1vw10zy74w/map,-14.5431375693,-1.9112910218,0,0,0,-0.711999154702,0.702180321359,0,72.0318832397,30.4812831879,41.738910675,95.713684082,57.0228729248,57.0228729248,72.0318832397,72.0318832397,23.8423938751,0.549377560616,0,0.00077545986278,0.101022340357,0.00403550965711,0.00326004996896,13.7690067291,0.311161965132,-0.737182617188,-0.00776173686609,-3.34648513794,-0.062345571816,-4.24287033081,-0.21647824347,44.250289917,94.976501464812,53.67638778686,19.59952354429,387
1.64951276526673E+018,42,1.64951276526673E+018,r1000913c5/base_footprint,0,1.64951276526673E+018,v/m1vw10zy74w/map,-14.5439330382,-1.89814230276,0,0,0,-0.711976795797,0.702202992194,0,72.1435089111,25.2898235321,41.738910675,95.8340148926,57.1264266968,57.1264266968,72.1435089111,72.1435089111,23.3847541809,0.585110723972,0,0.000526010233443,0.0874366536736,0.00312660075724,0.00260059046559,19.4250049591,0.434419751167,-0.837539672852,-0.00881653465331,-3.28465270996,-0.0610056556761,-3.5412197113,-0.17845711112,44.7148284912,94.996475219748,53.84177398684,19.8435344696,398
1.64951276536672E+018,43,1.64951276536672E+018,r1000913c5/base_footprint,0,1.64951276536672E+018,v/m1vw10zy74w/map,-14.5389568693,-1.7919502883,0,0,0,-0.71223161544,0.701944531973,0,71.8285217285,28.243637085,41.0390625,95.6559295654,57.114490509,57.114490509,71.8285217285,71.8285217285,28.2845058441,0.509386003017,0,0.000519652909134,0.0786756128073,0.00215741479769,0.00163776183035,15.9123039246,0.360366106033,-0.627182006836,-0.00659991847351,-3.43741989136,-0.06403888762,-7.69250679016,-0.373567759991,44.1559410096,95.028747558564,53.67707061764,20.59199905394,409
1.64951276546702E+018,44,1.64951276546702E+018,r1000913c5/base_footprint,0,1.64951276546702E+018,v/m1vw10zy74w/map,-14.5394328875,-1.79792885361,0,0,0,-0.712426616118,0.70174661855,0,72.2899856567,30.2520999908,41.0390625,95.8119277954,57.2937583923,57.2937583923,72.2899856567,72.2899856567,22.4757728577,0.489964544773,0,0.000525543873664,0.0735507532954,0.00152948242612,0.00100393861067,13.9038410187,0.314880400896,-0.783180236816,-0.00824150815606,-3.61668777466,-0.0673786327243,-1.88377380371,-0.091480858624,44.1559410095,95.028747558584,53.67707061764,20.59199905399,409
1.64951276556748E+018,45,1.64951276556748E+018,r1000913c5/base_footprint,0,1.64951276556748E+018,v/m1vw10zy74w/map,-14.5394328875,-1.79792885361,0,0,0,-0.712426616118,0.70174661855,0,72.2609634399,30.2520999908,40.4569854736,95.8119277954,57.324382782,57.324382782,72.2609634399,72.2609634399,23.3289794922,0.457411885262,0,0.000397206662456,0.0625347271562,0.00170377804898,0.00130657141563,13.9038410187,0.314880400896,-0.783180236816,-0.00824150815606,-3.64731216431,-0.0679491683841,-2.73698043823,-0.132914751768,44.1559410095,95.028747558584,53.67707061769,20.59199905397,409
1.64951276566872E+018,46,1.64951276566872E+018,r1000913c5/base_footprint,0,1.64951276566872E+018,v/m1vw10zy74w/map,-14.5375771379,-1.68719881832,0,0,0,-0.711354290638,0.702833602776,0,71.9996871948,28.7247753143,40.4569854736,95.4697036743,57.389755249,57.389755249,71.9996871948,71.9996871948,27.5059280396,0.566951155663,0,0.00046613192535,0.0573412030935,0.00177270337008,0.00130657141563,15.3601894379,0.348422408104,-0.412788391113,-0.00434253923595,-3.54058074951,-0.065749950707,-5.63244628906,-0.257501125336,44.0849647522,95.056915283187,53.84917449949,21.87348175054,395
1.64951276576683E+018,47,1.64951276576683E+018,r1000913c5/base_footprint,0,1.64951276576683E+018,v/m1vw10zy74w/map,-14.5380576527,-1.69302576292,0,0,0,-0.7108811073,0.703312200437,0,72.1315536499,37.7162628174,40.1583976746,95.5405349731,57.5471000671,57.5471000671,72.1315536499,72.1315536499,27.0866928101,0.442573994398,0,0.000475170789286,0.0487580932677,0.00178174220491,0.00130657141563,6.36870193481,0.14446426928,-0.483619689941,-0.00508768530563,-3.69792556763,-0.0686719045043,-5.21321105957,-0.23833476007,44.08496475221,95.056915283159,53.84917449947,21.87348175053,395
1.64951276586696E+018,48,1.64951276586696E+018,r1000913c5/base_footprint,0,1.64951276586696E+018,v/m1vw10zy74w/map,-14.5380576527,-1.69302576292,0,0,0,-0.7108811073,0.703312200437,0,72.1654510498,33.5038375854,40.094959259,95.5405349731,57.6431159973,57.6431159973,72.1654510498,72.1654510498,27.5134429932,0.365756630898,0,0.00044990668539,0.0454870276153,0.00175647810102,0.00130657141563,10.5811271667,0.240016683936,-0.483619689941,-0.00508768530563,-3.7939414978,-0.0704549625516,-5.63996124268,-0.257844686508,44.0849647521,95.056915283159,53.8491744995,21.87348175052,395
1.64951276596687E+018,49,1.64951276596687E+018,r1000913c5/base_footprint,0,1.64951276596687E+018,v/m1vw10zy74w/map,-14.5373111572,-1.5877248711,0,0,0,-0.711877599563,0.70230355491,0,72.0633468628,34.2560539246,40.094959259,95.3959121704,57.7177734375,57.7177734375,72.0633468628,72.0633468628,29.6369762421,0.311203718185,0,0.000455040222732,0.0422934889793,0.00176161166746,0.00130657141563,9.31401062012,0.213770866394,-0.334228515625,-0.00351591198705,-3.89463043213,-0.0723597705364,-6.9744052887,-0.307749956846,43.57006454472,95.061683654775,53.82314300537,22.6625709534,406
1.64951276606692E+018,50,1.64951276606692E+018,r1000913c5/base_footprint,0,1.64951276606692E+018,v/m1vw10zy74w/map,-14.5364756871,-1.58427185459,0,0,0,-0.71268095741,0.701488312764,0,72.33203125,32.8976020813,40.2653999329,95.7469100952,57.6556282043,57.6556282043,72.33203125,72.33203125,25.3930873871,0.338126897812,0,0.00044546436402,0.0375349074602,0.00175203580875,0.00130657141563,10.6724624634,0.244949430227,-0.68522644043,-0.00720822950825,-3.83248519897,-0.0712051540613,-2.73051643372,-0.120485730469,43.5700645447,95.06168365477,53.82314300533,22.66257095338,406
1.64951276616723E+018,51,1.64951276616723E+018,r1000913c5/base_footprint,0,1.64951276616723E+018,v/m1vw10zy74w/map,-14.5364756871,-1.58427185459,0,0,0,-0.71268095741,0.701488312764,0,71.987991333,35.8288764954,40.5251617432,95.7469100952,57.5817298889,57.5817298889,71.987991333,71.987991333,30.7877044678,0.373506844044,0,0.000524442235474,0.0326924696565,0.00183101359289,0.00130657141563,7.74118804932,0.177672177553,-0.68522644043,-0.00720822950825,-3.75858688354,-0.0698321685195,-8.1251335144,-0.358526557684,43.57006454472,95.06168365477,53.82314300536,22.6625709534,406
1.64951276626749E+018,52,1.64951276626749E+018,r1000913c5/base_footprint,0,1.64951276626749E+018,v/m1vw10zy74w/map,-14.5323441473,-1.47887987007,0,0,0,-0.712435624523,0.701737472927,0,72.0910339355,32.2638130188,40.5251617432,95.6868591309,57.4758300781,57.4758300781,72.0910339355,72.0910339355,27.5730800629,0.330287247896,0,0.000492305960506,0.0278492346406,0.00179887737613,0.00130657141563,10.2953987122,0.241907641292,-0.636894226074,-0.00670062564313,-3.84310531616,-0.0716559737921,-4.43504905701,-0.191677898169,42.559211731,95.049964904826,53.63272476194,23.13803100589,407
1.64951276636692E+018,53,1.64951276636692E+018,r1000913c5/base_footprint,0,1.64951276636692E+018,v/m1vw10zy74w/map,-14.5320796505,-1.47618989679,0,0,0,-0.712306757491,0.701868280543,0,72.185798645,36.6515846252,41.3642311096,95.731338501,57.4890174866,57.4890174866,72.185798645,72.185798645,26.1698513031,0.210097506642,0,0.000421770906541,0.0231075715274,0.00172834226396,0.00130657141563,5.90762710571,0.138809591532,-0.681373596191,-0.00716858357191,-3.85629272461,-0.0719018578529,-3.03182029724,-0.131031900644,42.55921173091,95.049964904809,53.63272476199,23.13803100586,407
1.64951276646684E+018,54,1.64951276646684E+018,r1000913c5/base_footprint,0,1.64951276646684E+018,v/m1vw10zy74w/map,-14.5311161355,-1.35495828168,0,0,0,-0.713213787911,0.700946569101,0,71.9544143677,33.424533844,42.3844985962,95.5912475586,57.4610443115,57.4610443115,71.9544143677,71.9544143677,29.528301239,0.2053604424,0,0.000427291262895,0.0170029383153,0.00173386267852,0.00130657141563,7.84240341187,0.190040841699,-0.58422088623,-0.0061492389068,-4.07130813599,-0.0762563794851,-5.9747543335,-0.253666847944,41.26693725587,95.00702667237,53.38973617551,23.5535469055,411
1.6495127667669E+018,55,1.6495127667669E+018,r1000913c5/base_footprint,0,1.6495127667669E+018,v/m1vw10zy74w/map,-14.5336535249,-1.3633198089,0,0,0,-0.711760042857,0.702422694246,0,72.0464477539,32.8976020813,43.7468833923,95.8500823975,57.36901474,57.36901474,72.0464477539,72.0464477539,27.8095321655,0.226839035749,0,0.000416488735937,0.0138409547508,0.00172306015156,0.00130657141563,8.55907058716,0.206458210945,-0.823463439941,-0.00866560824215,-3.96696090698,-0.074284799397,-4.37501525879,-0.186691075563,41.45667266846,95.026618957559,53.40205383302,23.43451690671,408
1.64951276686698E+018,56,1.64951276686698E+018,r1000913c5/base_footprint,0,1.64951276686698E+018,v/m1vw10zy74w/map,-14.5336535249,-1.3633198089,0,0,0,-0.711760042857,0.702422694246,0,71.9897460938,37.195930481,45.3049812317,95.8500823975,57.3509101868,57.3509101868,71.9897460938,71.9897460938,28.6347103119,0.237172544003,0,0.00042366006528,0.0107374852523,0.0017302314518,0.00130657141563,4.2607421875,0.102775789797,-0.823463439941,-0.00866560824215,-3.94885635376,-0.0739457756281,-5.20019340515,-0.221903160214,41.4566726685,95.026618957559,53.40205383304,23.43451690675,408
1.6495127669666E+018,57,1.6495127669666E+018,r1000913c5/base_footprint,0,1.6495127669666E+018,v/m1vw10zy74w/map,-14.5341365484,-1.24736103871,0,0,0,-0.711095378253,0.703095557536,0,72.0095443726,31.372549057,45.3049812317,95.6759033203,57.2400627136,57.2400627136,72.0095443726,72.0095443726,26.454158783,0.219257846475,0,0.000383199687349,0.00449966825545,0.00168977107387,0.00130657141563,8.95816993713,0.222117781639,-0.684280395508,-0.00720358686522,-4.07415008545,-0.0766308680177,-2.65755844116,-0.11167807132,40.33071899413,94.991622924792,53.16591262815,23.79660034184,413
1.64951276706766E+018,58,1.64951276706766E+018,r1000913c5/base_footprint,0,1.64951276706766E+018,v/m1vw10zy74w/map,-14.5341527951,-1.2511933652,0,0,0,-0.710210218508,0.703989662941,0,72.1078109741,33.9366531372,46.5336952209,95.8620147705,57.2106704712,57.2106704712,72.1078109741,72.1078109741,25.0378494263,0.155292481184,0,0.000434251327533,0.0030113379471,0.00174082268495,0.00130657141563,6.39406585693,0.158540830016,-0.870391845703,-0.0091628273949,-4.04475784302,-0.0760780274868,-1.24124908447,-0.0521607734263,40.33071899413,94.991622924797,53.16591262818,23.79660034183,413
1.64951276716718E+018,59,1.64951276716718E+018,r1000913c5/base_footprint,0,1.64951276716718E+018,v/m1vw10zy74w/map,-14.5341527951,-1.2511933652,0,0,0,-0.710210218508,0.703989662941,0,71.9577407837,38.5026741028,47.3924789429,95.8620147705,57.2032394409,57.2032394409,71.9577407837,71.9577407837,27.6588821411,0.243432819843,0,0.000521617126651,0.00297528342344,0.00182818854228,0.00130657141563,1.82804489136,0.0453263632953,-0.870391845703,-0.0091628273949,-4.03732681274,-0.0759382620454,-3.86228179932,-0.162303924561,40.33071899416,94.991622924797,53.16591262816,23.79660034178,413
1.64951276726777E+018,60,1.64951276726777E+018,r1000913c5/base_footprint,0,1.64951276726777E+018,v/m1vw10zy74w/map,-14.5341527951,-1.2511933652,0,0,0,-0.710210218508,0.703989662941,0,71.9934234619,33.0316734314,47.3924789429,95.8620147705,57.1590690613,57.1590690613,71.9934234619,71.9934234619,26.5395755768,0.192757666111,0,0.000520274683367,0.010853565298,0.00182684604079,0.00130657141563,7.29904556274,0.180979803205,-0.870391845703,-0.0091628273949,-3.99315643311,-0.0751074552536,-2.74297523499,-0.115267522633,40.33071899414,94.991622924797,53.16591262819,23.79660034181,413
1.64951276736685E+018,61,1.64951276736685E+018,r1000913c5/base_footprint,0,1.64951276736685E+018,v/m1vw10zy74w/map,-14.532923068,-1.13665841621,0,0,0,-0.710374341569,0.703824051053,0,72.0537567139,31.8394031525,47.3924789429,95.9066696167,57.0923690796,57.0923690796,72.0537567139,72.0537567139,24.8940162659,0.258082866669,0,0.000503299816046,0.0520954541862,0.00180987117346,0.00130657141563,5.98397254944,0.158208310604,-1.51160430908,-0.0160135943443,-5.70881652832,-0.111102022231,-0.446662902832,-0.0182703994215,37.82337570194,94.39506530762,51.38355255128,24.447353363068,668
1.6495127674675E+018,62,1.6495127674675E+018,r1000913c5/base_footprint,0,1.6495127674675E+018,v/m1vw10zy74w/map,-14.532923068,-1.13665841621,0,0,0,-0.710374341569,0.703824051053,0,71.910697937,38.860584259,47.8173561096,95.9066696167,57.1099052429,57.1099052429,71.910697937,71.910697937,27.6584472656,0.221310019493,0,6.17494588369E-05,0.0885517820716,0.000664602092002,0.000602852669545,-1.03720855713,-0.0274224225432,-1.51160430908,-0.0160135943443,-5.72635269165,-0.111443303525,-3.21109390259,-0.131347298622,37.82337570187,94.39506530762,51.38355255125,24.44735336301,668
1.64951276756674E+018,63,1.64951276756674E+018,r1000913c5/base_footprint,0,1.64951276756674E+018,v/m1vw10zy74w/map,-14.532923068,-1.13665841621,0,0,0,-0.710374341569,0.703824051053,0,71.8947296143,33.0316734314,47.8173561096,95.9066696167,56.9589118958,56.9589118958,71.8947296143,71.8947296143,26.3150482178,0.209281355143,0,0.000191558603547,0.116890132427,0.00136926071718,0.00117770209908,4.79170227051,0.126686260104,-1.51160430908,-0.0160135943443,-5.57535934448,-0.108504749835,-1.86769485474,-0.0763966068625,37.82337570191,94.39506530762,51.38355255132,24.44735336306,668
1.64951276766682E+018,64,1.64951276766682E+018,r1000913c5/base_footprint,0,1.64951276766682E+018,v/m1vw10zy74w/map,-14.5329945231,-1.01818822378,0,0,0,-0.70895537969,0.705253337184,0,71.9733428955,34.3365249634,47.8173561096,95.9702911377,56.8366661072,56.8366661072,71.9733428955,71.9733428955,23.8089256287,0.171492278576,0,0.000732637417968,0.138006135821,0.00222500856034,0.00295764603652,0.338542938232,0.00976329576224,-1.57243347168,-0.016657512635,-5.70381164551,-0.111548863351,2.5068321228,0.0952597334981,34.675067901632,94.39785766602,51.13285446169,26.3157577515,809
1.6495127677668E+018,65,1.6495127677668E+018,r1000913c5/base_footprint,0,1.6495127677668E+018,v/m1vw10zy74w/map,-14.5329945231,-1.01818822378,0,0,0,-0.70895537969,0.705253337184,0,71.9582824707,35.6617660522,48.3852081299,95.9702911377,56.8248748779,56.8248748779,71.9582824707,71.9582824707,23.9526100159,0.260259747505,0,0.000415085843997,0.147123530507,0.00240751798265,0.00282260379754,-0.986698150635,-0.0284555498511,-1.57243347168,-0.016657512635,-5.69202041626,-0.111318260431,2.3631477356,0.0897997245193,34.675067901565,94.39785766602,51.13285446164,26.3157577515,809
1.64951276786695E+018,66,1.64951276786695E+018,r1000913c5/base_footprint,0,1.64951276786695E+018,v/m1vw10zy74w/map,-14.5329945231,-1.01818822378,0,0,0,-0.70895537969,0.705253337184,0,72.0399246216,37.5,48.3852081299,95.9702911377,56.7283248901,56.7283248901,72.0399246216,72.0399246216,21.4402923584,0.228610783815,0,0.000657274038531,0.153790250421,0.00295304786414,0.00361032201909,-2.82493209839,-0.0814686790109,-1.57243347168,-0.016657512635,-5.59547042847,-0.109430044889,4.87546539307,0.185267910361,34.67506790161,94.39785766602,51.13285446163,26.31575775147,809
1.64951276796687E+018,67,1.64951276796687E+018,r1000913c5/base_footprint,0,1.64951276796687E+018,v/m1vw10zy74w/map,-14.5323242149,-0.905573477671,0,0,0,-0.709582225808,0.704622640011,0,71.8289260864,45.2804374695,48.3852081299,95.8012313843,56.769443512,56.769443512,71.8289260864,71.8289260864,25.0737724304,0.240481927991,0,0.0010094277095,0.155002236366,0.00615743873641,0.00716686667874,-12.6994361877,-0.389780402184,-1.45307922363,-0.0154012469575,-5.74450302124,-0.11258225888,1.84970664978,0.0687023624778,32.5810012818,94.34815216067,51.02494049076,26.92347908018,877
1.64951276806673E+018,68,1.64951276806673E+018,r1000913c5/base_footprint,0,1.64951276806673E+018,v/m1vw10zy74w/map,-14.5323242149,-0.905573477671,0,0,0,-0.709582225808,0.704622640011,0,71.9058990479,45.7013587952,48.3720054626,95.8012313843,56.7609634399,56.7609634399,71.9058990479,71.9058990479,23.5967006683,0.212555006146,0,0.000627836794592,0.154032066464,0.0071489000693,0.00777673674747,-13.1203575134,-0.402699649334,-1.45307922363,-0.0154012469575,-5.73602294922,-0.112416066229,3.32677841187,0.123564206064,32.5810012818,94.34815216067,51.02494049068,26.92347908017,877
1.6495127681665E+018,69,1.6495127681665E+018,r1000913c5/base_footprint,0,1.6495127681665E+018,v/m1vw10zy74w/map,-14.5273448209,-0.789388748715,0,0,0,-0.711131680376,0.703058840472,0,71.9111022949,48.124130249,48.187210083,95.8916244507,56.7218742371,56.7218742371,71.9111022949,71.9111022949,23.4061756134,0.155833184719,0,0.000751521380153,0.149776145816,0.00455653807148,0.00530805904418,-16.3330574036,-0.513762414455,-1.57066345215,-0.0166523270309,-5.72701263428,-0.112305678427,3.72174453735,0.13719239831,31.7910728454,94.32096099855,50.99486160282,27.12792015075,864
1.6495127682668E+018,70,1.6495127682668E+018,r1000913c5/base_footprint,0,1.6495127682668E+018,v/m1vw10zy74w/map,-14.5273448209,-0.789388748715,0,0,0,-0.711131680376,0.703058840472,0,71.6691131592,48.5294113159,48.1217308044,95.8916244507,56.677028656,56.677028656,71.6691131592,71.6691131592,27.2776794434,0.165434360504,0,0.000811844714917,0.149474546313,0.00487436400726,0.00568620860577,-16.7383384705,-0.52651065588,-1.57066345215,-0.0166523270309,-5.68216705322,-0.111426264048,-0.149759292603,-0.00552048580721,31.7910728454,94.32096099855,50.99486160278,27.127920150797,864
1.64951276836667E+018,71,1.64951276836667E+018,r1000913c5/base_footprint,0,1.64951276836667E+018,v/m1vw10zy74w/map,-14.5273448209,-0.789388748715,0,0,0,-0.711131680376,0.703058840472,0,71.8203430176,47.4153289795,48.0485725403,95.8916244507,56.6570549011,56.6570549011,71.8203430176,71.8203430176,24.3399200439,0.19366902113,0,0.000774093787186,0.149601250887,0.00491211470217,0.00568620860577,-15.624256134,-0.491466790438,-1.57066345215,-0.0166523270309,-5.66219329834,-0.111034587026,2.78800010681,0.102772347629,31.7910728455,94.32096099855,50.99486160276,27.12792015071,864
1.64951276846688E+018,72,1.64951276846688E+018,r1000913c5/base_footprint,0,1.64951276846688E+018,v/m1vw10zy74w/map,-14.5295091054,-0.670916173757,0,0,0,-0.710728750572,0.703466163444,0,72.0068664551,47.610294342,48.0485725403,95.8073806763,56.6686935425,56.6686935425,72.0068664551,72.0068664551,20.8048992157,0.197659939528,0,0.000670562847517,0.150205612183,0.00501564564183,0.00568620860577,-16.6684513092,-0.538702607155,-1.54258728027,-0.0163644049317,-5.86452865601,-0.115434013307,6.61486434937,0.241244390607,30.9418430328,94.26479339603,50.80416488649,27.41976356507,829
1.64951276856784E+018,73,1.64951276856784E+018,r1000913c5/base_footprint,0,1.64951276856784E+018,v/m1vw10zy74w/map,-14.5317581642,-0.678343740003,0,0,0,-0.710831659886,0.703362176481,0,71.9172439575,40.7204742432,48.1131362915,95.8293228149,56.5994987488,56.5994987488,71.9172439575,71.9172439575,21.7497119904,0.207410857081,0,0.000406583101721,0.150500655174,0.00384914851747,0.00425573159009,-9.77863121033,-0.316032618284,-1.56452941895,-0.0165971759707,-5.7953338623,-0.114072024822,5.67005157471,0.206787034869,30.94184303287,94.26479339595,50.8041648865,27.41976356511,829
1.64951276868012E+018,74,1.64951276868012E+018,r1000913c5/base_footprint,0,1.64951276868013E+018,v/m1vw10zy74w/map,-14.5317581642,-0.678343740003,0,0,0,-0.710831659886,0.703362176481,0,71.8650512695,46.6063346863,48.1099739075,95.8293228149,56.6003189087,56.6003189087,71.8650512695,71.8650512695,22.6981430054,0.150358393788,0,0.000430479267379,0.150563448668,0.00351956207305,0.00395004125312,-15.6644916534,-0.506255924702,-1.56452941895,-0.0165971759707,-5.79615402222,-0.11408816278,4.72162055969,0.172197714448,30.9418430329,94.26479339595,50.80416488648,27.41976356509,829
1.64951276876827E+018,75,1.64951276876827E+018,r1000913c5/base_footprint,0,1.64951276876827E+018,v/m1vw10zy74w/map,-14.5317581642,-0.678343740003,0,0,0,-0.710831659886,0.703362176481,0,71.6562728882,43.8502655029,48.1099739075,95.8293228149,56.5539207458,56.5539207458,71.6562728882,71.6562728882,25.9550266266,0.105521008372,0,0.000503021699842,0.150426253676,0.00314599345438,0.00364901521243,-12.9084224701,-0.417183369398,-1.56452941895,-0.0165971759707,-5.74975585938,-0.113174892962,1.46473693848,0.0534190200269,30.9418430328,94.26479339595,50.80416488642,27.41976356508,829
1.64951276886672E+018,76,1.64951276886672E+018,r1000913c5/base_footprint,0,1.64951276886672E+018,v/m1vw10zy74w/map,-14.5271512667,-0.581840517552,0,0,0,-0.711603069257,0.702581718965,0,71.7898178101,43.8103599548,48.1099739075,95.8910064697,56.3910675049,56.3910675049,71.7898178101,71.7898178101,22.0143890381,0.131176933646,0,0.000488589692395,0.150396227837,0.00284787453711,0.00333646405488,-13.4752006531,-0.444210648537,-1.67133331299,-0.0177386868745,-5.735206604,-0.1132190153,5.54433822632,0.201182663441,30.3351593017,94.21967315671,50.6558609009,27.55872726442,768
1.6495127689672E+018,77,1.6495127689672E+018,r1000913c5/base_footprint,0,1.6495127689672E+018,v/m1vw10zy74w/map,-14.5271512667,-0.581840517552,0,0,0,-0.711603069257,0.702581718965,0,71.8728179932,44.7415313721,48.2127304077,95.8910064697,56.2322616577,56.2322616577,71.8728179932,71.8728179932,18.8053035736,0.18812687695,0,7.90818376117E-05,0.150254487991,0.00228717364371,0.00236625550315,-14.4063720703,-0.474906742573,-1.67133331299,-0.0177386868745,-5.57640075684,-0.110084019601,8.7534236908,0.317627996206,30.3351593018,94.21967315671,50.65586090086,27.5587272644,768
1.64951276906696E+018,78,1.64951276906696E+018,r1000913c5/base_footprint,0,1.64951276906697E+018,v/m1vw10zy74w/map,-14.5271512667,-0.581840517552,0,0,0,-0.711603069257,0.702581718965,0,71.6919937134,44.3197135925,48.2127304077,95.8910064697,56.1601829529,56.1601829529,71.6919937134,71.6919937134,21.2816505432,0.0872887820005,0,6.50018628221E-05,0.150145873427,0.00233780965209,0.00240281154402,-13.9845542908,-0.461001515388,-1.67133331299,-0.0177386868745,-5.504322052,-0.108661107719,6.27707672119,0.227770924568,30.3351593017,94.21967315671,50.6558609009,27.55872726439,768
1.6495127691668E+018,79,1.6495127691668E+018,r1000913c5/base_footprint,0,1.6495127691668E+018,v/m1vw10zy74w/map,-14.5245546319,-0.477514198327,0,0,0,-0.712007965895,0.702171386844,0,71.4084396362,44.3684463501,48.2127304077,95.7426223755,56.0170326233,56.0170326233,71.4084396362,71.4084396362,24.3054065704,0.0949497744441,0,0.00021025451133,0.150030717254,0.00253537483513,0.00274562928826,-14.1592903137,-0.468708574772,-1.54196166992,-0.0163689050823,-5.39044952393,-0.106474682689,3.17470932007,0.115527510643,30.2091560364,94.20066070558,50.62658309937,27.48011589047,716
1.64951277016669E+018,80,1.64951277016669E+018,r1000913c5/base_footprint,0,1.64951277016669E+018,v/m1vw10zy74w/map,-14.522342838,-0.357200484782,0,0,0,-0.712036945623,0.702141999931,0,71.3230743408,37.6114082336,48.2692337036,95.7203674316,55.8335113525,55.8335113525,71.3230743408,71.3230743408,23.7798576355,0.129114940763,0,0.00182378210593,0.221425324678,0.0908310636878,0.089007280767,-7.02953147888,-0.229859381914,-1.57280731201,-0.0167057681829,-5.31454086304,-0.105198912323,3.28863143921,0.121492981911,30.58187675472,94.14756011959,50.51897048946,27.06848907471,613
1.64951277026712E+018,81,1.64951277026712E+018,r1000913c5/base_footprint,0,1.64951277026712E+018,v/m1vw10zy74w/map,-14.522342838,-0.357200484782,0,0,0,-0.712036945623,0.702141999931,0,71.0862731934,22.1583366394,48.3605957031,95.7203674316,54.8689575195,54.8689575195,71.0862731934,71.0862731934,17.6251335144,0.049478597939,0,0.00182710820809,0.220765992999,0.096503123641,0.0946760177612,8.42354011536,0.27544221282,-1.57280731201,-0.0167057681829,-4.34998703003,-0.0861060097814,9.4433555603,0.348868966103,30.58187675476,94.14756011959,50.51897048947,27.0684890747,613
1.64951277036663E+018,82,1.64951277036663E+018,r1000913c5/base_footprint,0,1.64951277036663E+018,v/m1vw10zy74w/map,-14.522342838,-0.357200484782,0,0,0,-0.712036945623,0.702141999931,0,70.4536743164,16.0966720581,48.3605957031,95.7203674316,54.009967804,54.009967804,70.4536743164,70.4536743164,19.7347698212,0.0559904761612,0,0.00180956022814,0.219707518816,0.111880116165,0.110070556402,14.4852046967,0.473653227091,-1.57280731201,-0.0167057681829,-3.49099731445,-0.069102704525,7.33371925354,0.270931988955,30.5818767548,94.14756011959,50.51897048955,27.06848907474,613
1.6495127705667E+018,83,1.6495127705667E+018,r1000913c5/base_footprint,0,1.6495127705667E+018,v/m1vw10zy74w/map,-14.5225790181,-0.401735929894,0,0,0,-0.673871192217,0.738848845367,0,69.7140045166,16.2210330963,48.3605957031,95.8795623779,53.1188201904,53.1188201904,69.7140045166,69.7140045166,23.9975585938,0.0134915132076,0,0.00295392633416,0.212980002165,0.16589127481,0.162937343121,14.2465267181,0.467596590519,-1.72191619873,-0.0182875879109,-2.57239532471,-0.0508917346597,3.28860282898,0.120522737503,30.4675598144,94.15764617917,50.54642486569,27.28616142278,650
1.64951277066663E+018,84,1.64951277066663E+018,r1000913c5/base_footprint,0,1.64951277066663E+018,v/m1vw10zy74w/map,-14.5166597216,-0.452789839122,0,0,0,-0.628780057507,0.777583204089,0,69.587059021,28.8425045013,48.3605957031,95.6585998535,53.1117782593,53.1117782593,69.587059021,69.587059021,25.4110431671,0.0659941062331,0,0.00397000322118,0.208596229553,0.189669564366,0.185699567199,1.4448184967,0.0477037355304,-1.4811706543,-0.0157274492085,-2.54985427856,-0.0504303239286,1.93302345276,0.0706926137209,30.287322998,94.1774291992,50.56192398074,27.34406661986,691
1.64951277076663E+018,85,1.64951277076663E+018,r1000913c5/base_footprint,0,1.64951277076663E+018,v/m1vw10zy74w/map,-14.5055306088,-0.487227075728,0,0,0,-0.573480365932,0.819219305125,0,69.3007736206,18.117647171,48.3605957031,95.6986694336,52.591796875,52.591796875,69.3007736206,69.3007736206,25.0927448273,0.0519394613802,0,0.00483528291807,0.204068914056,0.206885382533,0.202050089836,12.0915088654,0.4002597332,-1.49800872803,-0.0159023161978,-1.96521377563,-0.0388178229332,2.38737106323,0.0868763104081,30.2091560364,94.20066070557,50.62658309937,27.48011589053,716
1.64951277086668E+018,86,1.64951277086668E+018,r1000913c5/base_footprint,0,1.64951277086668E+018,v/m1vw10zy74w/map,-14.4932321624,-0.517562487187,0,0,0,-0.529997869925,0.847998972803,0,68.8029632568,14.8732662201,48.2180900574,95.5455932617,52.1383094788,52.1383094788,68.8029632568,68.8029632568,28.6045188904,-0.0518210791051,0,0.00502133695409,0.201057210565,0.214163392782,0.209142044187,15.4218235016,0.509053587914,-1.34055328369,-0.0142301656306,-1.48150634766,-0.0292459502816,-1.08547210693,-0.0394443944097,30.2950897217,94.20503997801,50.65680313114,27.51904678347,744
1.64951277096881E+018,87,1.64951277096881E+018,r1000913c5/base_footprint,0,1.64951277096881E+018,v/m1vw10zy74w/map,-14.4787587049,-0.539845438722,0,0,0,-0.479174739829,0.877719527361,0,68.6292419434,16.7862262726,47.9687767029,95.5698852539,51.7521209717,51.7521209717,68.6292419434,68.6292419434,27.6481056213,-0.0593346878886,0,0.00585531350225,0.19626031816,0.216357991099,0.210502669215,13.3481140137,0.442953586578,-1.36544036865,-0.014494436793,-1.0989151001,-0.0216948781163,-0.0981636047363,-0.00356311467476,30.1343402863,94.20444488525,50.6532058716,27.5499420165637,750
1.64951277106715E+018,88,1.64951277106715E+018,r1000913c5/base_footprint,0,1.64951277106715E+018,v/m1vw10zy74w/map,-14.4386194218,-0.567305038605,0,0,0,-0.424564246271,0.905397813554,0,68.4463500977,13.4662132263,47.701499939,95.7127380371,51.3884811401,51.3884811401,68.4463500977,68.4463500977,27.5272159576,0.015881370753,0,0.00694735860452,0.189484894276,0.169320389628,0.162373036146,16.6814823151,0.553325295448,-1.4884185791,-0.0157965440303,-0.747230529785,-0.0147553728893,0.0489673614502,0.00177571200766,30.1476955414,94.224319458,50.641250610315,27.5761833190502,775
1.64951277116679E+018,89,1.64951277116679E+018,r1000913c5/base_footprint,0,1.64951277116679E+018,v/m1vw10zy74w/map,-14.4200016613,-0.598108807365,0,0,0,-0.360238048542,0.932860412057,0,67.5567398071,13.4662132263,47.399307251,95.8280639648,51.0967407227,51.0967407227,67.5567398071,67.5567398071,40.8044624329,-0.00327521306463,0,0.00717158988118,0.186199873686,0.135026529431,0.127854928374,16.5917263031,0.551991462708,-1.60871887207,-0.0170741882175,-0.456817626953,-0.00902089849114,-13.1040668488,-0.473064243793,30.0579395294,94.21934509273,50.639923095747,27.7003955841,784
1.6495127712668E+018,90,1.6495127712668E+018,r1000913c5/base_footprint,0,1.6495127712668E+018,v/m1vw10zy74w/map,-14.3313794103,-0.638162593514,0,0,0,-0.237290639411,0.971438702363,0,67.4431610107,9.13438510895,47.0470123291,96.1883773804,50.7789344788,50.7789344788,67.4431610107,67.4431610107,40.7137260437,-0.0949438288808,0,0.00615460285917,0.179115921259,0.0527755320072,0.0466209314764,20.6400337219,0.693213641644,-1.97460174561,-0.0209587365389,-0.198318481445,-0.00392083963379,-12.9492988586,-0.466398924589,29.77441883085,94.21377563479,50.580615997355,27.7644271851,807
1.64951277136673E+018,91,1.64951277136673E+018,r1000913c5/base_footprint,0,1.64951277136673E+018,v/m1vw10zy74w/map,-14.2719806484,-0.666551570439,0,0,0,-0.173000335546,0.984921765371,0,67.3993301392,8.91840648651,46.4497413635,96.2166595459,50.2744293213,50.2744293213,67.3993301392,67.3993301392,36.1558380127,0.0979136675596,0,0.00459913956001,0.174421831965,0.0184025429189,0.0138034028932,20.7775611877,0.699676156044,-1.98931884766,-0.0211119074374,0.353702545166,0.00698628462851,-8.22548294067,-0.294499754906,29.69596767421,94.22734069824,50.628131866466,27.93035507203,822
1.64951277146677E+018,92,1.64951277146677E+018,r1000913c5/base_footprint,0,1.64951277146677E+018,v/m1vw10zy74w/map,-14.1929631665,-0.689578331104,0,0,0,-0.119248846419,0.992864397905,0,66.9610977173,7.22142505646,45.5770874023,96.1080932617,50.2315368652,50.2315368652,66.9610977173,66.9610977173,43.1899490356,0.044216696173,0,0.00321577559225,0.167790800333,0.00887712463737,0.0120929004624,22.2676239014,0.755114972591,-1.891456604,-0.0200756117702,0.312908172607,0.00619075307623,-15.1851654053,-0.5422347188,29.48904895786,94.2166366577,50.544445037807,28.0047836303,805
1.64951277156662E+018,93,1.64951277156662E+018,r1000913c5/base_footprint,0,1.64951277156662E+018,v/m1vw10zy74w/map,-14.0871119128,-0.693831944215,0,0,0,-0.0674739969687,0.997721033021,0,67.407661438,14.9777555466,44.6648750305,95.8552856445,50.3898963928,50.3898963928,67.407661438,67.407661438,35.9519729614,-0.104856953025,0,0.00211136043072,0.0784953534603,0.04973064363,0.0518420040607,13.9965238571,0.483067184687,-1.70690155029,-0.0181299075484,-0.10689163208,-0.00212580035441,-7.35319328308,-0.257115632296,28.9742794037,94.14838409421,50.28300476072,28.59877967832,761
1.64951277166654E+018,94,1.64951277166654E+018,r1000913c5/base_footprint,0,1.64951277166654E+018,v/m1vw10zy74w/map,-13.9636029412,-0.702456960267,0,0,0,-0.0216971685698,0.999764588729,0,68.0470504761,23.5796890259,43.9089202881,95.736831665,50.8731307983,50.8731307983,68.0470504761,68.0470504761,29.2355155945,-0.02634219639,0,0.00145736173727,0.0622979179025,0.0548105537891,0.0562679171562,0.868015289307,0.0355049818754,-1.70622253418,-0.0181453954428,-0.551239013672,-0.0109542589635,4.5365486145,0.134328439832,24.447704315207,94.03060913082,50.321891784628,33.772064209,401
1.64951277176664E+018,95,1.64951277176664E+018,r1000913c5/base_footprint,0,1.64951277176664E+018,v/m1vw10zy74w/map,-13.8581812814,-0.701833216166,0,0,0,-0.00110202482043,0.99999939277,0,68.2669219971,24.2273178101,43.4107971191,95.8660812378,51.3341217041,51.3341217041,68.2669219971,68.2669219971,30.7218208313,-0.149141490459,0,0.000207905803109,0.043052688241,0.081888653338,0.0820965617895,-0.866544723511,-0.0370940081775,-1.80275726318,-0.0191653575748,-0.731460571289,-0.0144549822435,3.78886413574,0.109788149595,23.360773086589,94.06332397462,50.602661132811,34.51068496704,358
1.64951277186928E+018,96,1.64951277186928E+018,r1000913c5/base_footprint,0,1.64951277186928E+018,v/m1vw10zy74w/map,-13.8581812814,-0.701833216166,0,0,0,-0.00110202482043,0.99999939277,0,68.3528289795,19.9209098816,42.6278877258,95.8660812378,51.8881034851,51.8881034851,68.3528289795,68.3528289795,35.1584777832,-0.0157913919538,0,0.000190368940821,0.0412244871259,0.0862498953938,0.086059525609,3.43986320496,0.147249549627,-1.80275726318,-0.0191653575748,-1.28544235229,-0.0254026632756,-0.647792816162,-0.0187707897276,23.36077308656,94.06332397462,50.60266113281,34.510684967038,358
1.64951277196756E+018,97,1.64951277196756E+018,r1000913c5/base_footprint,0,1.64951277196756E+018,v/m1vw10zy74w/map,-13.7341167996,-0.698963013559,0,0,0,0.013783539783,0.999905002503,0,68.1865005493,17.4573059082,42.137512207,95.9765014648,52.433971405,52.433971405,68.1865005493,68.1865005493,44.4452857971,-0.0384564846754,0,0.000495426706038,0.0362344011664,0.0949555262923,0.0944600999355,6.34512138367,0.266574561596,-1.86923980713,-0.0198628641665,-1.56101226807,-0.0306845195591,-9.78336715698,-0.282251179218,23.80242729187,94.10726165767,50.87295913693,34.66191864012,333
1.64951277206688E+018,98,1.64951277206688E+018,r1000913c5/base_footprint,0,1.64951277206688E+018,v/m1vw10zy74w/map,-13.5972524586,-0.684262859515,0,0,0,0.0203749397267,0.999792409369,0,68.4348602295,19.4071331024,41.6027259827,95.8546905518,52.8622283936,52.8622283936,68.4348602295,68.4348602295,44.161403656,0.0694847851992,0,0.00103750557173,0.0316173508763,0.0997643098235,0.0987268015742,7.61483383179,0.281801611185,-1.70923614502,-0.0181552693248,-3.25227737427,-0.0655569583178,-12.594701767,-0.398986935616,27.02196693419,94.14545440678,49.60995101933,31.566701889,551
1.6495127721666E+018,99,1.6495127721666E+018,r1000913c5/base_footprint,0,1.6495127721666E+018,v/m1vw10zy74w/map,-13.4788228114,-0.676810063537,0,0,0,0.0235397559133,0.999722901554,0,68.8009185791,20.6349201202,41.3081932068,95.9236373901,53.2815589905,53.2815589905,68.8009185791,68.8009185791,42.3493385315,0.233055591583,0,0.00137729675043,0.0219352971762,0.111345365644,0.109968066216,6.83954429626,0.248941853642,-1.45921325684,-0.0154472254217,-4.44488525391,-0.091015316546,-12.355009079,-0.411911487579,27.47446441646,94.46442413326,48.83667373659,29.9943294525,951
1.64951277226652E+018,100,1.64951277226652E+018,r1000913c5/base_footprint,0,1.64951277226652E+018,v/m1vw10zy74w/map,-13.3460495055,-0.680591375492,0,0,0,0.0199828264508,0.999800323388,0,69.0815048218,23.9819011688,41.2732658386,96.0554428101,53.6018676758,53.6018676758,69.0815048218,69.0815048218,41.2326965332,0.472991168499,0,0.00161520345137,0.00867080967873,0.126270189881,0.124654985964,3.26430702209,0.119807757437,-1.53522491455,-0.0162422917783,-4.8723449707,-0.0999875366688,-11.2369747162,-0.374619245529,27.24620819089,94.52021789555,48.7295227051,29.995721817,1061
1.64951277236649E+018,101,1.64951277236649E+018,r1000913c5/base_footprint,0,1.64951277236649E+018,v/m1vw10zy74w/map,-13.2123629296,-0.678384128327,0,0,0,0.0124813297415,0.99992210517,0,69.4093399048,24.632352829,41.3597679138,95.9852828979,53.9205856323,53.9205856323,69.4093399048,69.4093399048,38.5212440491,0.524743974209,0,0.00196039536968,0.00593347474933,0.134897083044,0.132936686277,2.40037727356,0.088795222342,-1.43704986572,-0.0151991192251,-5.28681564331,-0.10870668292,-8.56635284424,-0.28597509861,27.03273010256,94.54823303218,48.63376998899,29.95489120486,1147
