%time,field.header.seq,field.header.stamp,field.header.frame_id,field.pose.header.seq,field.pose.header.stamp,field.pose.header.frame_id,field.pose.pose.position.x,field.pose.pose.position.y,field.pose.pose.position.z,field.pose.pose.orientation.x,field.pose.pose.orientation.y,field.pose.pose.orientation.z,field.pose.pose.orientation.w,field.label,field.main_output,field.scan_score,field.pose_score,field.cov_score,field.lhood_map_score,field.lhood_robot_score,field.lhood_map_score_all,field.lhood_robot_score_all,field.point_angle_diff,field.average_orientation,field.map_average_orientation,field.sensor_div,field.odom_div_x,field.odom_div_w,field.imu_div_w,field.kdtree_div,field.kdtree_div_p,field.cov_div,field.cov_div_p,field.likelihood_div,field.likelihood_div_p,field.normal_diff_div,field.normal_diff_div_p,field.kdtree_average,field.cov_average,field.likelihood_average,field.normal_diff_average,field.map_update_count
1.64951647390477E+018,0,1.64951647390477E+018,r1000913c5/base_footprint,0,1.64951647390477E+018,v/m1vw10zy74w/map,-8.69386360542,-0.771171585068,0,0,0,-0.951822304099,0.306650128681,0,64.9647979736,13.0074567795,100,95.4267730713,46.4788742065,46.4788742065,64.9647979736,64.9647979736,36.141910553,0.345576554537,0,0.00345400511287,0.476065188646,0.0555867962539,0.0521327890456,5.20410633087,0.285758346319,-0.872634887695,-0.00922894477844,0.0660820007324,0.00141974573489,-1.54753112793,-0.0447335988283,18.21156311037,94.554138183605,46.5449562072324,34.59437942507,1176
1.64951647400483E+018,1,1.64951647400483E+018,r1000913c5/base_footprint,0,1.64951647400483E+018,v/m1vw10zy74w/map,-8.68286480181,-0.769399681619,0,0,0,-0.933828278369,0.357721604769,0,64.8317489624,20.3036060333,43.7253875732,95.0395812988,46.1334037781,46.1334037781,64.8317489624,64.8317489624,33.4117202759,0.386408090591,0,0.00305138062686,0.444865942001,0.0452250353992,0.042173653841,-2.05632781982,-0.112692303956,-0.477615356445,-0.00505081890151,0.417289733887,0.00896420050412,1.26457977295,0.0364681296051,18.24727821348,94.561965942355,46.550693511987,34.67630004885,1182
1.64951647410434E+018,2,1.64951647410434E+018,r1000913c5/base_footprint,0,1.64951647410434E+018,v/m1vw10zy74w/map,-8.67972769225,-0.766407634501,0,0,0,-0.911011302132,0.41238138584,0,64.6047668457,17.5544242859,44.0209693909,95.0469436646,45.7413253784,45.7413253784,64.6047668457,64.6047668457,33.2894897461,0.0670105740428,0,0.00255180825479,0.413584768772,0.0346574038267,0.0321055948734,0.692853927612,0.0379702597857,-0.484977722168,-0.00512867653742,0.809368133545,0.0173868108541,1.38681030273,0.0399930290878,18.247278213512,94.561965942432,46.550693511945,34.67630004883,1182
1.64951647420427E+018,3,1.64951647420427E+018,r1000913c5/base_footprint,0,1.64951647420427E+018,v/m1vw10zy74w/map,-8.67670089744,-0.756476062987,0,0,0,-0.890219643655,0.455531542322,0,64.4938278198,19.117647171,44.3762245178,95.8224411011,45.3867225647,45.3867225647,64.4938278198,64.4938278198,34.2484436035,0.000950459390879,0,0.00138020992745,0.294812977314,0.0046769073233,0.00329669751227,-0.890747070312,-0.0488699153066,-1.28036499023,-0.0135428057984,1.24915313721,0.0267852395773,0.434104919434,0.0125165227801,18.226900100688,94.54207611087,46.63587570191,34.682548522934,1166
1.64951647430553E+018,4,1.64951647430553E+018,r1000913c5/base_footprint,0,1.64951647430553E+018,v/m1vw10zy74w/map,-8.67653719654,-0.754002065921,0,0,0,-0.860310539625,0.509770316328,0,64.3393325806,22.1719455719,44.2489242554,95.891166687,45.1026649475,45.1026649475,64.3393325806,64.3393325806,34.2089653015,0.0458283908665,0,6.89363660058E-05,0.240501537919,0.00716254580766,0.00709360977635,-3.94504547119,-0.216440841556,-1.34909057617,-0.0142697375268,1.53321075439,0.0328762084246,0.473583221436,0.0136547992006,18.22690010071,94.54207611083,46.63587570189,34.682548522936,1166
1.64951647440505E+018,5,1.64951647440505E+018,r1000913c5/base_footprint,0,1.64951647440505E+018,v/m1vw10zy74w/map,-8.67911614379,-0.757186324331,0,0,0,-0.827808335916,0.561011015033,0,64.1943359375,25.0544662476,43.3039207458,95.692024231,44.8798065186,44.8798065186,64.1943359375,64.1943359375,33.695098877,0.102646499872,0,0.00169680605177,0.194043084979,0.0262017603964,0.0245049539953,-6.82756614685,-0.374587357044,-1.14994812012,-0.0121633475646,1.75606918335,0.0376548990607,0.987449645996,0.0284710805863,18.22690010075,94.54207611088,46.63587570195,34.682548522996,1166
1.64951647450412E+018,6,1.64951647450412E+018,r1000913c5/base_footprint,0,1.64951647450412E+018,v/m1vw10zy74w/map,-8.68237392097,-0.75701781475,0,0,0,-0.798024888306,0.602624491408,0,63.9118652344,15.2249135971,42.6346206665,95.4993896484,44.6631507874,44.6631507874,63.9118652344,63.9118652344,35.7462272644,0.0322537571192,0,0.00243661785498,0.176637753844,0.0364773571491,0.0340407416224,3.0019865036,0.164700880647,-0.957313537598,-0.0101257935166,1.97272491455,0.0423005856574,-1.06367874146,-0.0306689906865,18.2269001007,94.542076110802,46.63587570195,34.68254852294,1166
1.64951647460564E+018,7,1.64951647460564E+018,r1000913c5/base_footprint,0,1.64951647460564E+018,v/m1vw10zy74w/map,-8.67968611973,-0.754748019673,0,0,0,-0.791738750925,0.610859845041,0,63.7768669128,17.1499576569,42.0419044495,95.5958480835,44.3376808167,44.3376808167,63.7768669128,63.7768669128,35.0083999634,0.0801898911595,0,0.00276660965756,0.16524066031,0.0460318624973,0.0432652495801,1.07694244385,0.0590853318572,-1.05377197266,-0.0111460629851,2.29819488525,0.0492795482278,-0.32585144043,-0.00939525663853,18.22690010075,94.54207611084,46.63587570195,34.68254852297,1166
1.64951647470475E+018,8,1.64951647470475E+018,r1000913c5/base_footprint,0,1.64951647470475E+018,v/m1vw10zy74w/map,-8.6790128667,-0.753329360994,0,0,0,-0.754078318114,0.656784508153,0,63.5055656433,15.2612094879,41.8447418213,95.4861450195,44.0144004822,44.0144004822,63.5055656433,63.5055656433,36.0054969788,0.00672570662573,0,0.00297125778161,0.152522116899,0.072856195271,0.0698849409819,2.96569061279,0.162709549069,-0.944068908691,-0.00998570118099,2.62147521973,0.0562115572393,-1.32294845581,-0.0381444990635,18.22690010069,94.542076110809,46.63587570193,34.68254852299,1166
1.6495164769043E+018,9,1.6495164769043E+018,r1000913c5/base_footprint,0,1.6495164769043E+018,v/m1vw10zy74w/map,-8.67937230436,-0.753069145035,0,0,0,-0.71557387037,0.698537068482,0,63.5677375793,21.0314254761,41.7333908081,96.1659011841,43.858165741,43.858165741,63.5677375793,63.5677375793,35.646194458,0.164345145226,0,0.00158332381397,0.0420905053616,0.227914884686,0.229498207569,-2.80452537537,-0.153867378831,-1.62382507324,-0.017175687477,2.77770996094,0.0595616549253,-0.963645935059,-0.0277847498655,18.22690010073,94.54207611086,46.63587570194,34.682548522941,1166
1.64951647700442E+018,10,1.64951647700442E+018,r1000913c5/base_footprint,0,1.64951647700442E+018,v/m1vw10zy74w/map,-8.67937230436,-0.753069145035,0,0,0,-0.71557387037,0.698537068482,0,63.4528503418,14.6482124329,42.1290206909,96.1659011841,43.360584259,43.360584259,63.4528503418,63.4528503418,32.3402366638,0.180465206504,0,0.00369579391554,0.0926120132208,0.238292887807,0.234597086906,3.57868766785,0.196340993047,-1.62382507324,-0.017175687477,3.27529144287,0.070231154561,2.34231185913,0.0675357505679,18.22690010075,94.54207611086,46.63587570187,34.68254852293,1166
1.64951647710482E+018,11,1.64951647710482E+018,r1000913c5/base_footprint,0,1.64951647710482E+018,v/m1vw10zy74w/map,-8.67937230436,-0.753069145035,0,0,0,-0.71557387037,0.698537068482,0,62.8276519775,18.4928874969,42.1290206909,96.1659011841,42.9134140015,42.9134140015,62.8276519775,62.8276519775,38.7643966675,0.0724157765508,0,0.00467628194019,0.112680628896,0.213328719139,0.208652436733,-0.26598739624,-0.0145931234583,-1.62382507324,-0.017175687477,3.72246170044,0.079819701612,-4.08184814453,-0.117691703141,18.22690010066,94.54207611086,46.63587570194,34.68254852297,1166
1.64951647720509E+018,12,1.64951647720509E+018,r1000913c5/base_footprint,0,1.64951647720509E+018,v/m1vw10zy74w/map,-8.68423019505,-0.878724056399,0,0,0,-0.71206299585,0.702115581611,0,63.1042747498,14.8606815338,42.1290206909,96.5894546509,42.5398368835,42.5398368835,63.1042747498,63.1042747498,31.2753276825,0.23698925972,0,0.00374136539176,0.109282314777,0.199957117438,0.196215748787,3.26307106018,0.180043891072,-2.01587677002,-0.021315433085,3.78017807007,0.0816100388765,3.44616508484,0.0992516428232,18.12375259398,94.57357788088,46.32001495357,34.72149276734,1191
1.6495164773045E+018,13,1.6495164773045E+018,r1000913c5/base_footprint,0,1.6495164773045E+018,v/m1vw10zy74w/map,-8.68423019505,-0.878724056399,0,0,0,-0.71206299585,0.702115581611,0,62.2420883179,16.7303276062,42.1290206909,96.5894546509,42.2553329468,42.2553329468,62.2420883179,62.2420883179,43.7220687866,0.06589384377,0,0.00122635066509,0.0996272191405,0.192078649998,0.190852299333,1.39342498779,0.0768839120865,-2.01587677002,-0.021315433085,4.06468200684,0.0877521708608,-9.00057601929,-0.25922203064,18.12375259399,94.57357788088,46.32001495364,34.72149276731,1191
1.64951647740436E+018,14,1.64951647740436E+018,r1000913c5/base_footprint,0,1.64951647740436E+018,v/m1vw10zy74w/map,-8.68513551171,-0.988100919427,0,0,0,-0.710342200373,0.703856489897,0,62.5979804993,15.966386795,42.1290206909,96.537940979,42.0473327637,42.0473327637,62.5979804993,62.5979804993,34.8841018677,0.238391295075,0,0.000551679579075,0.0950177311897,0.191522881389,0.190971210599,1.94676971436,0.108678206801,-1.94114685059,-0.0205202177167,4.08165359497,0.0884834900498,-0.120506286621,-0.00346645060927,17.91315650936,94.59679412841,46.12898635867,34.763595581079,1131
1.64951647750441E+018,15,1.64951647750441E+018,r1000913c5/base_footprint,0,1.64951647750441E+018,v/m1vw10zy74w/map,-8.68513551171,-0.988100919427,0,0,0,-0.710342200373,0.703856489897,0,62.5812530518,13.6745605469,42.7843360901,96.537940979,41.7906532288,41.7906532288,62.5812530518,62.5812530518,32.4130821228,0.16429874301,0,0.000123764635646,0.0873865559697,0.179369956255,0.1794937253,4.23859596252,0.236619159579,-1.94114685059,-0.0205202177167,4.33833312988,0.0940478742123,2.35051345825,0.0676142200828,17.91315650942,94.59679412841,46.12898635868,34.76359558105,1131
1.64951647760596E+018,16,1.64951647760596E+018,r1000913c5/base_footprint,0,1.64951647760596E+018,v/m1vw10zy74w/map,-8.68372453609,-1.10139624278,0,0,0,-0.716698017398,0.697383647541,0,62.3904953003,17.4133224487,42.7843360901,96.2963943481,41.5394020081,41.5394020081,62.3904953003,62.3904953003,32.2636604309,0.238081693649,0,0.00153231609147,0.0790728405118,0.159998893738,0.15846657753,0.53709602356,0.0299210865051,-1.61646270752,-0.0170729178935,4.27298355103,0.0932713598013,2.53327560425,0.0728016868234,17.95041847226,94.67993164058,45.81238555913,34.79693603515,1025
1.64951647780426E+018,17,1.64951647780426E+018,r1000913c5/base_footprint,0,1.64951647780426E+018,v/m1vw10zy74w/map,-8.68612071222,-1.21178985499,0,0,0,-0.72616065318,0.687525058288,0,62.627040863,20.7843132019,42.965839386,96.3632888794,41.4547958374,41.4547958374,62.627040863,62.627040863,27.3329238892,0.236450850964,0,0.00329336151481,0.0741642266512,0.142004847527,0.138711497188,-4.19113540649,-0.252581834793,-1.25118255615,-0.0131548186764,0.990489959717,0.0233356878161,8.00638198853,0.226557418704,16.59317779541,95.11210632325,42.445285797117,35.33930587773,392
1.64951647790438E+018,18,1.64951647790438E+018,r1000913c5/base_footprint,0,1.64951647790438E+018,v/m1vw10zy74w/map,-8.68662781783,-1.22144864282,0,0,0,-0.726077410739,0.687612967893,0,63.1672058105,16.3047771454,42.965839386,96.4534378052,41.4106559753,41.4106559753,63.1672058105,63.1672058105,17.4577693939,0.218812689185,0,0.00419166497886,0.0674093738198,0.110115677118,0.105924017727,0.288400650024,0.017380675301,-1.34133148193,-0.0141026368365,1.03462982178,0.0243756119162,17.8815364838,0.505995690823,16.593177795424,95.11210632327,42.44528579708,35.3393058777,392
1.649516478005E+018,19,1.649516478005E+018,r1000913c5/base_footprint,0,1.649516478005E+018,v/m1vw10zy74w/map,-8.69100749394,-1.32311370528,0,0,0,-0.72816064706,0.685406501336,0,63.0347747803,18.5520362854,42.6974983215,96.6124191284,41.4227371216,41.4227371216,63.0347747803,63.0347747803,20.5443401337,0.204474389553,0,0.0041351178661,0.0599632970989,0.0903091579676,0.0861740410328,-2.55715847015,-0.159873589873,-1.45660400391,-0.0153075670823,-0.0890121459961,-0.00215349928476,15.8017559052,0.434758007526,15.99487781525,95.15581512449,41.3337249756039,36.3460960389,315
1.64951647810437E+018,20,1.64951647810437E+018,r1000913c5/base_footprint,0,1.64951647810437E+018,v/m1vw10zy74w/map,-8.69100749394,-1.32311370528,0,0,0,-0.72816064706,0.685406501336,0,63.0200614929,17.9784584045,42.1009559631,96.6124191284,41.4431419373,41.4431419373,63.0200614929,63.0200614929,21.029504776,0.223610773683,0,0.00291724456474,0.0552601926029,0.0801992565393,0.0772820115089,-1.98358058929,-0.124013490975,-1.45660400391,-0.0153075670823,-0.10941696167,-0.00264715938829,15.3165912628,0.421409517527,15.99487781521,95.15581512449,41.33372497563,36.3460960388,315
1.64951648170419E+018,21,1.64951648170419E+018,r1000913c5/base_footprint,0,1.64951648170419E+018,v/m1vw10zy74w/map,-8.6921286196,-2.24411877304,0,0,0,-0.703881424225,0.710317492838,0,63.138759613,20.1974487305,42.1009559631,97.4908447266,41.558265686,41.558265686,63.138759613,63.138759613,23.2985954285,0.294321984053,0,0.00258550373837,0.046874307096,0.00169418531004,0.004279688932,-8.09286212921,-0.668578147888,-2.0768737793,-0.0217669773847,-1.11001968384,-0.0274429619312,5.40546226501,0.188317000866,12.10458660129,95.4139709473,40.44824600216,28.70405769351,206
1.64951648510452E+018,22,1.64951648510452E+018,r1000913c5/base_footprint,0,1.64951648510452E+018,v/m1vw10zy74w/map,-8.69316042206,-2.46171877087,0,0,0,-0.706989510727,0.7072240322,0,63.0936203003,12.793088913,41.296043396,97.6653594971,41.411529541,41.411529541,63.0936203003,63.0936203003,23.154668808,1.50437510014,0,0.00255336775444,0.125568181276,0.0256999041885,0.0282532721758,-1.86837005615,-0.171022251248,-2.27770996094,-0.0238784570247,-1.09546661377,-0.0271719638258,3.1388092041,0.119375959039,10.92471885685,95.38764953616,40.31606292723,26.2934780121,146
1.64951648520461E+018,23,1.64951648520461E+018,r1000913c5/base_footprint,0,1.64951648520462E+018,v/m1vw10zy74w/map,-8.69316042206,-2.46171877087,0,0,0,-0.706989510727,0.7072240322,0,61.9376869202,3.44827580452,40.6659088135,97.6653594971,41.0179634094,41.0179634094,61.9376869202,61.9376869202,39.7109146118,1.55459523201,0,0.000289886927931,0.17831479013,0.025373397395,0.0256632827222,7.47644329071,0.684360265732,-2.27770996094,-0.0238784570247,-0.701900482178,-0.0174099467695,-13.4174365997,-0.510295212269,10.92471909523,95.38764953616,40.316062927222,26.2934780121,146
1.64951648530548E+018,24,1.64951648530548E+018,r1000913c5/base_footprint,0,1.64951648530548E+018,v/m1vw10zy74w/map,-8.69316042206,-2.46171877087,0,0,0,-0.706989510727,0.7072240322,0,61.9853935242,4.10958909988,40.6659088135,97.6653594971,40.7983589172,40.7983589172,61.9853935242,61.9853935242,36.48046875,1.56043446064,0,0.00453428737819,0.194777935743,0.0264867059886,0.0310209933668,6.81512975693,0.623826563358,-2.27770996094,-0.0238784570247,-0.48229598999,-0.0119628738612,-10.1869907379,-0.387434124947,10.92471885681,95.38764953616,40.31606292721,26.2934780121,146
1.64951648540497E+018,25,1.64951648540497E+018,r1000913c5/base_footprint,0,1.64951648540497E+018,v/m1vw10zy74w/map,-8.68918024763,-2.34850907891,0,0,0,-0.707693493906,0.706519581245,0,61.8970756531,7.3327960968,40.6659088135,97.8510055542,40.5548248291,40.5548248291,61.8970756531,61.8970756531,36.1083564758,1.49168658257,0,0.00475489953533,0.18822042644,0.024921676144,0.0296765752137,4.2598772049,0.367462873459,-2.43937683105,-0.0255668722093,-0.173961639404,-0.00430802162737,-8.57345581055,-0.311366856098,11.5926733017,95.41162872315,40.380863189696,27.53490066525,181
1.64951648550483E+018,26,1.64951648550483E+018,r1000913c5/base_footprint,0,1.64951648550483E+018,v/m1vw10zy74w/map,-8.68918024763,-2.34850907891,0,0,0,-0.707693493906,0.706519581245,0,61.8502502441,10.3641452789,40.6659088135,97.8510055542,40.2598876953,40.2598876953,61.8502502441,61.8502502441,33.7658576965,1.52796757221,0,0.00548010272905,0.168905451894,0.0284924171865,0.0339725203812,1.22852802277,0.105974525213,-2.43937683105,-0.0255668722093,0.120975494385,0.00299586192705,-6.23095703125,-0.226293057203,11.59267330167,95.41162872315,40.380863189685,27.53490066525,181
1.64951648560505E+018,27,1.64951648560505E+018,r1000913c5/base_footprint,0,1.64951648560505E+018,v/m1vw10zy74w/map,-8.68387627509,-2.21989742003,0,0,0,-0.709687576883,0.704516531543,0,61.8718948364,8.76350498199,40.6659088135,98.092086792,40.0100898743,40.0100898743,61.8718948364,61.8718948364,31.5463695526,1.59714984894,0,0.00499675795436,0.158108621836,0.0288759414107,0.0338727012277,3.34108161926,0.276017814875,-2.67811584473,-0.028068382293,0.43815612793,0.0108325127512,-2.84231185913,-0.09902125597,12.10458660125,95.41397094727,40.44824600223,28.70405769347,206
1.6495164857044E+018,28,1.6495164857044E+018,r1000913c5/base_footprint,0,1.6495164857044E+018,v/m1vw10zy74w/map,-8.68349672973,-2.10822703075,0,0,0,-0.710044440863,0.704156866046,0,61.1814537048,6.99523067474,40.1912536621,97.8434753418,39.7644844055,39.7644844055,61.1814537048,61.1814537048,40.4267959595,1.60685074329,0,0.00431472947821,0.140530318022,0.0251290760934,0.0294438060373,5.70335102081,0.449132919312,-2.47945404053,-0.0259998906404,0.804607391357,0.019833015278,-10.0981769562,-0.33295866847,12.69858169555,95.36402130127,40.569091796857,30.3286190033,256
1.64951648580452E+018,29,1.64951648580452E+018,r1000913c5/base_footprint,0,1.64951648580452E+018,v/m1vw10zy74w/map,-8.68349672973,-2.10822703075,0,0,0,-0.710044440863,0.704156866046,0,61.4426116943,2.09238052368,40.1912536621,97.8434753418,39.6497802734,39.6497802734,61.4426116943,61.4426116943,34.4871253967,1.58365917206,0,0.00472165225074,0.117481537163,0.0180631652474,0.0227848179638,10.6062011719,0.835227251053,-2.47945404053,-0.0259998906404,0.919311523438,0.0226603914052,-4.15850639343,-0.137114927173,12.69858169558,95.36402130127,40.569091796838,30.32861900327,256
1.64951648590418E+018,30,1.64951648590418E+018,r1000913c5/base_footprint,0,1.64951648590418E+018,v/m1vw10zy74w/map,-8.68247814225,-1.99561113787,0,0,0,-0.710770661372,0.703423817434,0,61.5231781006,6.21143579483,39.9188041687,97.8540802002,39.595993042,39.595993042,61.5231781006,61.5231781006,32.4941940308,1.27406466007,0,0.00421890895814,0.0978068634868,0.013354674913,0.0175735838711,6.66226816177,0.517509818077,-2.52062988281,-0.0264401417226,1.04836654663,0.0257936548442,-1.38271141052,-0.0444437637925,12.8737039566,95.33345031739,40.64435958863,31.11148262028,290
1.64951648600488E+018,31,1.64951648600488E+018,r1000913c5/base_footprint,0,1.64951648600488E+018,v/m1vw10zy74w/map,-8.68247814225,-1.99561113787,0,0,0,-0.710770661372,0.703423817434,0,61.6532211304,9.69345474243,39.9188041687,97.8540802002,39.769493103,39.769493103,61.6532211304,61.6532211304,32.0272331238,1.0881639719,0,0.00399802997708,0.082779571414,0.00973502360284,0.0137330535799,3.18024921417,0.247034519911,-2.52062988281,-0.0264401417226,0.874866485596,0.0215249173343,-0.91575050354,-0.029434485361,12.8737039566,95.33345031739,40.644359588596,31.11148262026,290
1.64951648610532E+018,32,1.64951648610532E+018,r1000913c5/base_footprint,0,1.64951648610532E+018,v/m1vw10zy74w/map,-8.68313360763,-1.87981717675,0,0,0,-0.711018577795,0.703173223346,0,62.0950927734,12.7651062012,39.7644805908,97.2803039551,39.901386261,39.901386261,62.0950927734,62.0950927734,23.43242836,0.953440129757,0,0.00257124588825,0.0689789950848,0.00688583217561,0.00945707876235,0.739728927612,0.0547751188278,-2.00726318359,-0.0210685320199,0.813087463379,0.0199704766273,8.47169303894,0.265536010265,13.504835128812,95.27304077151,40.714473724379,31.90412139894,302
1.64951648620429E+018,33,1.64951648620429E+018,r1000913c5/base_footprint,0,1.64951648620429E+018,v/m1vw10zy74w/map,-8.68298915767,-1.77764851454,0,0,0,-0.708119643645,0.706092465817,0,61.8044929504,14.9443559647,39.9532775879,97.0657272339,40.108543396,40.108543396,61.8044929504,61.8044929504,30.1280059814,0.842246770859,0,0.00310101197101,0.0582803227007,0.00464623887092,0.0077472506091,-0.920248985291,-0.0656190812588,-1.7924041748,-0.018813284114,0.70764541626,0.0173373706639,3.29001998901,0.0984504595399,14.024106979409,95.2733230591,40.81618881226,33.41802597041,305
1.64951648630433E+018,34,1.64951648630433E+018,r1000913c5/base_footprint,0,1.64951648630433E+018,v/m1vw10zy74w/map,-8.68298915767,-1.77764851454,0,0,0,-0.708119643645,0.706092465817,0,61.7995376587,12.5596179962,39.5219039917,97.0657272339,40.2679595947,40.2679595947,61.7995376587,61.7995376587,31.938867569,0.895941615105,0,0.00307635706849,0.0530841574073,0.00467089377344,0.0077472506091,1.46448898315,0.104426540434,-1.7924041748,-0.018813284114,0.548229217529,0.013431660831,1.47915840149,0.0442622900009,14.02410697935,95.2733230591,40.816188812229,33.41802597049,305
1.6495164864044E+018,35,1.6495164864044E+018,r1000913c5/base_footprint,0,1.6495164864044E+018,v/m1vw10zy74w/map,-8.68452817326,-1.66962072806,0,0,0,-0.70821511393,0.705996708492,0,61.4168128967,13.3545312881,39.0079421997,96.8628540039,40.3026504517,40.3026504517,61.4168128967,61.4168128967,38.472240448,0.665788292885,0,0.0033266833052,0.0407112129033,0.0044205673039,0.0077472506091,1.37455368042,0.0933224111795,-1.61338043213,-0.016938470304,0.656246185303,0.016022067517,-3.80614471436,-0.109794445336,14.72908496852,95.24947357177,40.958896637003,34.66609573364,310
1.64951648650421E+018,36,1.64951648650421E+018,r1000913c5/base_footprint,0,1.64951648650422E+018,v/m1vw10zy74w/map,-8.68452817326,-1.66962072806,0,0,0,-0.70821511393,0.705996708492,0,61.4203147888,12.7651062012,38.525718689,96.8628540039,40.3172836304,40.3172836304,61.4203147888,61.4203147888,38.5672607422,0.572837173939,0,0.00350719154812,0.0343308486044,0.00424005882815,0.0077472506091,1.9639787674,0.13334017992,-1.61338043213,-0.016938470304,0.641613006592,0.0156648028642,-3.90116500854,-0.112535461783,14.7290849686,95.24947357177,40.958896636992,34.66609573366,310
1.64951648660443E+018,37,1.64951648660443E+018,r1000913c5/base_footprint,0,1.64951648660443E+018,v/m1vw10zy74w/map,-8.68113914398,-1.53526035806,0,0,0,-0.709077687382,0.705130366143,0,61.0537986755,13.5654258728,38.525718689,96.7661819458,40.2950782776,40.2950782776,61.0537986755,61.0537986755,44.5767173767,0.630075395107,0,0.00336215668358,0.0254490487278,0.00438509369269,0.0077472506091,1.88506793976,0.122006967664,-1.57084655762,-0.0165012981743,0.83092880249,0.0202044602484,-8.65438461304,-0.240919336677,15.45049381256,95.19533538818,41.12600708009,35.92233276366,314
1.64951648670446E+018,38,1.64951648670446E+018,r1000913c5/base_footprint,0,1.64951648670446E+018,v/m1vw10zy74w/map,-8.68113914398,-1.53526035806,0,0,0,-0.709077687382,0.705130366143,0,60.8306846619,12.9411764145,38.4930610657,96.7661819458,40.3275718689,40.3275718689,60.8306846619,60.8306846619,48.9437026978,0.58630657196,0,0.00350410188548,0.0192655976862,0.00424314895645,0.0077472506091,2.50931739807,0.16241016984,-1.57084655762,-0.0165012981743,0.798435211182,0.019414363429,-13.0213699341,-0.362486749887,15.45049381257,95.19533538818,41.126007080082,35.9223327637,314
1.64951648680513E+018,39,1.64951648680513E+018,r1000913c5/base_footprint,0,1.64951648680514E+018,v/m1vw10zy74w/map,-8.67964658104,-1.42407929259,0,0,0,-0.709467565719,0.704738088366,0,61.1125984192,15.5151996613,38.4930610657,96.3341369629,40.3639411926,40.3639411926,61.1125984192,61.1125984192,42.7066574097,0.153034508228,0,0.00366505677812,0.0162600819021,0.00408219359815,0.0077472506091,0.189832687378,0.0120873795822,-1.14637756348,-0.0120433298871,0.838649749756,0.0203542970121,-6.43006896973,-0.177251204848,15.705032348678,95.18775939942,41.202590942356,36.27658843997,312
1.64951648690435E+018,40,1.64951648690435E+018,r1000913c5/base_footprint,0,1.64951648690435E+018,v/m1vw10zy74w/map,-8.67964658104,-1.42407929259,0,0,0,-0.709467565719,0.704738088366,0,61.2050743103,14.3657464981,38.9161643982,96.3341369629,40.4112205505,40.4112205505,61.2050743103,61.2050743103,41.5527458191,0.287296354771,0,0.00352753186598,0.0101171182469,0.00421971874312,0.0077472506091,1.33928585052,0.0852774977684,-1.14637756348,-0.0120433298871,0.791370391846,0.0192068107426,-5.27615737915,-0.145442485809,15.70503234862,95.18775939942,41.202590942346,36.27658843995,312
1.64951648700449E+018,41,1.64951648700449E+018,r1000913c5/base_footprint,0,1.64951648700449E+018,v/m1vw10zy74w/map,-8.68052762214,-1.2925037347,0,0,0,-0.709707268404,0.704496694935,0,61.370059967,20.7683067322,38.9161643982,96.0625305176,40.5054740906,40.5054740906,61.370059967,61.370059967,38.6231193542,0.484790474176,0,0.0038852498401,0.00115087348968,0.003862000769,0.0077472506091,-4.53081130981,-0.279033869505,-0.909194946289,-0.00955505110323,0.937232971191,0.0226151477545,-2.54386901855,-0.0705078095198,16.23749542239,95.153335571311,41.442707061791,36.07925033565,321
1.64951648710432E+018,42,1.64951648710432E+018,r1000913c5/base_footprint,0,1.64951648710432E+018,v/m1vw10zy74w/map,-8.68052762214,-1.2925037347,0,0,0,-0.709707268404,0.704496694935,0,61.3740882874,21.2924613953,39.7385101318,96.0625305176,40.5450668335,40.5450668335,61.3740882874,61.3740882874,38.9782104492,0.388679295778,0,0.00354884867556,0.0265057850629,0.00388179486617,0.00743064377457,-5.0549659729,-0.311314404011,-0.909194946289,-0.00955505110323,0.897640228271,0.0216597877443,-2.89896011353,-0.0803497880697,16.2374954224,95.153335571311,41.442707061771,36.07925033567,321
1.64951648720417E+018,43,1.64951648720417E+018,r1000913c5/base_footprint,0,1.64951648720417E+018,v/m1vw10zy74w/map,-8.67520406477,-1.18334835621,0,0,0,-0.710582480027,0.703613913363,0,61.1765060425,19.3747425079,39.7385101318,95.7611160278,40.5975532532,40.5975532532,61.1765060425,61.1765060425,42.0165214539,0.366231262684,0,0.00528064090759,0.11221177876,0.00278156949207,0.008062209934,-1.3470954895,-0.0747238695621,-0.854499816895,-0.00900358520448,4.59687805176,0.101713374257,-7.3145904541,-0.21078337729,18.0276470184,94.906616210905,45.19443130496,34.7019309998,787
1.64951648750437E+018,44,1.64951648750437E+018,r1000913c5/base_footprint,0,1.64951648750437E+018,v/m1vw10zy74w/map,-8.67520406477,-1.18334835621,0,0,0,-0.710582480027,0.703613913363,0,61.6054077148,20.1974487305,40.9678077698,95.7611160278,40.6140213013,40.6140213013,61.6054077148,61.6054077148,34.4740905762,0.561888694763,0,0.00434005307034,0.129493057728,0.00289311748929,0.0072331703268,-2.16980171204,-0.120359674096,-0.854499816895,-0.00900358520448,4.58041000366,0.101348988712,0.227840423584,0.00656564114615,18.02764701846,94.906616210905,45.19443130496,34.701930999784,787
1.64951648760503E+018,45,1.64951648760503E+018,r1000913c5/base_footprint,0,1.64951648760503E+018,v/m1vw10zy74w/map,-8.67842714296,-1.07124922104,0,0,0,-0.707632757447,0.706580413391,0,61.8200950623,21.2981739044,40.9678077698,95.459274292,40.672618866,40.672618866,61.8200950623,61.8200950623,30.1559352875,0.329747617245,0,0.00166487251408,0.141997978091,0.00253440579399,0.00419927807525,-3.34775543213,-0.186500132084,-0.779342651367,-0.00823133904487,5.13976669312,0.112191639841,4.64100074768,0.133373826742,17.95041847227,94.679931640633,45.81238555912,34.79693603518,1025
1.64951648770484E+018,46,1.64951648770484E+018,r1000913c5/base_footprint,0,1.64951648770484E+018,v/m1vw10zy74w/map,-8.67777221407,-1.05321551901,0,0,0,-0.708047284661,0.706165025107,0,62.1001434326,19.4198226929,42.4760017395,95.5976104736,40.7827529907,40.7827529907,62.1001434326,62.1001434326,26.8025436401,0.454300582409,0,0.00163208215963,0.150805130601,0.00216401694342,0.00379609898664,-1.32631111145,-0.0733031332493,-0.969505310059,-0.010245426558,5.21771240234,0.113427385688,7.98329544067,0.229498431087,18.09351158145,94.628105163541,46.00046539304,34.78583908077,1080
1.64951648780421E+018,47,1.64951648780421E+018,r1000913c5/base_footprint,0,1.64951648780421E+018,v/m1vw10zy74w/map,-8.67777221407,-1.05321551901,0,0,0,-0.708047284661,0.706165025107,0,61.7021255493,17.3290939331,42.4760017395,95.5976104736,40.8152885437,40.8152885437,61.7021255493,61.7021255493,34.31823349,0.547422230244,0,0.00119535299018,0.153650954366,0.00172183022369,0.00291718309745,0.764417648315,0.0422481633723,-0.969505310059,-0.010245426558,5.18517684937,0.112720094621,0.46760559082,0.0134424120188,18.093511581415,94.628105163541,46.00046539307,34.78583908082,1080
1.64951648790424E+018,48,1.64951648790424E+018,r1000913c5/base_footprint,0,1.64951648790424E+018,v/m1vw10zy74w/map,-8.67777221407,-1.05321551901,0,0,0,-0.708047284661,0.706165025107,0,61.9312057495,15.5151996613,42.4760017395,95.5976104736,40.9062423706,40.9062423706,61.9312057495,61.9312057495,31.1770858765,0.343975573778,0,0.000480772461742,0.157702073455,0.00204985355958,0.00253062602133,2.57831192017,0.142499253154,-0.969505310059,-0.010245426558,5.09422302246,0.110742859542,3.60875320435,0.103742018342,18.09351158147,94.628105163541,46.00046539306,34.78583908085,1080
1.64951648800428E+018,49,1.64951648800428E+018,r1000913c5/base_footprint,0,1.64951648800428E+018,v/m1vw10zy74w/map,-8.67843907347,-0.937398390904,0,0,0,-0.708762101032,0.705447577174,0,61.7415504456,13.7254905701,44.2980613708,95.5525131226,40.92628479,40.92628479,61.7415504456,61.7415504456,34.6449928284,0.161430254579,0,0.000671061512548,0.156428933144,0.000908748887014,0.000237687345361,4.42133712769,0.243642419577,-0.948295593262,-0.0100238192827,5.27841186523,0.11423972249,0.0885696411133,0.00254997285083,18.14682769779,94.604217529338,46.20469665523,34.7335624695133,1170
1.64951648810446E+018,50,1.64951648810446E+018,r1000913c5/base_footprint,0,1.64951648810447E+018,v/m1vw10zy74w/map,-8.67843907347,-0.937398390904,0,0,0,-0.708762101032,0.705447577174,0,61.6951026917,17.1826629639,45.8980102539,95.5525131226,40.9145774841,40.9145774841,61.6951026917,61.6951026917,35.3546485901,0.0884371995926,0,0.000459774542833,0.154505684972,0.000697461888194,0.000237687345361,0.964164733887,0.0531313121319,-0.948295593262,-0.0100238192827,5.29011917114,0.114493101835,-0.621086120605,-0.0178814399987,18.146827697787,94.604217529338,46.20469665524,34.733562469495,1170
1.64951648820457E+018,51,1.64951648820457E+018,r1000913c5/base_footprint,0,1.64951648820457E+018,v/m1vw10zy74w/map,-8.6781340014,-0.810200076618,0,0,0,-0.707489028627,0.706724326999,0,61.8544044495,18.7306499481,45.8980102539,95.6007919312,40.8790435791,40.8790435791,61.8544044495,61.8544044495,32.277217865,0.0628895461559,0,0.000768603640608,0.154909104109,0.00100629101507,0.000237687345361,-0.525279998779,-0.0288530252874,-1.03401184082,-0.0109341973439,5.54169845581,0.119379788637,2.44223403931,0.0703419521451,18.205369949321,94.56678009038,46.42074203491,34.71945190431,1194
1.64951648830444E+018,52,1.64951648830444E+018,r1000913c5/base_footprint,0,1.64951648830444E+018,v/m1vw10zy74w/map,-8.6781340014,-0.810200076618,0,0,0,-0.707489028627,0.706724326999,0,61.8683433533,15.2024450302,47.1019020081,95.6007919312,40.8807487488,40.8807487488,61.8683433533,61.8683433533,32.0447731018,0.191965118051,0,0.000562190893106,0.154918178916,0.00104598107282,0.000483790237922,3.00292491913,0.164947211742,-1.03401184082,-0.0109341973439,5.53999328613,0.119343057275,2.67467880249,0.0770368948579,18.20536994933,94.56678009038,46.42074203493,34.71945190429,1194
1.64951648840447E+018,53,1.64951648840447E+018,r1000913c5/base_footprint,0,1.64951648840447E+018,v/m1vw10zy74w/map,-8.6781340014,-0.810200076618,0,0,0,-0.707489028627,0.706724326999,0,62.1162872314,16.6342029572,47.1019020081,95.6007919312,40.8820762634,40.8820762634,62.1162872314,62.1162872314,27.5961360931,0.176658034325,0,0.000413831032347,0.155068963766,0.00121023855172,0.000796407519374,1.57116699219,0.0863023921847,-1.03401184082,-0.0109341973439,5.53866577148,0.119314461946,7.12331581116,0.205167859793,18.20536994939,94.56678009038,46.42074203488,34.71945190426,1194
1.6495164885046E+018,54,1.6495164885046E+018,r1000913c5/base_footprint,0,1.6495164885046E+018,v/m1vw10zy74w/map,-8.67961185696,-0.701856341573,0,0,0,-0.707455896844,0.706757493078,0,61.8813896179,14.8606815338,52.8878211975,95.7117538452,40.9313697815,40.9313697815,61.8813896179,61.8813896179,32.7560806274,0.0790747404099,0,0.000713654037099,0.155051380396,0.00172361917794,0.00100996508263,3.36154747009,0.18447509408,-1.17755889893,-0.0124564329162,5.78141021729,0.123765066266,1.88662719727,0.0544595755637,18.22222900389,94.53419494627,46.71277999879,34.64270782467,1145
1.6495164886047E+018,55,1.6495164886047E+018,r1000913c5/base_footprint,0,1.6495164886047E+018,v/m1vw10zy74w/map,-8.67961185696,-0.701856341573,0,0,0,-0.707455896844,0.706757493078,0,61.7639503479,16.4086685181,64.2175369263,95.7117538452,40.9027061462,40.9027061462,61.7639503479,61.7639503479,34.5604400635,0.174833983183,0,0.000410840963013,0.155228123069,0.00224617589265,0.00183533492964,1.81356048584,0.0995246246457,-1.17755889893,-0.0124564329162,5.81007385254,0.124378681183,0.0822677612305,0.00237474963069,18.22222900394,94.53419494627,46.71277999874,34.6427078247305,1145
1.64951648870427E+018,56,1.64951648870427E+018,r1000913c5/base_footprint,0,1.64951648870427E+018,v/m1vw10zy74w/map,-8.67766337419,-0.574032817277,0,0,0,-0.706410218211,0.70780265866,0,61.9114952087,16.9550170898,64.2175369263,95.738861084,40.9163589478,40.9163589478,61.9114952087,61.9114952087,32.1496505737,-0.0259208902717,0,0.000483087264001,0.155419185758,0.00231842231005,0.00183533492964,1.23707389832,0.0680006444454,-1.21744537354,-0.0128801008686,5.86079406738,0.12529180944,2.53212738037,0.0730103105307,18.19209098812,94.52141571046,46.77715301518,34.68177795407,1090
1.64951648960418E+018,57,1.64951648960418E+018,r1000913c5/base_footprint,0,1.64951648960418E+018,v/m1vw10zy74w/map,-8.67989559609,-0.464638234424,0,0,0,-0.705572430619,0.708637809569,0,62.0571174622,15.075963974,67.5840072632,95.2897186279,40.8816757202,40.8816757202,62.0571174622,62.0571174622,27.5369873047,-0.116490259767,0,0.000992174842395,0.233720123768,0.0388039462268,0.0397961214185,3.02875518799,0.16729092598,-0.782363891602,-0.0082783382386,5.84760284424,0.125137880445,7.01751327515,0.203085362911,18.10471916199,94.507354736298,46.72927856444,34.55450057985,1004
1.64951648970433E+018,58,1.64951648970433E+018,r1000913c5/base_footprint,0,1.64951648970433E+018,v/m1vw10zy74w/map,-8.67989559609,-0.464638234424,0,0,0,-0.705572430619,0.708637809569,0,62.168964386,7.45098018646,64.2919616699,95.2897186279,40.7388420105,40.7388420105,62.168964386,62.168964386,23.9811096191,0.119375526905,0,0.000302830827422,0.228355675936,0.0693521201611,0.0696549490094,10.6537389755,0.588450908661,-0.782363891602,-0.0082783382386,5.99043655396,0.128194496036,10.5733909607,0.305991709232,18.10471916196,94.507354736298,46.72927856446,34.5545005798,1004
1.64951648980431E+018,59,1.64951648980431E+018,r1000913c5/base_footprint,0,1.64951648980431E+018,v/m1vw10zy74w/map,-8.67588880431,-0.466057536561,0,0,0,-0.667876489436,0.744272124198,0,61.5991516113,6.8298459053,64.2919616699,93.5413589478,40.6736831665,40.6736831665,61.5991516113,61.5991516113,27.2399215698,0.0771288871765,0,0.00108783249743,0.22404204309,0.083651304245,0.0847391337156,11.2748737335,0.622758805752,0.965995788574,0.010221382603,6.05559539795,0.129588887095,7.31457901001,0.211682379246,18.1047196388,94.507354736374,46.72927856445,34.55450057981,1004
1.64951648990443E+018,60,1.64951648990443E+018,r1000913c5/base_footprint,0,1.64951648990443E+018,v/m1vw10zy74w/map,-8.6678485094,-0.513322082145,0,0,0,-0.633428307797,0.773801382063,0,61.1043243408,9.19857883453,64.2919616699,93.1774139404,40.5123519897,40.5123519897,61.1043243408,61.1043243408,33.0942420959,-0.12064191699,0,0.0046906657517,0.218441456556,0.100603692234,0.10529435426,9.03402423859,0.495487362146,1.34007263184,0.0141780395061,6.27671432495,0.134149163961,1.51472091675,0.0437667220831,18.23260307312,94.51748657224,46.78906631465,34.60896301265,1050
1.6495164900049E+018,61,1.6495164900049E+018,r1000913c5/base_footprint,0,1.6495164900049E+018,v/m1vw10zy74w/map,-8.65166921109,-0.567276150602,0,0,0,-0.579062769381,0.815282962607,0,61.2460174561,11.764705658,64.8746414185,93.4057388306,40.4820632935,40.4820632935,61.2460174561,61.2460174561,31.0386505127,-0.0644325390458,0,0.00350973405875,0.213737472892,0.116223752499,0.119733482599,6.4273853302,0.353306561708,1.11567687988,0.0118034295738,6.29508972168,0.134576156735,3.64312744141,0.105044424534,18.1920909882,94.52141571048,46.77715301518,34.68177795411,1090
1.64951649010418E+018,62,1.64951649010418E+018,r1000913c5/base_footprint,0,1.64951649010418E+018,v/m1vw10zy74w/map,-8.63967118895,-0.600660922613,0,0,0,-0.538021185734,0.842931316123,0,61.2845153809,11.764705658,64.8746414185,93.3536376953,40.5192756653,40.5192756653,61.2845153809,61.2845153809,30.5599727631,-0.223480671644,0,0.00197100336663,0.20470418036,0.134940430522,0.136911436915,6.4273853302,0.353306561708,1.16777801514,0.0123546393588,6.25787734985,0.133780643344,4.12180519104,0.118846423924,18.1920909882,94.52141571044,46.77715301515,34.68177795414,1090
1.64951649020631E+018,63,1.64951649020631E+018,r1000913c5/base_footprint,0,1.64951649020631E+018,v/m1vw10zy74w/map,-8.61547102344,-0.639629100339,0,0,0,-0.465659348379,0.884964050833,0,60.6991271973,12.1789560318,60.5249519348,93.255531311,40.4941062927,40.4941062927,60.6991271973,60.6991271973,40.4719772339,-0.279389172792,0,0.00140714074951,0.198465138674,0.12770614028,0.129113286734,6.0265417099,0.331028670073,1.27870941162,0.0135264154524,6.27597045898,0.134187728167,-5.71557235718,-0.164446592331,18.2054977417,94.53424072262,46.77007675168,34.75640487672,1120
1.64951649050421E+018,64,1.64951649050421E+018,r1000913c5/base_footprint,0,1.64951649050422E+018,v/m1vw10zy74w/map,-8.58611805107,-0.670098990396,0,0,0,-0.399256086965,0.91683944997,0,61.0512008667,13.4453783035,54.4326171875,93.7495346069,40.5918388367,40.5918388367,61.0512008667,61.0512008667,36.968547821,-0.28834810853,0,0.0013847699156,0.193569272757,0.109299913049,0.110684685409,4.68514728546,0.258412092924,0.791809082031,0.0083752674982,6.10400390625,0.130718365312,-2.15015411377,-0.0617533959448,18.13052558896,94.541343688931,46.69584274295,34.81839370723,1154
1.64951649060437E+018,65,1.64951649060437E+018,r1000913c5/base_footprint,0,1.64951649060437E+018,v/m1vw10zy74w/map,-8.56057512173,-0.694038381437,0,0,0,-0.341533648909,0.939869547684,0,60.9105224609,9.88735961914,54.4326171875,93.8930969238,40.586555481,40.586555481,60.9105224609,60.9105224609,39.9605407715,-0.328386187553,0,0.00132410717197,0.189869582653,0.0799864083529,0.081310518086,8.27735519409,0.455683201551,0.648323059082,0.00685755582526,6.11263275146,0.13089376688,-5.10524749756,-0.146469786763,18.16471481323,94.541419982882,46.69918823246,34.85529327394,1144
1.64951649070425E+018,66,1.64951649070425E+018,r1000913c5/base_footprint,0,1.64951649070425E+018,v/m1vw10zy74w/map,-8.5224986205,-0.722754832475,0,0,0,-0.276446205294,0.961029393712,0,61.0187988281,6.05162906647,47.7696838379,94.151763916,40.527179718,40.527179718,61.0187988281,61.0187988281,38.3015327454,0.00276848115027,0,4.66724777652E-05,0.183721154928,0.0240017659962,0.0239550936967,12.2317705154,0.669009625912,0.412963867188,0.00436699669808,6.14250946045,0.131616681814,-3.3257484436,-0.0950871706009,18.28339958187,94.564727783188,46.66968917845,34.9757843018,1174
1.64951649080476E+018,67,1.64951649080476E+018,r1000913c5/base_footprint,0,1.64951649080476E+018,v/m1vw10zy74w/map,-8.4757390532,-0.730403595247,0,0,0,-0.221920446069,0.975064775088,0,60.5638465881,8.19964313507,47.5086250305,94.311630249,40.4577980042,40.4577980042,60.5638465881,60.5638465881,46.3168640137,-0.137655481696,0,0.00210647913627,0.174125209451,0.0338435918093,0.0317371115088,9.97988414764,0.548962771893,0.225166320801,0.00238178507425,6.21343231201,0.133131965995,-11.116027832,-0.31578874588,18.17952728271,94.536796569801,46.67123031621,35.2008361817,1190
1.64951649090422E+018,68,1.64951649090422E+018,r1000913c5/base_footprint,0,1.64951649090422E+018,v/m1vw10zy74w/map,-8.40740479146,-0.751952636912,0,0,0,-0.156273843192,0.987713767209,0,61.2372283936,13.3606929779,46.9588737488,94.5978775024,40.422870636,40.422870636,61.2372283936,61.2372283936,34.8492164612,0.0533518008888,0,0.0038194200024,0.168160438538,0.0484215691686,0.0446021519601,4.79426002502,0.264074504375,-0.0898361206055,-0.000950565910898,6.25666427612,0.13403442502,0.35844039917,0.0101807508618,18.15495300292,94.5080413817945,46.67953491212,35.20765686037,1196
1.64951649100445E+018,69,1.64951649100445E+018,r1000913c5/base_footprint,0,1.64951649100445E+018,v/m1vw10zy74w/map,-8.32137309087,-0.776076973723,0,0,0,-0.106718506587,0.99428927398,0,60.9712715149,6.6293182373,46.5348091125,94.8193130493,40.6043930054,40.6043930054,60.9712715149,60.9712715149,42.3940696716,-0.316184610128,0,0.00494684325531,0.101063542068,0.0729297101498,0.0679828673601,11.3287258148,0.630844056606,-0.305885314941,-0.00323642184958,6.1237449646,0.131050482392,-6.91591644287,-0.194934517145,17.9580440521,94.513427734359,46.72813797,35.47815322873,1182
1.64951649110433E+018,70,1.64951649110433E+018,r1000913c5/base_footprint,0,1.64951649110433E+018,v/m1vw10zy74w/map,-8.20904703164,-0.796671858205,0,0,0,-0.0463078925192,0.99892721411,0,61.7769813538,28.4313716888,46.190158844,94.6291503906,41.3647880554,41.3647880554,61.7769813538,61.7769813538,35.4189720154,0.0642081871629,0,0.00593585101888,0.0453821755946,0.0923638492823,0.0864279940724,-9.77591514587,-0.524024426937,-0.220474243164,-0.00233531766571,6.2682800293,0.131595134735,0.780479431152,0.0215605311096,18.65545654293,94.408676147436,47.6330680847,36.199451446552,985
1.64951649120431E+018,71,1.64951649120431E+018,r1000913c5/base_footprint,0,1.64951649120431E+018,v/m1vw10zy74w/map,-8.07786263381,-0.803558561716,0,0,0,-0.00378697634381,0.999992829379,0,62.2053451538,24.0986709595,45.8848457336,94.6536102295,42.0444374084,42.0444374084,62.2053451538,62.2053451538,35.13671875,0.182400852442,0,0.00598651869223,0.0271390378475,0.106709554791,0.100723035634,-5.97996520996,-0.33004373312,-0.343559265137,-0.00364287011325,6.0959815979,0.126629173756,2.09465789795,0.0562605559826,18.11870574954,94.310050964363,48.1404190063,37.23137664795,849
1.64951649130419E+018,72,1.64951649130419E+018,r1000913c5/base_footprint,0,1.64951649130419E+018,v/m1vw10zy74w/map,-7.9567627343,-0.795287093214,0,0,0,0.0159713296535,0.99987245018,0,62.3225135803,18.117647171,45.5076370239,94.539642334,42.5559921265,42.5559921265,62.3225135803,62.3225135803,38.1421470642,-0.0340498127043,0,0.00869570206851,0.0192395430058,0.136277899146,0.127582192421,-0.694160461426,-0.0398405008018,-0.28271484375,-0.00299940654077,5.69288253784,0.117989957333,-0.643600463867,-0.0171633437276,17.423486709574,94.25692749025,48.24887466434,37.498546600333,817
1.64951649140433E+018,73,1.64951649140433E+018,r1000913c5/base_footprint,0,1.64951649140433E+018,v/m1vw10zy74w/map,-7.83164750107,-0.783106199118,0,0,0,0.0267932770606,0.99964099571,0,62.8898162842,18.1985301971,45.2788543701,95.3589630127,43.1261749268,43.1261749268,62.8898162842,62.8898162842,37.0382537842,0.0688859373331,0,0.00911897514015,0.0134605569765,0.142337322235,0.133218348026,-1.61612701416,-0.0974603593349,-1.11738586426,-0.0118566127494,5.15733718872,0.106813631952,0.522155761719,0.013901758939,16.58240318294,94.24157714844,48.28351211552,37.560409545919,784
1.64951649150454E+018,74,1.64951649150454E+018,r1000913c5/base_footprint,0,1.64951649150454E+018,v/m1vw10zy74w/map,-7.71125237507,-0.772902074214,0,0,0,0.0350743573689,0.999384705434,0,62.9194602966,8.59728527069,45.1301994324,95.2022781372,43.6681747437,43.6681747437,62.9194602966,62.9194602966,41.7942314148,0.194929793477,0,0.0107918940485,0.00548890046775,0.150428518653,0.139636620879,7.40797519684,0.462846279144,-0.872299194336,-0.00924731697887,3.85299682617,0.0810795873404,-4.76356887817,-0.128638505936,16.00526046753,94.329978942864,47.52117156987,37.03066253663,925
1.6495164916045E+018,75,1.6495164916045E+018,r1000913c5/base_footprint,0,1.6495164916045E+018,v/m1vw10zy74w/map,-7.57128320733,-0.756609829065,0,0,0,0.0356982391464,0.999362614731,0,63.4149436951,5.70273923874,44.9621009827,95.0006408691,44.3975372314,44.3975372314,63.4149436951,63.4149436951,40.0267372131,0.266710162163,0,0.0117030385882,0.00510852457955,0.16076888144,0.149065837264,10.1855010986,0.641071736813,-0.518920898438,-0.00549228908494,2.2788734436,0.0488228090107,-3.75048828125,-0.103386878967,15.88824033734,94.481719970662,46.676410675,36.27624893185,1147
1.649516491705E+018,76,1.649516491705E+018,r1000913c5/base_footprint,0,1.649516491705E+018,v/m1vw10zy74w/map,-7.43681275459,-0.744406518393,0,0,0,0.0313677010136,0.999507912592,0,64.1625976562,18.7675075531,45.040271759,95.101348877,45.0403251648,45.0403251648,64.1625976562,64.1625976562,33.8736610413,0.745065689087,0,0.0110730538145,0.0151354065165,0.166769877076,0.155696824193,-2.85252285004,-0.179235041142,-0.591728210449,-0.0062610367313,1.41425323486,0.0304437857121,2.15682983398,0.0598612390459,15.91498470306,94.509620666551,46.45457839966,36.03049087528,1202
1.64951649180439E+018,77,1.64951649180439E+018,r1000913c5/base_footprint,0,1.64951649180439E+018,v/m1vw10zy74w/map,-7.30348746398,-0.735546757108,0,0,0,0.0235295199544,0.99972314252,0,65.1588973999,26.5882358551,45.3329696655,95.2734298706,45.7178916931,45.7178916931,65.1588973999,65.1588973999,23.8773860931,0.642472922802,0,0.0109510319307,0.044605627656,0.189413651824,0.17846262455,-10.6709699631,-0.670402169228,-0.756477355957,-0.00800361577421,0.62247467041,0.013432665728,12.0226688385,0.334892779589,15.917265892,94.516952514643,46.34036636351,35.9000549316,1231
1.64951649190405E+018,78,1.64951649190405E+018,r1000913c5/base_footprint,0,1.64951649190405E+018,v/m1vw10zy74w/map,-7.15593359926,-0.727031973389,0,0,0,0.0152919454345,0.999883071366,0,65.5426483154,26.9449710846,45.6925010681,95.2212753296,46.4130401611,46.4130401611,65.5426483154,65.5426483154,24.2896976471,0.568121373653,0,0.0118592875078,0.0624410621822,0.206379577518,0.194520294666,-10.8835086823,-0.677616298199,-0.712142944336,-0.00753517588601,-0.183612823486,-0.0039717736654,11.4185276031,0.319773048162,16.0614624023,94.509132385264,46.229427337614,35.7082252502,1241
1.64951649200427E+018,79,1.64951649200427E+018,r1000913c5/base_footprint,0,1.64951649200427E+018,v/m1vw10zy74w/map,-7.03919240364,-0.72366948356,0,0,0,0.010774556186,0.999941952785,0,65.9662475586,28.607339859,46.0408668518,95.2816925049,47.170879364,47.170879364,65.9662475586,65.9662475586,25.0670681,0.535560786724,0,0.0132369687781,0.0714954063296,0.206262648106,0.193025678396,-12.3751907349,-0.762387692928,-0.757850646973,-0.00801756046712,-0.891422271729,-0.0192617271096,10.6258335114,0.297701597214,16.2321491241,94.523841857927,46.279457092271,35.6929016114,1249
1.64951649210425E+018,80,1.64951649210425E+018,r1000913c5/base_footprint,0,1.64951649210425E+018,v/m1vw10zy74w/map,-6.77724934849,-0.713441045425,0,0,0,0.00196882366116,0.999998061865,0,65.9465866089,27.6018104553,46.4461708069,95.5832901001,47.6366996765,47.6366996765,65.9465866089,65.9465866089,31.537612915,0.424558728933,0,0.0134404459968,0.0918247401714,0.223606675863,0.210166230798,-10.9545326233,-0.658037483692,-1.16512298584,-0.0123400297016,-0.979923248291,-0.0210028067231,4.73501586914,0.130539640784,16.647277832,94.41816711426,46.656776428209,36.27262878414,1156
1.64951649220427E+018,81,1.64951649220427E+018,r1000913c5/base_footprint,0,1.64951649220427E+018,v/m1vw10zy74w/map,-6.77155854332,-0.716503416584,0,0,0,0.00156290115097,0.999998778669,0,66.120010376,31.7844791412,46.7763557434,95.6189422607,48.1923561096,48.1923561096,66.120010376,66.120010376,34.5454597473,0.359368085861,0,0.0125295566395,0.105295464396,0.238366186619,0.225836634636,-15.1372013092,-0.909289896488,-1.20077514648,-0.0127176279202,-1.5355796814,-0.0329122543335,1.72716903687,0.0476163178682,16.647277832,94.41816711422,46.6567764282,36.27262878417,1156
1.64951649230422E+018,82,1.64951649230422E+018,r1000913c5/base_footprint,0,1.64951649230422E+018,v/m1vw10zy74w/map,-6.61918550401,-0.713039094129,0,0,0,-0.00187189744642,0.999998247998,0,66.2876434326,34.4262313843,47.2205619812,95.2240066528,48.8501701355,48.8501701355,66.2876434326,66.2876434326,37.2106399536,0.512528955936,0,0.00891713332385,0.117162577808,0.254310786724,0.245393633842,-17.8670864105,-1.0789860487,-0.993782043457,-0.0105463191867,-1.28095626831,-0.0269282627851,0.0737953186035,0.00197925278917,16.5591449738,94.230224609343,47.56921386719,37.2844352722035,896
1.6495164924049E+018,83,1.6495164924049E+018,r1000913c5/base_footprint,0,1.6495164924049E+018,v/m1vw10zy74w/map,-6.48683456344,-0.712926592698,0,0,0,-0.0036524225213,0.999993329883,0,66.6059112549,24.5852184296,47.2948150635,95.2750854492,49.2172889709,49.2172889709,66.6059112549,66.6059112549,35.6306304932,0.303373605013,0,0.0120183434337,0.130164816976,0.275863915682,0.263845562935,-8.4088973999,-0.519827544689,-1.08150482178,-0.0114817256108,-1.59465408325,-0.033485211432,1.71192550659,0.0458438210189,16.1763210297,94.19358062742,47.62263488765,37.34255599979,856
1.6495164925044E+018,84,1.6495164925044E+018,r1000913c5/base_footprint,0,1.6495164925044E+018,v/m1vw10zy74w/map,-6.19304426849,-0.723604967232,0,0,0,-0.00722564897318,0.999973894658,0,66.85912323,26.2213363647,47.1097717285,95.4344329834,49.456577301,49.456577301,66.85912323,66.85912323,34.2308044434,0.172044739127,0,0.0128982858732,0.149222195148,0.279088914394,0.266190618277,-11.6392650604,-0.798190116882,-1.3484954834,-0.0143325934187,-1.81623458862,-0.0381238758564,3.41642379761,0.090748347342,14.5820713043,94.0859375,47.64034271238,37.64722824101,817
1.64951649260425E+018,85,1.64951649260425E+018,r1000913c5/base_footprint,0,1.64951649260425E+018,v/m1vw10zy74w/map,-6.03073457195,-0.718599431223,0,0,0,-0.00694094420652,0.999975911357,0,67.1371765137,26.8413238525,46.752494812,95.4887924194,49.6142807007,49.6142807007,67.1371765137,67.1371765137,31.1247138977,0.212702259421,0,0.0146330734715,0.168358445168,0.24057623744,0.225943163037,-13.3302249908,-0.986612915993,-1.44144439697,-0.0153267951682,-2.05688095093,-0.0432504937053,6.01329040527,0.161917433143,13.5110988617,94.04734802243,47.55739974977,37.13800430297,782
1.64951649270436E+018,86,1.64951649270436E+018,r1000913c5/base_footprint,0,1.64951649270436E+018,v/m1vw10zy74w/map,-5.77875002717,-0.727584230721,0,0,0,-0.00961759316467,0.999953749881,0,67.4826583862,17.0684661865,46.4544334412,95.9036254883,49.5766220093,49.5766220093,67.4826583862,67.4826583862,25.9926605225,0.230970427394,0,0.0162344686687,0.181070908904,0.17883464694,0.162600189447,-4.39119052887,-0.346382826567,-1.87349700928,-0.0199244339019,-2.02146530151,-0.0425078049302,10.1433181763,0.280698597431,12.67727565763,94.03012847902,47.55515670779,36.1359786988,754
1.64951649280397E+018,87,1.64951649280397E+018,r1000913c5/base_footprint,0,1.64951649280397E+018,v/m1vw10zy74w/map,-5.65949828814,-0.73203395844,0,0,0,-0.00964852397412,0.999953451909,0,66.6724853516,17.3553714752,46.0471076965,95.9252853394,49.4834251404,49.4834251404,66.6724853516,66.6724853516,39.6473274231,0.199486926198,0,0.0176082588732,0.19099059701,0.142046660185,0.124438405037,-4.72352218628,-0.373937517405,-1.86614990234,-0.0198401771486,-1.87054824829,-0.0392866060138,-3.78444671631,-0.105525448918,12.63184928892,94.05913543706,47.61287689211,35.86288070679,765
1.64951649290406E+018,88,1.64951649290406E+018,r1000913c5/base_footprint,0,1.64951649290406E+018,v/m1vw10zy74w/map,-5.51935296522,-0.730097336614,0,0,0,-0.00993096034094,0.999950686797,0,66.369430542,6.43816566467,45.8420066833,96.0268936157,49.068939209,49.068939209,66.369430542,66.369430542,40.9916343689,0.128872871399,0,0.0121919326484,0.216456741095,0.0934574529529,0.0812655165792,5.81155776978,0.474423587322,-2.02851867676,-0.0215803589672,-1.54001998901,-0.0324017480016,-5.02405929565,-0.139683008194,12.24972343445,93.99837493894,47.52891921999,35.96757507325,766
1.64951649300424E+018,89,1.64951649300424E+018,r1000913c5/base_footprint,0,1.64951649300424E+018,v/m1vw10zy74w/map,-5.12336250063,-0.742064743454,0,0,0,-0.00307425835804,0.999995274457,0,66.716003418,6.08007907867,45.8554916382,95.9110031128,48.8519630432,48.8519630432,66.716003418,66.716003418,31.9927158356,0.802441298962,0,0.0108711067587,0.225085988641,0.0833037719131,0.072432667017,4.8815279007,0.445329576731,-1.97776794434,-0.0210550390184,-1.30688476562,-0.0274872779846,5.10462379456,0.137600809336,10.96160697937,93.93323516846,47.54507827758,37.09733963016,740
1.6495164931046E+018,90,1.6495164931046E+018,r1000913c5/base_footprint,0,1.6495164931046E+018,v/m1vw10zy74w/map,-5.08279621332,-0.737973055564,0,0,0,-0.00170586032798,0.999998545019,0,66.301071167,8.91840648651,45.9418563843,96.0126800537,48.8474121094,48.8474121094,66.301071167,66.301071167,39.7784461975,0.149784937501,0,0.00969318114221,0.232608765364,0.0703922882676,0.060699108988,1.8214006424,0.169593423605,-2.12419128418,-0.0226246193051,-1.33809661865,-0.0281649306417,-2.5986328125,-0.0698936507106,10.73980712891,93.88848876952,47.50931549075,37.179813385,741
1.64951649320477E+018,91,1.64951649320477E+018,r1000913c5/base_footprint,0,1.64951649320477E+018,v/m1vw10zy74w/map,-4.93225340382,-0.743110096451,0,0,0,-0.000461158272797,0.999999893667,0,66.2180862427,13.4117650986,46.1626319885,96.0974655151,48.7018699646,48.7018699646,66.2180862427,66.2180862427,40.0054588318,0.462418228388,0,0.00891196355224,0.244405314326,0.0522546619177,0.0433426983654,-3.32836151123,-0.33008313179,-2.13967895508,-0.0227727685124,-2.06827545166,-0.044351618737,-3.3390083313,-0.0910644009709,10.08340358737,93.95778656002,46.63359451294,36.6664505005,819
1.64951649330424E+018,92,1.64951649330424E+018,r1000913c5/base_footprint,0,1.64951649330424E+018,v/m1vw10zy74w/map,-4.69059172296,-0.741494117189,0,0,0,0.00220568867581,0.999997567466,0,66.3715133667,12.4705886841,46.586151123,95.6010437012,48.6668815613,48.6668815613,66.3715133667,66.3715133667,35.0788192749,0.698366165161,0,0.00733482791111,0.257143676281,0.0345263518393,0.0271915234625,-2.78192901611,-0.287132501602,-1.5622253418,-0.0166125576943,-4.38842010498,-0.0991095900536,-1.44715881348,-0.0430296584964,9.68865966799,94.0388183594,44.27846145632,33.63166046142,1211
1.64951649340434E+018,93,1.64951649340434E+018,r1000913c5/base_footprint,0,1.64951649340434E+018,v/m1vw10zy74w/map,-4.48713272554,-0.740819970664,0,0,0,0.00266224320918,0.999996456224,0,65.9634399414,5.51181125641,46.9512214661,95.6505126953,48.5017700195,48.5017700195,65.9634399414,65.9634399414,40.8190765381,0.957806110382,0,0.00614367844537,0.272175073624,0.0136310514063,0.0074873729609,4.05616092682,0.423931092024,-1.64418029785,-0.0174901019782,-4.71257400513,-0.107619561255,-7.96781158447,-0.242541998625,9.56797218323,94.00633239745,43.78919601437,32.85126495363,1362
1.64951649390419E+018,94,1.64951649390419E+018,r1000913c5/base_footprint,0,1.64951649390419E+018,v/m1vw10zy74w/map,-3.13480387204,-0.826415539011,0,0,0,-0.0977741038326,0.995208633714,0,65.7249603271,5.15275859833,51.4131393433,94.5441818237,47.6513900757,47.6513900757,65.7249603271,65.7249603271,31.94480896,0.39599481225,0,0.0051615475677,0.356265604496,0.0140433358029,0.0192048829049,2.91036319733,0.360947430134,-0.673721313477,-0.00717713870108,-1.64199829102,-0.035688329488,3.31509399414,0.0940188094974,8.06312179566,93.870460510223,46.00939178468,35.25990295414,770
1.64951649400741E+018,95,1.64951649400741E+018,r1000913c5/base_footprint,0,1.64951649400742E+018,v/m1vw10zy74w/map,-2.79283097595,-0.904346938762,0,0,0,-0.124306043331,0.992243925449,0,65.3067626953,4.41176462173,48.0584716797,94.7031555176,47.209690094,47.209690094,65.3067626953,65.3067626953,35.2743644714,0.526088058949,0,0.00315403938293,0.370541870594,0.0184271410108,0.0215811803937,5.00701284409,0.5315990448,-0.934471130371,-0.00996570568532,-1.04105758667,-0.0225490238518,-1.21199798584,-0.0355817303061,9.41877746582,93.768684387229,46.16863250733,34.06236648556,770
1.64951649410432E+018,96,1.64951649410432E+018,r1000913c5/base_footprint,0,1.64951649410432E+018,v/m1vw10zy74w/map,-2.61174682111,-0.952435866318,0,0,0,-0.134331996522,0.990936382777,0,64.8669281006,10.0908660889,48.0825042725,94.4495849609,46.9618911743,46.9618911743,64.8669281006,64.8669281006,39.6022148132,0.874369800091,0,0.00236668647267,0.384446680546,0.0236443821341,0.0260110683739,-0.0886497497559,-0.00886301044375,-0.672691345215,-0.00717331655324,-0.678695678711,-0.0146639766172,-6.43436050415,-0.193993866444,10.0022163391441,93.776893615685,46.283195495589,33.16785430905,735
1.64951649420434E+018,97,1.64951649420434E+018,r1000913c5/base_footprint,0,1.64951649420434E+018,v/m1vw10zy74w/map,-2.25470024235,-1.0588360578,0,0,0,-0.150224183927,0.988651958256,0,65.0330047607,0.526064097881,48.0133132935,94.3899383545,46.8746452332,46.8746452332,65.0330047607,65.0330047607,35.4559173584,1.61836671829,0,0.00382966012694,0.401953488588,0.0316799171269,0.0355095788836,9.87776947021,0.949435591698,-0.574691772461,-0.00612578215078,-0.376564025879,-0.00809848494828,-2.64854431152,-0.0807301551104,10.403833568091,93.815246582039,46.498081207321,32.80737304688,726
1.64951649430419E+018,98,1.64951649430419E+018,r1000913c5/base_footprint,0,1.64951649430419E+018,v/m1vw10zy74w/map,-1.88433997068,-1.17020163185,0,0,0,-0.157612287613,0.987501071794,0,65.6251068115,0,47.9586372375,94.247543335,46.9276580811,46.9276580811,65.6251068115,65.6251068115,24.8579616547,1.1610096693,0,0.00327213131823,0.419468969107,0.040806978941,0.0440791100264,10.3821840286,1,-0.719360351562,-0.00769137544557,-0.240238189697,-0.00514567270875,8.39712715149,0.252506524324,10.3821840286,93.528182983438,46.687419891403,33.25508880619,724
1.64951649440419E+018,99,1.64951649440419E+018,r1000913c5/base_footprint,0,1.64951649440421E+018,v/m1vw10zy74w/map,-1.70093370464,-1.22982737472,0,0,0,-0.159162510763,0.987252396891,0,65.1542510986,7.02087306976,47.723400116,93.8281936646,47.3534393311,47.3534393311,65.1542510986,65.1542510986,36.4221801758,1.43754196167,0,0.00365239731036,0.43381601572,0.0317880138755,0.0354404114187,3.32719230652,0.321527957916,-0.356048583984,-0.00380914099514,-0.525917053223,-0.0112309390679,-2.9822769165,-0.0891831815243,10.34806537628,93.472145080616,46.827522277877,33.4399032593,735
1.64951649450411E+018,100,1.64951649450411E+018,r1000913c5/base_footprint,0,1.64951649450411E+018,v/m1vw10zy74w/map,-1.30596792952,-1.35904242923,0,0,0,-0.160503063549,0.987035342119,0,65.3183670044,11.764705658,47.53358078,93.9915466309,47.6755943298,47.6755943298,65.3183670044,65.3183670044,37.5353736877,1.63700532913,0,0.00189816008788,0.448200136423,0.00719362311065,0.00909178331494,-1.12962245941,-0.106216609478,-0.438659667969,-0.00468889484182,-0.485298156738,-0.01028385479,-3.53651809692,-0.104018740356,10.63508319859,93.552886962931,47.190296173062,33.99885559078,692
1.64951649460416E+018,101,1.64951649460416E+018,r1000913c5/base_footprint,0,1.64951649460416E+018,v/m1vw10zy74w/map,-0.939313241373,-1.47986004811,0,0,0,-0.169158701593,0.985588825868,0,65.8087615967,8.82352924347,47.3251686096,93.0836257935,47.8580360413,47.8580360413,65.8087615967,65.8087615967,27.4100704193,1.52978181839,0,0.00281220395118,0.462997764349,0.0357636585832,0.0329514555633,1.73109340668,0.164012819529,0.606048583984,0.00646868068725,-0.369716644287,-0.00778542272747,5.53409004211,0.167983949184,10.55462265015,93.689674377484,47.488319397013,32.94416046141,697
