%time,field.header.seq,field.header.stamp,field.header.frame_id,field.pose.header.seq,field.pose.header.stamp,field.pose.header.frame_id,field.pose.pose.position.x,field.pose.pose.position.y,field.pose.pose.position.z,field.pose.pose.orientation.x,field.pose.pose.orientation.y,field.pose.pose.orientation.z,field.pose.pose.orientation.w,field.label,field.main_output,field.scan_score,field.pose_score,field.cov_score,field.lhood_map_score,field.lhood_robot_score,field.lhood_map_score_all,field.lhood_robot_score_all,field.point_angle_diff,field.average_orientation,field.map_average_orientation,field.sensor_div,field.odom_div_x,field.odom_div_w,field.imu_div_w,field.kdtree_div,field.kdtree_div_p,field.cov_div,field.cov_div_p,field.likelihood_div,field.likelihood_div_p,field.normal_diff_div,field.normal_diff_div_p,field.kdtree_average,field.cov_average,field.likelihood_average,field.normal_diff_average,field.map_update_count
1.64951350971744E+018,0,1.64951350971744E+018,r1000913c5/base_footprint,0,1.64951350971744E+018,v/m1vw10zy74w/map,-8.70017372865,-0.767892716628,0,0,0,-0.769531681348,0.638608637118,0,65.73097229,28.1484413147,100,94.6870803833,48.2483215332,48.2483215332,65.73097229,65.73097229,38.7979049683,0.468333929777,0,0.00311463349499,0.190703436732,0.08469183743,0.0878064706922,-9.93687820435,-0.545635640621,-0.132942199707,-0.0014059903333,-1.70336532593,-0.0365961305797,-4.20352554321,-0.121508918703,18.21156311035,94.554138183593,46.54495620727,34.59437942509,1176
1.64951351091765E+018,1,1.64951351091765E+018,r1000913c5/base_footprint,0,1.64951351091765E+018,v/m1vw10zy74w/map,-8.69315234105,-0.767382943168,0,0,0,-0.73111060781,0.682258953146,0,65.6282653809,18.419921875,38.7589111328,94.4702301025,47.8015937805,47.8015937805,65.6282653809,65.6282653809,35.0412559509,0.0871012210846,0,0.00540028372779,0.0461385883391,0.0357449799776,0.0303446948528,-0.208358764648,-0.0114410147071,0.0839080810547,0.000887407804839,-1.25663757324,-0.0269983615726,-0.446876525879,-0.0129176052287,18.211563110352,94.5541381835547,46.54495620726,34.594379425021,1176
1.649513511018E+018,2,1.649513511018E+018,r1000913c5/base_footprint,0,1.649513511018E+018,v/m1vw10zy74w/map,-8.69315234105,-0.767382943168,0,0,0,-0.73111060781,0.682258953146,0,65.0972442627,16.7024478912,40.1978874207,94.4702301025,47.2345733643,47.2345733643,65.0972442627,65.0972442627,38.4757728577,0.144307732582,0,0.00767040671781,0.0996536538005,0.000541485729627,0.00712892087176,1.50911521912,0.0828657746315,0.0839080810547,0.000887407804839,-0.689617156982,-0.0148161519319,-3.88139343262,-0.112197227776,18.21156311032,94.5541381835547,46.544956207318,34.59437942508,1176
1.64951351111712E+018,3,1.64951351111712E+018,r1000913c5/base_footprint,0,1.64951351111712E+018,v/m1vw10zy74w/map,-8.69315234105,-0.767382943168,0,0,0,-0.73111060781,0.682258953146,0,64.725112915,17.2113285065,40.1978874207,94.4702301025,46.725189209,46.725189209,64.725112915,64.725112915,39.6728134155,0.0250595249236,0,0.00558426883072,0.127760335803,0.0108129149303,0.016397183761,1.00023460388,0.0549230501056,0.0839080810547,0.000887407804839,-0.180233001709,-0.00387223483995,-5.07843399048,-0.146799400449,18.21156311038,94.5541381835547,46.544956207291,34.59437942502,1176
1.64951351121735E+018,4,1.64951351121735E+018,r1000913c5/base_footprint,0,1.64951351121735E+018,v/m1vw10zy74w/map,-8.69315234105,-0.767382943168,0,0,0,-0.73111060781,0.682258953146,0,65.1933746338,19.5937366486,40.1978874207,94.4702301025,46.5030288696,46.5030288696,65.1933746338,65.1933746338,28.8448028564,0.182815849781,0,0.0052753505297,0.133111730218,0.00724941538647,0.00197406462394,-1.38217353821,-0.075895383954,0.0839080810547,0.000887407804839,0.0419273376465,0.00090079230722,5.7495765686,0.166199728847,18.21156311039,94.5541381835547,46.5449562072465,34.594379425,1176
1.64951351131712E+018,5,1.64951351131712E+018,r1000913c5/base_footprint,0,1.64951351131712E+018,v/m1vw10zy74w/map,-8.69406964126,-0.924594134198,0,0,0,-0.694287073682,0.719698172374,0,64.8666000366,20.96991539,40.1978874207,94.391960144,46.3237190247,46.3237190247,64.8666000366,64.8666000366,32.5084533691,0.173424318433,0,0.00590894976631,0.133926823735,0.0319228544831,0.0260139051825,-2.96862030029,-0.164911478758,0.197074890137,0.0020834854804,-0.0709457397461,-0.00153387000319,2.19410324097,0.0632259845734,18.00129508971,94.589035034137,46.2527732849539,34.70255661007,1167
1.64951351141763E+018,6,1.64951351141763E+018,r1000913c5/base_footprint,0,1.64951351141763E+018,v/m1vw10zy74w/map,-8.69406964126,-0.924594134198,0,0,0,-0.694287073682,0.719698172374,0,64.4697723389,18.0035648346,40.1978874207,94.391960144,46.1511955261,46.1511955261,64.4697723389,64.4697723389,37.7880554199,0.0506258718669,0,0.00704091181979,0.13420137763,0.0417371913791,0.034696277231,-0.00226974487305,-0.000126087863464,0.197074890137,0.0020834854804,0.101577758789,0.00219614407979,-3.08549880981,-0.0889127254486,18.0012950897269,94.589035034137,46.252773284889,34.70255661009,1167
1.64951351151798E+018,7,1.64951351151798E+018,r1000913c5/base_footprint,0,1.64951351151798E+018,v/m1vw10zy74w/map,-8.68194159901,-1.07265801353,0,0,0,-0.688763932435,0.724985686325,0,64.4718093872,18.1585674286,41.9662322998,94.2115325928,45.7092628479,45.7092628479,64.4718093872,64.4718093872,32.3289413452,0.233292385936,0,0.00794454943389,0.135049372911,0.0414924249053,0.0335478782654,-0.208148956299,-0.011595771648,0.468399047852,0.00494718411937,0.103122711182,0.002250978956,2.46799468994,0.0709256306291,17.950418472301,94.679931640652,45.812385559082,34.79693603514,1025
1.64951351161831E+018,8,1.64951351161831E+018,r1000913c5/base_footprint,0,1.64951351161831E+018,v/m1vw10zy74w/map,-8.6805918479,-1.07807239276,0,0,0,-0.689069657314,0.724695113388,0,64.6976318359,18.419921875,43.5279388428,94.8242263794,45.284324646,45.284324646,64.6976318359,64.6976318359,25.8805046082,0.249199047685,0,0.00845475308597,0.17023190856,0.0439258217812,0.0354710705578,-0.46950340271,-0.0261555686593,-0.14429473877,-0.00152402662206,0.528060913086,0.0115265967324,8.916431427,0.256241858006,17.95041847229,94.67993164063,45.812385559086,34.7969360352,1025
1.64951351201708E+018,9,1.64951351201708E+018,r1000913c5/base_footprint,0,1.64951351201708E+018,v/m1vw10zy74w/map,-8.6805918479,-1.07807239276,0,0,0,-0.689069657314,0.724695113388,0,64.3857498169,17.5611858368,43.5279388428,94.8242263794,45.0288848877,45.0288848877,64.3857498169,64.3857498169,28.7357177734,0.150786504149,0,0.0102636283264,0.186595320702,0.0398871935904,0.0296235661954,0.389232635498,0.0216837637126,-0.14429473877,-0.00152402662206,0.783500671387,0.0171023774892,6.06121826172,0.174188271165,17.950418472298,94.67993164063,45.812385559087,34.79693603512,1025
1.64951351211742E+018,10,1.64951351211742E+018,r1000913c5/base_footprint,0,1.64951351211742E+018,v/m1vw10zy74w/map,-8.6805918479,-1.07807239276,0,0,0,-0.689069657314,0.724695113388,0,64.1953048706,18.1585674286,43.5279388428,94.8242263794,44.6542549133,44.6542549133,64.1953048706,64.1953048706,28.1177062988,0.169323086739,0,0.00968254264444,0.200156316161,0.0420857295394,0.0324031896889,-0.208148956299,-0.011595771648,-0.14429473877,-0.00152402662206,1.15813064575,0.0252798590809,6.67922973633,0.191948786378,17.950418472301,94.67993164063,45.81238555905,34.79693603513,1025
1.64951351221764E+018,11,1.64951351221764E+018,r1000913c5/base_footprint,0,1.64951351221764E+018,v/m1vw10zy74w/map,-8.6805918479,-1.07807239276,0,0,0,-0.689069657314,0.724695113388,0,64.2575454712,17.6470584869,44.0062217712,94.8242263794,44.3774032593,44.3774032593,64.2575454712,64.2575454712,24.0073204041,0.171984896064,0,0.0098463287577,0.201828971505,0.0421693623066,0.0323230363429,0.303359985352,0.0168998837471,-0.14429473877,-0.00152402662206,1.4349822998,0.0313230194151,10.7896156311,0.31007373333,17.950418472252,94.67993164063,45.8123855591,34.7969360352,1025
1.64951351231785E+018,12,1.64951351231785E+018,r1000913c5/base_footprint,0,1.64951351231785E+018,v/m1vw10zy74w/map,-8.66880727942,-1.22959708031,0,0,0,-0.697868026069,0.716226373565,0,64.1455078125,19.8998756409,44.0482368469,94.1079864502,44.1609382629,44.1609382629,64.1455078125,64.1455078125,21.1077308655,0.182489782572,0,0.0100512141362,0.202022641897,0.0395236350596,0.0294724218547,-3.10649681091,-0.184983432293,1.03466796875,0.0108749121428,-1.59155273438,-0.0373872593045,14.208240509,0.40231770277,16.79337882999,95.14265441895,42.56938552852,35.3159713745,391
1.6495135125206E+018,13,1.6495135125206E+018,r1000913c5/base_footprint,0,1.6495135125206E+018,v/m1vw10zy74w/map,-8.66705429827,-1.23212589163,0,0,0,-0.698996359777,0.71512522611,0,63.9327964783,19.8998756409,44.0482368469,94.5791473389,43.9029998779,43.9029998779,63.9327964783,63.9327964783,23.8470115662,0.205099776387,0,0.0102531351149,0.201337054372,0.036760661751,0.0265075247735,-3.10649681091,-0.184983432293,0.563507080078,0.00592275988311,-1.33361434937,-0.0313280150294,11.4689598083,0.324752777815,16.79337882999,95.142654418978,42.56938552853,35.3159713745,391
1.64951351262742E+018,14,1.64951351262742E+018,r1000913c5/base_footprint,0,1.64951351262742E+018,v/m1vw10zy74w/map,-8.66705429827,-1.23212589163,0,0,0,-0.698996359777,0.71512522611,0,63.8869285583,18.3006534576,44.0482368469,94.5791473389,43.7286720276,43.7286720276,63.8869285583,63.8869285583,22.7898311615,0.215796262026,0,0.0111387427896,0.197363123298,0.0163459703326,0.005207227543,-1.50727462769,-0.0897541046143,0.563507080078,0.00592275988311,-1.15928649902,-0.0272328685969,12.526140213,0.354687690735,16.79337882991,95.142654418978,42.56938552858,35.3159713745,391
1.64951351281732E+018,15,1.64951351281732E+018,r1000913c5/base_footprint,0,1.64951351281732E+018,v/m1vw10zy74w/map,-8.66705429827,-1.23212589163,0,0,0,-0.698996359777,0.71512522611,0,63.6837692261,16.4300193787,44.0482368469,94.5791473389,43.4247703552,43.4247703552,63.6837692261,63.6837692261,23.1645774841,0.109337642789,0,0.0107683790848,0.194372802973,0.00393902743235,0.00682935118675,0.363359451294,0.0216370671988,0.563507080078,0.00592275988311,-0.85538482666,-0.0200938973576,12.1513938904,0.344076454639,16.793378829994,95.142654418978,42.56938552854,35.3159713745,391
1.64951351291754E+018,16,1.64951351291754E+018,r1000913c5/base_footprint,0,1.64951351291754E+018,v/m1vw10zy74w/map,-8.66705429827,-1.23212589163,0,0,0,-0.698996359777,0.71512522611,0,63.5574607849,16.6666660309,44.0482368469,94.5791473389,43.2572937012,43.2572937012,63.5574607849,63.5574607849,23.6294288635,0.15264108777,0,0.0103909317404,0.191365242004,0.00492977397516,0.0153207061812,0.126712799072,0.00754540227354,0.563507080078,0.00592275988311,-0.687908172607,-0.0161596927792,11.686542511,0.330913811922,16.793378829972,95.142654418978,42.569385528593,35.3159713745,391
1.64951351301829E+018,17,1.64951351301829E+018,r1000913c5/base_footprint,0,1.64951351301829E+018,v/m1vw10zy74w/map,-8.66705429827,-1.23212589163,0,0,0,-0.698996359777,0.71512522611,0,63.6483039856,17.7293300629,43.5482673645,94.5791473389,43.1140823364,43.1140823364,63.6483039856,63.6483039856,20.4475650787,0.241906806827,0,0.0103017417714,0.18982796371,0.00818300526589,0.0184847470373,-0.93595123291,-0.0557333491743,0.563507080078,0.00592275988311,-0.544696807861,-0.0127955051139,14.8684062958,0.421010822058,16.79337882999,95.142654418978,42.569385528539,35.3159713745,391
1.64951351311792E+018,18,1.64951351311792E+018,r1000913c5/base_footprint,0,1.64951351311792E+018,v/m1vw10zy74w/map,-8.66084564813,-1.38049996398,0,0,0,-0.708721702222,0.705488163472,0,63.0702781677,17.7293300629,42.9980201721,94.5889587402,43.0474281311,43.0474281311,63.0702781677,63.0702781677,30.1674594879,0.214146435261,0,0.010271448642,0.186855599284,0.0126579320058,0.0229293797165,-1.9750328064,-0.12536470592,0.576545715332,0.00605834787712,-1.8182144165,-0.0441001467407,6.11142921448,0.16845689714,15.7542972565,95.165504455532,41.2292137146,36.27888870238,324
1.64951351321765E+018,19,1.64951351321765E+018,r1000913c5/base_footprint,0,1.64951351321765E+018,v/m1vw10zy74w/map,-8.69125361303,-1.41974941188,0,0,0,-0.70819290074,0.706018990779,0,62.9748039246,20.7161121368,42.9980201721,94.7023849487,42.9839897156,42.9839897156,62.9748039246,62.9748039246,31.6092300415,0.245322003961,0,0.0107247168198,0.181004539132,0.0185440313071,0.0292687490582,-5.02077579498,-0.31988966465,0.48291015625,0.00507336948067,-1.75831985474,-0.042651090771,4.63028335571,0.127768918872,15.69533634182,95.18529510495,41.22566986086,36.23951339721,315
1.64951351581743E+018,20,1.64951351581743E+018,r1000913c5/base_footprint,0,1.64951351581744E+018,v/m1vw10zy74w/map,-8.67356871288,-2.20917836639,0,0,0,-0.706475814464,0.707737185386,0,62.6664123535,19.0654983521,42.9980201721,93.4695205688,42.8955192566,42.8955192566,62.6664123535,62.6664123535,31.7664890289,0.386000365019,0,0.000241327783442,0.0211819000542,0.00422388222069,0.00446521025151,-6.96091175079,-0.575064003468,1.94445037842,0.020379094407,-2.44727325439,-0.0605038180947,-3.06243133545,-0.106689840555,12.10458660131,95.41397094722,40.44824600221,28.70405769345,206
1.64951351721752E+018,21,1.64951351721752E+018,r1000913c5/base_footprint,0,1.64951351721752E+018,v/m1vw10zy74w/map,-8.67909851135,-2.46281481288,0,0,0,-0.71008691364,0.704114035563,0,63.3168792725,18.4060726166,42.0106811523,94.3729171753,42.9043540955,42.9043540955,63.3168792725,63.3168792725,23.4056968689,1.39031195641,0,0.00305826286785,0.0986039713025,0.0487980805337,0.0518563427031,-7.48135375977,-0.684809744358,1.01473236084,0.0106379846111,-2.58829116821,-0.0641999989748,2.88778114319,0.109828799963,10.92471885683,95.38764953614,40.31606292729,26.29347801209,146
1.64951351731788E+018,22,1.64951351731788E+018,r1000913c5/base_footprint,0,1.64951351731788E+018,v/m1vw10zy74w/map,-8.67909851135,-2.46281481288,0,0,0,-0.71008691364,0.704114035563,0,62.0806503296,8.88987159729,41.2170257568,94.3729171753,42.6071548462,42.6071548462,62.0806503296,62.0806503296,42.4480400085,1.55856180191,0,0.00292228837498,0.141999810934,0.0490669868886,0.0519892759621,2.03484725952,0.186260834336,1.01473236084,0.0106379846111,-2.29109191895,-0.056828264147,-16.1545619965,-0.614394247532,10.92471885681,95.38764953614,40.31606292725,26.293478012,146
1.64951351741697E+018,23,1.64951351741697E+018,r1000913c5/base_footprint,0,1.64951351741697E+018,v/m1vw10zy74w/map,-8.67909851135,-2.46281481288,0,0,0,-0.71008691364,0.704114035563,0,62.1459579468,7.49887752533,41.2170257568,94.3729171753,42.3853683472,42.3853683472,62.1459579468,62.1459579468,38.8772125244,1.33042490482,0,0.00330502120778,0.179046362638,0.0493389852345,0.0526440069079,3.42584133148,0.313586235046,1.01473236084,0.0106379846111,-2.06930541992,-0.051327072084,-12.5837345123,-0.478587687016,10.92471885681,95.38764953614,40.31606292728,26.2934780121,146
1.64951351751716E+018,24,1.64951351751716E+018,r1000913c5/base_footprint,0,1.64951351751716E+018,v/m1vw10zy74w/map,-8.67909851135,-2.46281481288,0,0,0,-0.71008691364,0.704114035563,0,62.4240913391,8.19964313507,41.2170257568,94.3729171753,42.2854690552,42.2854690552,62.4240913391,62.4240913391,32.7919120789,1.39208853245,0,0.00407890696079,0.19240668416,0.0671145543456,0.0711934641004,2.72507572174,0.24944126606,1.01473236084,0.0106379846111,-1.96940612793,-0.0488491691649,-6.49843406677,-0.247150033712,10.92471885681,95.38764953614,40.31606292727,26.29347801213,146
1.64951351761702E+018,25,1.64951351761702E+018,r1000913c5/base_footprint,0,1.64951351761702E+018,v/m1vw10zy74w/map,-8.67909851135,-2.46281481288,0,0,0,-0.71008691364,0.704114035563,0,62.5013465881,12.4087591171,41.2170257568,94.3729171753,42.2430534363,42.2430534363,62.5013465881,62.5013465881,30.9432067871,1.57200860977,0,0.00357098109089,0.190980270505,0.0720474720001,0.0756184533238,-1.48404026031,-0.135842427611,1.01473236084,0.0106379846111,-1.92699050903,-0.0477970913053,-4.64972877502,-0.176839619875,10.92471885679,95.38764953614,40.31606292727,26.29347801208,146
1.64951351771732E+018,26,1.64951351771732E+018,r1000913c5/base_footprint,0,1.64951351771732E+018,v/m1vw10zy74w/map,-8.68606844931,-2.30687936545,0,0,0,-0.719321500706,0.694677319784,0,62.712890625,8.97380828857,41.2170257568,94.7991867065,42.1399154663,42.1399154663,62.712890625,62.712890625,27.5561294556,1.58974289894,0,0.00388634973206,0.177621513605,0.078957490623,0.0828438401222,2.85352993011,0.24126560986,0.601844787598,0.00630857748911,-1.7100982666,-0.0422979481518,0.570735931396,0.020291486755,11.82733821868,95.401031494098,40.4298171997,28.126865386996,194
1.64951351781779E+018,27,1.64951351781779E+018,r1000913c5/base_footprint,0,1.64951351781779E+018,v/m1vw10zy74w/map,-8.68606844931,-2.30687936545,0,0,0,-0.719321500706,0.694677319784,0,62.7047805786,9.43715572357,41.2170257568,94.7991867065,41.977722168,41.977722168,62.7047805786,62.7047805786,25.9504184723,1.34322488308,0,0.00350415054709,0.169111192226,0.0758359804749,0.0793401300907,2.39018249512,0.202089637518,0.601844787598,0.00630857748911,-1.54790496826,-0.0382862240076,2.17644691467,0.0773796439171,11.82733821869,95.401031494098,40.42981719974,28.12686538697,194
1.6495135179177E+018,28,1.6495135179177E+018,r1000913c5/base_footprint,0,1.64951351791771E+018,v/m1vw10zy74w/map,-8.68629073446,-2.16069347591,0,0,0,-0.724503050841,0.689271593294,0,62.5630607605,3.36134457588,40.8103294373,94.3976364136,41.9392356873,41.9392356873,62.5630607605,62.5630607605,26.6401576996,1.37499213219,0,0.00208707409911,0.156136080623,0.070718370378,0.0728054493666,8.94630432129,0.726889789104,0.990715026855,0.0103861214593,-1.47200393677,-0.0363752059639,2.60279464722,0.0890058800578,12.30764889717,95.388351440455,40.46723175053,29.24295234682,221
1.64951351801704E+018,29,1.64951351801704E+018,r1000913c5/base_footprint,0,1.64951351801704E+018,v/m1vw10zy74w/map,-8.68166923579,-2.03536626446,0,0,0,-0.723539568115,0.690282908214,0,62.6954803467,9.43715572357,40.7142982483,94.2376098633,41.9237289429,41.9237289429,62.6954803467,62.6954803467,23.5130310059,1.56823444366,0,0.00171415228397,0.125294715166,0.052926376462,0.0546405278146,3.32320213318,0.260431736708,1.10587310791,0.0115988329053,-1.29793548584,-0.0319485589862,7.33078193665,0.237674310803,12.76035785675,95.34348297121,40.62579345706,30.84381294255,278
1.64951351821724E+018,30,1.64951351821724E+018,r1000913c5/base_footprint,0,1.64951351821724E+018,v/m1vw10zy74w/map,-8.6781571187,-2.03090004584,0,0,0,-0.721268044588,0.692656053071,0,63.1260299683,9.77443599701,41.1346473694,94.5385131836,42.0681991577,42.0681991577,63.1260299683,63.1260299683,18.4066486359,1.39475297928,0,0.00157687906176,0.12082310766,0.0505352653563,0.0521121434867,2.98592185974,0.233999848366,0.804969787598,0.00844284053892,-1.44240570068,-0.0355046764016,12.4371643066,0.403230428696,12.76035785675,95.343482971198,40.62579345702,30.8438129425,278
1.64951351831702E+018,31,1.64951351831702E+018,r1000913c5/base_footprint,0,1.64951351831702E+018,v/m1vw10zy74w/map,-8.6781571187,-2.03090004584,0,0,0,-0.721268044588,0.692656053071,0,63.0424461365,9.56979846954,41.1346473694,94.5385131836,42.2785415649,42.2785415649,63.0424461365,63.0424461365,22.1828575134,1.38340938091,0,0.00118936097715,0.11368637532,0.0478634685278,0.0490528270602,3.19055938721,0.25003683567,0.804969787598,0.00844284053892,-1.65274810791,-0.0406822375953,8.66095542908,0.280800402164,12.76035785675,95.343482971198,40.62579345699,30.84381294248,278
1.64951351841926E+018,32,1.64951351841926E+018,r1000913c5/base_footprint,0,1.64951351841926E+018,v/m1vw10zy74w/map,-8.6781571187,-2.03090004584,0,0,0,-0.721268044588,0.692656053071,0,63.5643424988,7.30837774277,41.1346473694,94.5385131836,42.4264450073,42.4264450073,63.5643424988,63.5643424988,14.3860521317,1.32519686222,0,0.00100737251341,0.108613498509,0.0451059788465,0.0461133494973,5.45198011398,0.42725917697,0.804969787598,0.00844284053892,-1.80065155029,-0.0443228632212,16.4577598572,0.533583819866,12.76035785675,95.343482971198,40.62579345701,30.8438119889,278
1.64951351861782E+018,33,1.64951351861782E+018,r1000913c5/base_footprint,0,1.64951351861782E+018,v/m1vw10zy74w/map,-8.6781571187,-2.03090004584,0,0,0,-0.721268044588,0.692656053071,0,63.2313919067,9.09090900421,41.1346473694,94.5385131836,42.6588020325,42.6588020325,63.2313919067,63.2313919067,22.8886756897,1.18834257126,0,0.00101795885712,0.106005646288,0.0439942292869,0.0450121872127,3.66944885254,0.287566304207,0.804969787598,0.00844284053892,-2.03300857544,-0.050042308867,7.95513725281,0.257916778326,12.76035785675,95.343482971198,40.62579345706,30.84381294251,278
1.64951351871784E+018,34,1.64951351871784E+018,r1000913c5/base_footprint,0,1.64951351871784E+018,v/m1vw10zy74w/map,-8.6781571187,-2.03090004584,0,0,0,-0.721268044588,0.692656053071,0,63.4838256836,8.88987159729,41.1346473694,94.5385131836,42.8711166382,42.8711166382,63.4838256836,63.4838256836,20.6378154755,1.27238738537,0,0.000998738338239,0.101103626192,0.0415878482163,0.0425865873694,3.87048625946,0.303321123123,0.804969787598,0.00844284053892,-2.24532318115,-0.0552684143186,10.205997467,0.330892860889,12.76035785675,95.343482971198,40.62579345705,30.8438129425,278
1.64951351881724E+018,35,1.64951351881724E+018,r1000913c5/base_footprint,0,1.64951351881724E+018,v/m1vw10zy74w/map,-8.6781571187,-2.03090004584,0,0,0,-0.721268044588,0.692656053071,0,63.5218391418,8.69183540344,41.1346473694,94.5385131836,43.1213188171,43.1213188171,63.5218391418,63.5218391418,22.6557502747,1.47418820858,0,0.000899135426152,0.0961221605539,0.0390157774091,0.0399149134755,4.06852245331,0.318840771914,0.804969787598,0.00844284053892,-2.49552536011,-0.061427116394,8.18806266785,0.26546856761,12.76035785675,95.343482971198,40.62579345699,30.84381294255,278
1.64951351891701E+018,36,1.64951351891701E+018,r1000913c5/base_footprint,0,1.64951351891701E+018,v/m1vw10zy74w/map,-8.67670592795,-1.89108861485,0,0,0,-0.723233598877,0.690603476284,0,63.4342079163,11.9892234802,41.2770843506,94.6048278809,43.3771247864,43.3771247864,63.4342079163,63.4342079163,27.234582901,1.43188524246,0,0.000778106565122,0.0910196304321,0.0366095043719,0.0373876094818,1.51561164856,0.112227335572,0.668212890625,0.00701366178691,-2.66265106201,-0.0653981417418,4.66953849792,0.146361604333,13.50483512876,95.273040771525,40.71447372439,31.90412139892,302
1.64951351901732E+018,37,1.64951351901732E+018,r1000913c5/base_footprint,0,1.64951351901732E+018,v/m1vw10zy74w/map,-8.67670592795,-1.89108861485,0,0,0,-0.723233598877,0.690603476284,0,63.3925018311,18.2757072449,41.2770843506,94.6048278809,43.6928482056,43.6928482056,63.3925018311,63.3925018311,31.3951301575,1.11241018772,0,0.000603364198469,0.0806884020567,0.0321313403547,0.0327347069979,-4.77087211609,-0.353271394968,0.668212890625,0.00701366178691,-2.9783744812,-0.0731527209282,0.508991241455,0.0159537773579,13.50483512881,95.273040771525,40.7144737244,31.904121398955,302
1.64951351911692E+018,38,1.64951351911692E+018,r1000913c5/base_footprint,0,1.64951351911692E+018,v/m1vw10zy74w/map,-8.66801769352,-1.759032939,0,0,0,-0.723925013249,0.689878667008,0,63.0813903809,16.9550170898,41.2770843506,95.0590667725,43.8823852539,43.8823852539,63.0813903809,63.0813903809,40.6773452759,1.04978334904,0,0.000425244099461,0.0624347403646,0.0306181255728,0.0310433711857,-2.62007522583,-0.182775437832,0.193733215332,0.00203388463706,-3.04790496826,-0.0746404752135,-6.57738494873,-0.192885413766,14.33494186397,95.252799987832,40.83448028564,34.09996032717,311
1.649513519217E+018,39,1.649513519217E+018,r1000913c5/base_footprint,0,1.649513519217E+018,v/m1vw10zy74w/map,-8.66801769352,-1.759032939,0,0,0,-0.723925013249,0.689878667008,0,63.3160667419,19.5937366486,41.6004104614,95.0590667725,43.8941497803,43.8941497803,63.3160667419,63.3160667419,36.5802536011,0.633567929268,0,0.000421087373979,0.0586853995919,0.0306222829968,0.0310433711857,-5.25879478455,-0.366851478815,0.193733215332,0.00203388463706,-3.05966949463,-0.074928574264,-2.48029327393,-0.0727359578013,14.33494186405,95.252799987832,40.83448028567,34.09996032717,311
1.64951351931764E+018,40,1.64951351931764E+018,r1000913c5/base_footprint,0,1.64951351931765E+018,v/m1vw10zy74w/map,-8.6637820473,-1.6225906736,0,0,0,-0.724450857226,0.689326450577,0,63.0531425476,15.7279930115,41.6004104614,95.2486038208,43.7529602051,43.7529602051,63.0531425476,63.0531425476,40.4703903198,0.618098258972,0,0.00041222575237,0.0519553795457,0.0306311454624,0.0310433711857,-0.76069355011,-0.050823699683,-0.00659942626953,-6.92911344231E-05,-2.74962997437,-0.0670586973429,-5.48006057739,-0.156616434455,14.96729946139,95.2420043945305,41.00333023073,34.99032974241,316
1.64951351941759E+018,41,1.64951351941759E+018,r1000913c5/base_footprint,0,1.64951351941759E+018,v/m1vw10zy74w/map,-8.6637820473,-1.6225906736,0,0,0,-0.724450857226,0.689326450577,0,63.0373420715,12.973408699,41.9596977234,95.2486038208,43.4632797241,43.4632797241,63.0373420715,63.0373420715,37.6262283325,0.798817396164,0,0.000636926386505,0.0412257164717,0.0309165772051,0.0315535031259,1.99389076233,0.13321647048,-0.00659942626953,-6.92911344231E-05,-2.45994949341,-0.0599938966334,-2.63589859009,-0.0753322020173,14.96729946133,95.2420043945305,41.00333023069,34.99032974241,316
1.64951351951914E+018,42,1.64951351951914E+018,r1000913c5/base_footprint,0,1.64951351951914E+018,v/m1vw10zy74w/map,-8.6637820473,-1.6225906736,0,0,0,-0.724450857226,0.689326450577,0,62.9173927307,14.4385023117,41.9596977234,95.2486038208,43.1316375732,43.1316375732,62.9173927307,62.9173927307,36.2036018372,0.583566725254,0,0.00047529861331,0.0364704951644,0.0304581541568,0.0309334527701,0.528797149658,0.0353301651776,-0.00659942626953,-6.92911344231E-05,-2.12830734253,-0.0519057177007,-1.21327209473,-0.0346744954586,14.967299461358,95.2420043945305,41.00333023067,34.99032974247,316
1.64951351961726E+018,43,1.64951351961726E+018,r1000913c5/base_footprint,0,1.64951351961726E+018,v/m1vw10zy74w/map,-8.66028710383,-1.49777512803,0,0,0,-0.724122288167,0.689671597051,0,62.4947967529,18.6140213013,42.295715332,95.2994613647,42.9520378113,42.9520378113,62.4947967529,62.4947967529,42.0537147522,0.466441601515,0,0.000469286285806,0.0287769511342,0.0304641667753,0.0309334527701,-2.99861049652,-0.192028924823,-0.118186950684,-0.00124170375057,-1.80168151855,-0.043782889843,-5.81327438354,-0.160408496857,15.61541080478,95.181274414016,41.15035629275,36.24044036866,309
1.64951351971715E+018,44,1.64951351971715E+018,r1000913c5/base_footprint,0,1.64951351971715E+018,v/m1vw10zy74w/map,-8.65575599657,-1.3542748933,0,0,0,-0.722364737014,0.691512246254,0,62.4266891479,16.4300193787,42.6340713501,94.9925765991,42.778213501,42.778213501,62.4266891479,62.4266891479,40.2975387573,0.60756611824,0,0.000494155567139,0.0211503617465,0.0304392986,0.0309334527701,-0.343824386597,-0.0213738791645,0.16529083252,0.00173701695167,-1.41162872314,-0.0341248549521,-3.99415969849,-0.110021702945,16.086194992103,95.15786743162,41.36658477786,36.30337905881,316
1.64951351981713E+018,45,1.64951351981713E+018,r1000913c5/base_footprint,0,1.64951351981713E+018,v/m1vw10zy74w/map,-8.65416468671,-1.35920035263,0,0,0,-0.722769885607,0.691088773212,0,62.6225738525,17.7293300629,42.9293632507,95.0305404663,42.6038856506,42.6038856506,62.6225738525,62.6225738525,35.0255775452,0.475947409868,0,0.000503676186781,0.0148799484596,0.030429776758,0.0309334527701,-1.9750328064,-0.12536470592,0.134963989258,0.00141820288263,-1.37467193604,-0.0333421826363,1.25331115723,0.0345465689898,15.7542972565,95.165504455558,41.22921371456,36.27888870243,324
1.649513519917E+018,46,1.649513519917E+018,r1000913c5/base_footprint,0,1.649513519917E+018,v/m1vw10zy74w/map,-8.65416468671,-1.35920035263,0,0,0,-0.722769885607,0.691088773212,0,62.2884521484,19.0654983521,42.9293632507,95.0305404663,42.4498825073,42.4498825073,62.2884521484,62.2884521484,39.3765182495,0.445900350809,0,0.000493866507895,0.00741872284561,0.029492167756,0.0299860350788,-3.31120109558,-0.210177645087,0.134963989258,0.00141820288263,-1.22066879272,-0.0296068899333,-3.09762954712,-0.0853838026524,15.75429725652,95.165504455558,41.22921371458,36.27888870238,324
1.64951352001785E+018,47,1.64951352001785E+018,r1000913c5/base_footprint,0,1.64951352001785E+018,v/m1vw10zy74w/map,-8.65416468671,-1.35920035263,0,0,0,-0.722769885607,0.691088773212,0,62.4612159729,18.3006534576,43.0036621094,95.0305404663,42.3326721191,42.3326721191,62.4612159729,62.4612159729,35.0008964539,0.407620131969,0,0.000503693590872,0.00603690557182,0.0294823404402,0.0299860350788,-2.54635620117,-0.16162930429,0.134963989258,0.00141820288263,-1.10345840454,-0.0267639942467,1.27799224854,0.0352268852293,15.75429725643,95.165504455558,41.22921371456,36.27888870244,324
1.64951352011773E+018,48,1.64951352011773E+018,r1000913c5/base_footprint,0,1.64951352011773E+018,v/m1vw10zy74w/map,-8.64851305251,-1.24032144244,0,0,0,-0.722593055575,0.691273662188,0,62.1924095154,21.0201568604,44.1070747375,94.7113189697,42.2728309631,42.2728309631,62.1924095154,62.1924095154,38.0439186096,0.250926464796,0,0.000509415462147,0.00323683908209,0.0294766183943,0.0299860350788,-4.2267780304,-0.251693129539,0.431335449219,0.0045335656032,0.29655456543,0.00696638133377,-2.72794723511,-0.0772440060973,16.79337883,95.142654418919,42.56938552853,35.31597137449,391
1.64951352021803E+018,49,1.64951352021803E+018,r1000913c5/base_footprint,0,1.64951352021804E+018,v/m1vw10zy74w/map,-8.64851305251,-1.24032144244,0,0,0,-0.722593055575,0.691273662188,0,62.2914085388,20.1974487305,45.2661323547,94.7113189697,42.1847076416,42.1847076416,62.2914085388,62.2914085388,35.3102035522,0.191459029913,0,0.00050748756621,0.0580600127578,0.0289590302855,0.0294665172696,-3.40406990051,-0.202703103423,0.431335449219,0.0045335656032,0.384677886963,0.00903649162501,0.00576782226562,0.000163320510183,16.79337882999,95.142654418919,42.569385528563,35.3159713744656,391
1.64951352031862E+018,50,1.64951352031862E+018,r1000913c5/base_footprint,0,1.64951352031862E+018,v/m1vw10zy74w/map,-8.64851305251,-1.24032144244,0,0,0,-0.722593055575,0.691273662188,0,62.348285675,21.0084037781,45.2661323547,94.7113189697,42.138381958,42.138381958,62.348285675,62.348285675,33.7861213684,0.458537757397,0,0.000805704621598,0.0941868051887,0.0289266910404,0.0297323949635,-4.21502494812,-0.250993251801,0.431335449219,0.0045335656032,0.431003570557,0.0101247308776,1.5298500061,0.0433189272881,16.79337882998,95.142654418919,42.569385528557,35.3159713745,391
1.64951352041714E+018,51,1.64951352041714E+018,r1000913c5/base_footprint,0,1.64951352041714E+018,v/m1vw10zy74w/map,-8.64437555347,-1.10365417439,0,0,0,-0.72240460293,0.691470599278,0,62.5189208984,23.5723495483,46.2553901672,94.3637466431,42.1763687134,42.1763687134,62.5189208984,62.5189208984,29.8736915588,0.241228431463,0,0.000819210428745,0.113465949893,0.0305331647396,0.0313523747027,-5.62193107605,-0.31319218874,0.316184997559,0.00333951436915,3.6360168457,0.0793675482273,4.92324447632,0.141485005617,17.95041847225,94.679931640659,45.8123855591,34.79693603512,1025
1.64951352051707E+018,52,1.64951352051707E+018,r1000913c5/base_footprint,0,1.64951352051707E+018,v/m1vw10zy74w/map,-8.64437555347,-1.10365417439,0,0,0,-0.72240460293,0.691470599278,0,62.6435317993,22.68907547,46.2553901672,94.3637466431,42.21301651,42.21301651,62.6435317993,62.6435317993,28.0264987946,0.275762498379,0,0.000358055811375,0.144606530666,0.0145800644532,0.0142220091075,-4.73865699768,-0.263985872269,0.316184997559,0.00333951436915,3.59936904907,0.0785675942898,6.7704372406,0.194569930434,17.95041847232,94.679931640659,45.81238555907,34.7969360352,1025
1.64951352061745E+018,53,1.64951352061745E+018,r1000913c5/base_footprint,0,1.64951352061745E+018,v/m1vw10zy74w/map,-8.64437555347,-1.10365417439,0,0,0,-0.72240460293,0.691470599278,0,62.1851997375,18.7473545074,46.2553901672,94.3637466431,42.2355995178,42.2355995178,62.1851997375,62.1851997375,36.5203895569,0.176392510533,0,0.000306783942506,0.150049611926,0.00629174429923,0.00598496058956,-0.796936035156,-0.0443965159357,0.316184997559,0.00333951436915,3.57678604126,0.0780746489763,-1.72345352173,-0.0495288856328,17.950418472244,94.679931640659,45.81238555906,34.79693603517,1025
1.649513520817E+018,54,1.649513520817E+018,r1000913c5/base_footprint,0,1.649513520817E+018,v/m1vw10zy74w/map,-8.6396623585,-0.967844233442,0,0,0,-0.72174567665,0.692158347661,0,62.6639289856,16.4535369873,46.904209137,94.1483001709,42.2837791443,42.2837791443,62.6639289856,62.6639289856,27.6480026245,0.473886102438,0,7.47062949813E-05,0.152361959219,0.00294038117863,0.00286567490548,1.6423740387,0.0907594040036,0.468551635742,0.00495209498331,3.82384109497,0.0829329565167,7.15623092651,0.205613806844,18.095911026,94.616851806642,46.10762023927,34.80423355101,1142
1.64951352091779E+018,55,1.64951352091779E+018,r1000913c5/base_footprint,0,1.64951352091779E+018,v/m1vw10zy74w/map,-8.6396623585,-0.967844233442,0,0,0,-0.72174567665,0.692158347661,0,62.6372756958,21.5686283112,47.4430885315,94.1483001709,42.3713417053,42.3713417053,62.6372756958,62.6372756958,29.0734176636,0.270585805178,0,0.000118528376333,0.148413926363,0.00331565993838,0.00319713167846,-3.47271728516,-0.191906183958,0.468551635742,0.00495209498331,3.73627853394,0.0810338631272,5.73081588745,0.164658591151,18.09591102604,94.616851806642,46.10762023924,34.80423355105,1142
1.64951352101762E+018,56,1.64951352101762E+018,r1000913c5/base_footprint,0,1.64951352101763E+018,v/m1vw10zy74w/map,-8.631452303,-0.839853730416,0,0,0,-0.723792196094,0.690018011992,0,62.9947433472,23.5723495483,47.7585029602,93.9279632568,42.6867637634,42.6867637634,62.9947433472,62.9947433472,25.2523498535,0.241804018617,0,0.000200156253413,0.147440522909,0.00120532559231,0.00100516935345,-5.43021774292,-0.299315303564,0.641777038574,0.00678628310561,3.72501754761,0.0802601724863,9.60177993774,0.275484710932,18.14213180538,94.569740295374,46.41178131101,34.85412979124,1200
1.64951352111895E+018,57,1.64951352111895E+018,r1000913c5/base_footprint,0,1.64951352111895E+018,v/m1vw10zy74w/map,-8.631452303,-0.839853730416,0,0,0,-0.723792196094,0.690018011992,0,62.7715263367,21.5686283112,47.8310165405,93.9279632568,42.921710968,42.921710968,62.7715263367,62.7715263367,31.8077144623,0.226483687758,0,0.000235898580286,0.147766590118,0.000732988177333,0.000497089640703,-3.42649650574,-0.188869565725,0.641777038574,0.00678628310561,3.49007034302,0.075197942555,3.04641532898,0.0874047130346,18.14213180546,94.569740295374,46.41178131102,34.85412979128,1200
1.64951352121689E+018,58,1.64951352121689E+018,r1000913c5/base_footprint,0,1.64951352121689E+018,v/m1vw10zy74w/map,-8.62320392718,-0.705525806323,0,0,0,-0.722203507896,0.69168062947,0,62.9224662781,25.8312015533,47.8310165405,93.7292327881,43.3744659424,43.3744659424,62.9224662781,62.9224662781,33.2650756836,-0.0129444869235,0,0.000213512437767,0.147865429521,0.000710602034815,0.000497089640703,-7.70067596436,-0.4247353971,0.812110900879,0.00859000813216,3.32137680054,0.0711278915405,1.55331802368,0.0446119941771,18.13052558894,94.541343688979,46.69584274294,34.81839370728,1154
1.64951352131777E+018,59,1.64951352131777E+018,r1000913c5/base_footprint,0,1.64951352131777E+018,v/m1vw10zy74w/map,-8.62177643005,-0.702363267994,0,0,0,-0.722229131928,0.691653873693,0,63.4570999146,30.4422492981,47.8150215149,94.0256271362,43.7158508301,43.7158508301,63.4570999146,63.4570999146,28.3956165314,0.0823309347034,0,0.000208604949876,0.147868856788,0.000705694546923,0.000497089640703,-12.3117237091,-0.679060518742,0.515716552734,0.00545493140817,2.97999191284,0.0638170689344,6.4227771759,0.184465065598,18.130525589,94.541343688934,46.69584274294,34.8183937073,1154
1.6495135214174E+018,60,1.6495135214174E+018,r1000913c5/base_footprint,0,1.6495135214174E+018,v/m1vw10zy74w/map,-8.62177643005,-0.702363267994,0,0,0,-0.722229131928,0.691653873693,0,63.359539032,28.8849868774,47.8150215149,94.0256271362,43.9017295837,43.9017295837,63.359539032,63.359539032,32.1592330933,0.159516513348,0,0.000199345478904,0.147950306535,0.000696435105056,0.000497089640703,-10.7544612885,-0.593168735504,0.515716552734,0.00545493140817,2.79411315918,0.0598364435136,2.65916061401,0.0763722956181,18.1305255889,94.541343688934,46.69584274288,34.81839370731,1154
1.64951352151706E+018,61,1.64951352151706E+018,r1000913c5/base_footprint,0,1.64951352151706E+018,v/m1vw10zy74w/map,-8.62177643005,-0.702363267994,0,0,0,-0.722229131928,0.691653873693,0,63.421245575,26.4705886841,47.8150215149,94.0256271362,44.1858215332,44.1858215332,63.421245575,63.421245575,34.1167144775,-0.0719059631228,0,0.000193466723431,0.14795909822,0.000690556364134,0.000497089640703,-8.34006309509,-0.460001170635,0.515716552734,0.00545493140817,2.51002120972,0.0537525638938,0.701679229736,0.0201525446028,18.13052558901,94.541343688934,46.69584274292,34.818393707236,1154
1.64951352161711E+018,62,1.64951352161711E+018,r1000913c5/base_footprint,0,1.64951352161711E+018,v/m1vw10zy74w/map,-8.62177643005,-0.702363267994,0,0,0,-0.722229131928,0.691653873693,0,63.4699440002,32.1597251892,47.8150215149,94.0256271362,44.3767280579,44.3767280579,63.4699440002,63.4699440002,35.3019371033,0.0486240424216,0,0.000118362600915,0.148416608572,0.000900633982383,0.000782271381468,-14.0291996002,-0.773788928986,0.515716552734,0.00545493140817,2.31911468506,0.0496642626822,-0.483543395996,-0.0138875851408,18.130525589,94.541343688934,46.69584274296,34.818393707304,1154
1.64951352171735E+018,63,1.64951352171735E+018,r1000913c5/base_footprint,0,1.64951352171735E+018,v/m1vw10zy74w/map,-8.61700133938,-0.543365090463,0,0,0,-0.723824427242,0.68998420165,0,63.9273338318,27.8660373688,48.1700286865,94.0274429321,44.6419754028,44.6419754028,63.9273338318,63.9273338318,29.9401111603,0.124838031828,0,5.98136102781E-05,0.148765355349,0.00111714936793,0.00105733575765,-9.63309288025,-0.528334438801,0.495384216309,0.00524089485407,2.11480712891,0.0452299527824,4.69140815735,0.135466426611,18.23294448855,94.522827148409,46.75678253171,34.63151931765,1045
1.64951352181764E+018,64,1.64951352181764E+018,r1000913c5/base_footprint,0,1.64951352181764E+018,v/m1vw10zy74w/map,-8.61700133938,-0.543365090463,0,0,0,-0.723824427242,0.68998420165,0,64.1923751831,29.5835113525,48.1700286865,94.0274429321,44.76171875,44.76171875,64.1923751831,64.1923751831,26.4625377655,0.0393502637744,0,9.88346291706E-05,0.148691415787,0.00115617038682,0.00105733575765,-11.350566864,-0.622530639172,0.495384216309,0.00524089485407,1.99506378174,0.0426689721644,8.16898155212,0.235882848501,18.2329444885,94.522827148409,46.75678253174,34.63151931762,1045
1.64951352381695E+018,65,1.64951352381695E+018,r1000913c5/base_footprint,0,1.64951352381695E+018,v/m1vw10zy74w/map,-8.61341332368,-0.419099053097,0,0,0,-0.72279322858,0.691064359318,0,63.9262542725,31.660900116,48.1700286865,94.2201461792,45.0862808228,45.0862808228,63.9262542725,63.9262542725,35.4518089294,-0.154879286885,0,8.82801687112E-05,0.204783782363,0.0387218259275,0.038633543998,-13.4407939911,-0.737690210342,0.298118591309,0.00315408455208,1.65730285645,0.0354551933706,-0.906215667725,-0.0262324530631,18.2201061249,94.518264770509,46.74358367925,34.545593261675,944
1.64951352391703E+018,66,1.64951352391703E+018,r1000913c5/base_footprint,0,1.64951352391703E+018,v/m1vw10zy74w/map,-8.61341332368,-0.419099053097,0,0,0,-0.72279322858,0.691064359318,0,64.2534103394,21.8679847717,48.5265274048,94.2201461792,45.0417747498,45.0417747498,64.2534103394,64.2534103394,29.0822868347,0.182900965214,0,0.000986309605651,0.201506376266,0.0681653022766,0.0671789944172,-3.64787864685,-0.200211718678,0.298118591309,0.00315408455208,1.70180892944,0.0364073254168,5.463306427,0.158147707582,18.22010612485,94.518264770509,46.74358367924,34.5455932617,944
1.64951352401705E+018,67,1.64951352401705E+018,r1000913c5/base_footprint,0,1.64951352401705E+018,v/m1vw10zy74w/map,-8.61120840879,-0.485041234353,0,0,0,-0.690049751573,0.723761936243,0,63.8035507202,27.4657230377,48.5265274048,94.2031936646,45.1293296814,45.1293296814,63.8035507202,63.8035507202,38.0643615723,0.251625448465,0,0.00185826607049,0.198167309165,0.0937742590904,0.0919159948826,-9.19411087036,-0.503190994263,0.327774047852,0.00346737215295,1.62983322144,0.0348559096456,-3.46572494507,-0.100169405341,18.27161216734,94.530967712452,46.75916290284,34.59863662723,1007
1.64951352411715E+018,68,1.64951352411715E+018,r1000913c5/base_footprint,0,1.64951352411715E+018,v/m1vw10zy74w/map,-8.60970956616,-0.488312686375,0,0,0,-0.686631590462,0.727005542606,0,64.1268692017,17.7355155945,48.5265274048,94.2068862915,44.9622612,44.9622612,64.1268692017,64.1268692017,30.4535255432,0.303525924683,0,0.00213294266723,0.196691125631,0.105522446334,0.103389501572,0.536096572876,0.0293404087424,0.324081420898,0.00342830945738,1.79690170288,0.0384288690984,4.14511108398,0.119805619121,18.271612167376,94.530967712398,46.75916290288,34.59863662718,1007
1.64951352421777E+018,69,1.64951352421777E+018,r1000913c5/base_footprint,0,1.64951352421777E+018,v/m1vw10zy74w/map,-8.6015581913,-0.53962123829,0,0,0,-0.64056028101,0.767907889263,0,64.0181045532,14.5969495773,48.5265274048,94.0218429565,44.7667732239,44.7667732239,64.0181045532,64.0181045532,29.6339206696,0.291692078114,0,0.0039609814994,0.191701352596,0.125947147608,0.121986158192,3.63599491119,0.199418962002,0.500984191895,0.00530013954267,1.99000930786,0.0425608679652,4.99759864807,0.144307807088,18.23294448849,94.522827148395,46.75678253176,34.63151931767,1045
1.64951352431836E+018,70,1.64951352431836E+018,r1000913c5/base_footprint,0,1.64951352431836E+018,v/m1vw10zy74w/map,-8.58988173636,-0.583327664962,0,0,0,-0.586102413238,0.810236978418,0,64.0446014404,13.5472373962,48.7240982056,94.3518829346,44.4931259155,44.4931259155,64.0446014404,64.0446014404,27.3896579742,-0.0586317703128,0,0.00454868888482,0.187073558569,0.130672320724,0.12612362206,4.68240356445,0.256856590509,0.171928405762,0.00181888986845,2.25844955444,0.0483074523509,7.32866477966,0.211089253426,18.22964096065,94.523811340362,46.75157546994,34.71832275386,1095
1.64951352441688E+018,71,1.64951352441688E+018,r1000913c5/base_footprint,0,1.64951352441688E+018,v/m1vw10zy74w/map,-8.57732867768,-0.611128587548,0,0,0,-0.542390404984,0.840126567001,0,63.6651992798,16.360294342,48.6977767944,94.2604217529,44.416469574,44.416469574,63.6651992798,63.6651992798,33.0617790222,-0.10769674927,0,0.00588212767616,0.181010320783,0.141502127051,0.135619997978,1.7873210907,0.0984879285097,0.276435852051,0.00292410654947,2.33288574219,0.0499019883573,1.82194137573,0.0522289872169,18.1476154327,94.536857604951,46.74935531619,34.88372039793,1118
1.64951352451695E+018,72,1.64951352451695E+018,r1000913c5/base_footprint,0,1.64951352451695E+018,v/m1vw10zy74w/map,-8.57608525778,-0.612085113643,0,0,0,-0.540444593577,0.841379605929,0,63.3452911377,15.4411764145,48.3502464294,94.0887069702,44.3685722351,44.3685722351,63.3452911377,63.3452911377,37.6846656799,-0.0945444852114,0,0.00644207186997,0.178402736783,0.140922397375,0.134480327368,2.70643901825,0.14913469553,0.448150634766,0.0047404859215,2.38078308105,0.0509265437722,-2.80094528198,-0.0802937671542,18.14761543275,94.536857604966,46.74935531615,34.88372039792,1118
1.64951352461719E+018,73,1.64951352461719E+018,r1000913c5/base_footprint,0,1.64951352461719E+018,v/m1vw10zy74w/map,-8.55746701077,-0.64721201001,0,0,0,-0.486806504107,0.873509832548,0,63.2953071594,16.235294342,48.3502464294,94.4697570801,44.326915741,44.326915741,63.2953071594,63.2953071594,39.5062866211,-0.189226642251,0,0.00682951789349,0.175639107823,0.137189358473,0.130359843373,1.9123210907,0.105375885963,0.0671005249023,0.000709781656042,2.4224395752,0.0518176034093,-4.62256622314,-0.132513567805,18.1476154327,94.5368576050023,46.7493553162,34.88372039796,1118
1.64951352471757E+018,74,1.64951352471757E+018,r1000913c5/base_footprint,0,1.64951352471757E+018,v/m1vw10zy74w/map,-8.53471627409,-0.679591259647,0,0,0,-0.425588913027,0.904916613346,0,63.7819442749,10.5882349014,48.0429573059,94.2998123169,44.3918266296,44.3918266296,63.7819442749,63.7819442749,30.8360443115,0.0168844815344,0,0.00760835176334,0.171858862042,0.0983655974269,0.0907572433352,7.674700737,0.420233696699,0.250663757324,0.00265111052431,2.34183883667,0.0501103177667,4.1346321106,0.118231400847,18.2629356384,94.550476074224,46.73366546627,34.9706764221,1151
1.64951352481699E+018,75,1.64951352481699E+018,r1000913c5/base_footprint,0,1.64951352481699E+018,v/m1vw10zy74w/map,-8.50989778068,-0.701577676743,0,0,0,-0.358603633311,0.93348992184,0,63.4845809937,15.0326795578,47.5462722778,94.4281845093,44.5074043274,44.5074043274,63.4845809937,63.4845809937,37.89894104,0.0538291931152,0,0.00698476703838,0.168103545904,0.0588444471359,0.0518596805632,3.23025608063,0.176874965429,0.122291564941,0.00129339983687,2.22626113892,0.0476372018456,-2.92826461792,-0.0837348550558,18.26293563843,94.550476074241,46.73366546632,34.97067642208,1151
1.64951352491807E+018,76,1.64951352491807E+018,r1000913c5/base_footprint,0,1.64951352491807E+018,v/m1vw10zy74w/map,-8.47566224837,-0.723666623484,0,0,0,-0.295279855354,0.955410805372,0,63.1125907898,12.9603061676,47.0160598755,94.4442901611,44.3460960388,44.3460960388,63.1125907898,63.1125907898,42.9106025696,-0.244669064879,0,0.00623767077923,0.163012817502,0.0176687706262,0.0114311007783,5.21922111511,0.287093341351,0.0925064086914,0.000978522817604,2.32513427734,0.049819432199,-7.70976638794,-0.219022244215,18.17952728271,94.5367965697914,46.67123031614,35.20083618166,1190
1.64951352501724E+018,77,1.64951352501724E+018,r1000913c5/base_footprint,0,1.64951352501724E+018,v/m1vw10zy74w/map,-8.43273506386,-0.746108306092,0,0,0,-0.236809009086,0.971556222365,0,63.134311676,12.7789049149,46.5216598511,94.8214111328,44.2632102966,44.2632102966,63.134311676,63.134311676,42.9821243286,-0.121128626168,0,0.00608282163739,0.160605922341,0.00456892047077,0.0106517421082,5.37604808807,0.296120196581,-0.313369750977,-0.0033157998696,2.41632461548,0.0517641119659,-7.77446746826,-0.220817521214,18.15495300297,94.508041381823,46.67953491208,35.20765686034,1196
1.64951352511781E+018,78,1.64951352511781E+018,r1000913c5/base_footprint,0,1.64951352511781E+018,v/m1vw10zy74w/map,-8.37356326631,-0.771314784274,0,0,0,-0.171111836227,0.985251612281,0,63.495464325,8.27517414093,46.0878982544,95.1991882324,44.1182441711,44.1182441711,63.495464325,63.495464325,36.2757530212,-0.10588003695,0,0.00401403801516,0.10996016115,0.053303912282,0.0573179498315,9.90512371063,0.544827342033,-0.681144714355,-0.00720650469884,2.52885055542,0.0542123913765,-0.997352600098,-0.028270913288,18.18029785156,94.518043518045,46.64709472652,35.278400421102,1193
1.64951352521724E+018,79,1.64951352521724E+018,r1000913c5/base_footprint,0,1.64951352521724E+018,v/m1vw10zy74w/map,-8.2971162026,-0.79495771412,0,0,0,-0.123806807067,0.992306341068,0,63.3844032288,19.9209098816,45.67993927,95.1386489868,44.2223854065,44.2223854065,63.3844032288,63.3844032288,39.1816215515,-0.0662205591798,0,0.00425952486694,0.0840733349323,0.0627534911036,0.0670130178332,-1.96286582947,-0.109302870929,-0.625221252441,-0.00661515817046,2.50575256348,0.0536240637302,-3.70346832275,-0.104387290776,17.95804405213,94.513427734359,46.72813796998,35.47815322875,1182
1.64951352531708E+018,80,1.64951352531708E+018,r1000913c5/base_footprint,0,1.64951352531708E+018,v/m1vw10zy74w/map,-8.19492748744,-0.811547003847,0,0,0,-0.0628180412392,0.998024996528,0,63.9803619385,27.1212902069,45.4362411499,95.0887756348,45.0443954468,45.0443954468,63.9803619385,63.9803619385,37.1525878906,0.0451100952923,0,0.00297460169531,0.04134093225,0.103837907314,0.106812506914,-8.44696044922,-0.452330052853,-0.669860839844,-0.00709456205368,2.64165878296,0.0553968846798,-0.906349182129,-0.0250053312629,18.67432975768,94.418914794956,47.68605422976,36.246238708471,959
1.64951352541732E+018,81,1.64951352541732E+018,r1000913c5/base_footprint,0,1.64951352541732E+018,v/m1vw10zy74w/map,-8.05244549204,-0.818870941698,0,0,0,-0.00440359656975,0.999990304122,0,64.565864563,24.8640632629,45.281124115,94.7314300537,45.4491996765,45.4491996765,64.565864563,64.565864563,29.698923111,0.316271811724,0,0.00241462793201,0.0377663448453,0.124333404005,0.126748040318,-6.76523208618,-0.373793870211,-0.427001953125,-0.0045279096812,2.75871276855,0.0572253093123,7.61346244812,0.204046517611,18.09883117672,94.304428100575,48.20791244505,37.31238555912,828
1.64951352551689E+018,82,1.64951352551689E+018,r1000913c5/base_footprint,0,1.64951352551689E+018,v/m1vw10zy74w/map,-7.9110890775,-0.808009634268,0,0,0,0.0284659910751,0.999594761567,0,64.4793167114,20.9095401764,45.1245269775,94.3900527954,45.6563796997,45.6563796997,64.4793167114,64.4793167114,32.2654304504,0.171957433224,0,0.00133904546965,0.0322319753468,0.144288420677,0.145627468824,-3.9709777832,-0.234434172511,-0.168899536133,-0.00179258617572,2.54813766479,0.0528609715402,5.23155975342,0.139519453049,16.9385623932,94.221153259267,48.20451736449,37.49699020382,800
1.64951352561711E+018,83,1.64951352561711E+018,r1000913c5/base_footprint,0,1.64951352561711E+018,v/m1vw10zy74w/map,-7.90911010493,-0.811044990804,0,0,0,0.0283813198406,0.999597169206,0,64.3955383301,18.9971065521,45.1245269775,94.596244812,46.0792655945,46.0792655945,64.3955383301,64.3955383301,39.0828857422,0.111476652324,0,0.00083515024744,0.0283369813114,0.147510409355,0.148345559835,-1.96180725098,-0.115161299706,-0.360511779785,-0.00382563774474,2.17073059082,0.0449892394245,-1.53504180908,-0.0408822894096,17.03529930112,94.235733032215,48.24999618532,37.54784393312,784
1.64951352571753E+018,84,1.64951352571753E+018,r1000913c5/base_footprint,0,1.64951352571753E+018,v/m1vw10zy74w/map,-7.75054329919,-0.785505883381,0,0,0,0.0458291787703,0.998949291192,0,64.5548858643,16.5085391998,45.0606460571,94.3708496094,46.7366638184,46.7366638184,64.5548858643,64.5548858643,42.5031013489,0.365339785814,0,0.00026668823557,0.0231926124543,0.153366148472,0.153632834554,-0.318288803101,-0.0196592882276,-0.125389099121,-0.00133045238908,1.33767700195,0.0278251767159,-4.98870849609,-0.132981181145,16.190250396699,94.245460510279,48.07434082035,37.51439285281,805
1.64951352581814E+018,85,1.64951352581814E+018,r1000913c5/base_footprint,0,1.64951352581814E+018,v/m1vw10zy74w/map,-7.59082554713,-0.769197764923,0,0,0,0.0483033433573,0.99883271223,0,65.1500015259,18.117647171,45.1420211792,94.5340881348,47.4421958923,47.4421958923,65.1500015259,65.1500015259,39.9983673096,0.0748748481274,0,0.000483431475004,0.0168985798955,0.165703609586,0.165220171213,-2.30528354645,-0.145789936185,-0.0766677856445,-0.000811665027868,-0.682613372803,-0.0145983630791,-3.52425765991,-0.0966235399246,15.81236362455,94.4574203491555,46.759582519497,36.47410964969,1095
1.64951352601821E+018,86,1.64951352601821E+018,r1000913c5/base_footprint,0,1.64951352601821E+018,v/m1vw10zy74w/map,-7.59082554713,-0.769197764923,0,0,0,0.0483033433573,0.99883271223,0,66.0915908813,23.4815883636,45.4320526123,94.5340881348,48.1248054504,48.1248054504,66.0915908813,66.0915908813,30.4220104218,0.418370008469,0,0.000697808281984,0.0121743669733,0.167389333248,0.166691526771,-7.66922473907,-0.485014438629,-0.0766677856445,-0.000811665027868,-1.36522293091,-0.0291966442019,6.05209922791,0.165928632021,15.81236362453,94.4574203491555,46.75958251949,36.47410964971,1095
1.64951352611704E+018,87,1.64951352611704E+018,r1000913c5/base_footprint,0,1.64951352611704E+018,v/m1vw10zy74w/map,-7.41285460883,-0.756196129324,0,0,0,0.0400843096672,0.999196301093,0,66.7677307129,24.0389060974,45.9265785217,94.2894897461,48.7351608276,48.7351608276,66.7677307129,66.7677307129,23.9627094269,0.565025985241,0,0.000861769774929,0.00199654861353,0.168385490775,0.167523726821,-8.01234817505,-0.499941915274,0.254539489746,0.00269228522666,-2.22164535522,-0.0477634370327,12.1101703644,0.335713982582,16.02655792235,94.544029235846,46.51351547238,36.0728797913,1201
1.64951352621727E+018,88,1.64951352621727E+018,r1000913c5/base_footprint,0,1.64951352621727E+018,v/m1vw10zy74w/map,-7.26477027969,-0.747026497951,0,0,0,0.031002039295,0.999519321254,0,66.9600448608,24.7058830261,46.5136184692,93.9708938599,49.2832450867,49.2832450867,66.9600448608,66.9600448608,25.2734947205,0.721116423607,0,0.000710626190994,0.0190755371004,0.16849514842,0.167784526944,-8.77872276306,-0.551179409027,0.534049987793,0.00565102696419,-2.98360824585,-0.0644412860274,10.5909233093,0.295304477215,15.92716026304,94.504943847693,46.29963684085,35.8644180298,1235
1.64951352631721E+018,89,1.64951352631721E+018,r1000913c5/base_footprint,0,1.64951352631721E+018,v/m1vw10zy74w/map,-7.10531742301,-0.739848268261,0,0,0,0.0223341355825,0.999750562084,0,67.0488739014,30.9056949615,46.5136184692,93.4553222656,49.7684135437,49.7684135437,67.0488739014,67.0488739014,27.0583286285,0.551513075829,0,0.000591935124248,0.0304468777031,0.18016640842,0.179574474692,-14.7766838074,-0.916155576706,1.04246520996,0.0110316360369,-3.54001235962,-0.0765765681863,8.67787742615,0.242831528187,16.1290111541,94.49778747556,46.22840118408,35.73620605465,1241
1.64951352641697E+018,90,1.64951352641697E+018,r1000913c5/base_footprint,0,1.64951352641697E+018,v/m1vw10zy74w/map,-7.0869849872,-0.734918437465,0,0,0,0.0224804216162,0.999747283389,0,67.544921875,29.7912712097,46.8018951416,93.8145751953,50.1028594971,50.1028594971,67.544921875,67.544921875,23.0348167419,0.466037154198,0,0.00104150024708,0.0455911159515,0.201049268246,0.200007766485,-13.6622600555,-0.847061216831,0.683212280273,0.00722992885858,-3.87445831299,-0.0838112086058,12.7013893127,0.355420768261,16.1290111542,94.497787475573,46.22840118411,35.7362060546,1241
1.64951352651726E+018,91,1.64951352651726E+018,r1000913c5/base_footprint,0,1.64951352651726E+018,v/m1vw10zy74w/map,-6.93528944692,-0.735455590117,0,0,0,0.0170628873802,0.99985441834,0,67.447265625,25.7473487854,47.1403617859,93.7974777222,50.4073295593,50.4073295593,67.447265625,67.447265625,28.0192546844,0.497558861971,0,0.00166642910335,0.0574201159179,0.223062887788,0.221396461129,-9.26221084595,-0.561852216721,0.713012695312,0.00754427025095,-4.06729125977,-0.0877705663443,7.84795951843,0.218805938959,16.48513793945,94.510490417512,46.34003829953,35.86721420283,1257
1.64951352661758E+018,92,1.64951352661758E+018,r1000913c5/base_footprint,0,1.64951352661758E+018,v/m1vw10zy74w/map,-6.78009120647,-0.73068566467,0,0,0,0.0103310289272,0.999946633497,0,67.6029434204,26.7116680145,47.3084526062,94.0160751343,50.7157745361,50.7157745361,67.6029434204,67.6029434204,29.3352375031,0.453805744648,0,0.0026822029613,0.0726341754198,0.243530407548,0.240848198533,-10.0643901825,-0.604566693306,0.40209197998,0.00425862940028,-4.05899810791,-0.0869969651103,6.93739128113,0.191256925464,16.647277832,94.41816711428,46.65677642819,36.27262878423,1156
1.64951352671789E+018,93,1.64951352671789E+018,r1000913c5/base_footprint,0,1.64951352671789E+018,v/m1vw10zy74w/map,-6.61350069899,-0.728442648357,0,0,0,0.00389719794493,0.999992405895,0,67.4852828979,25.9962043762,47.2592735291,93.923614502,51.2361335754,51.2361335754,67.4852828979,67.4852828979,36.7401771545,0.366273164749,0,0.00273343571462,0.078576810658,0.253473103046,0.250739663839,-9.43705940247,-0.569900155067,0.306610107422,0.00325384037569,-3.66691970825,-0.0770859867334,0.544258117676,0.0145974615589,16.55914497373,94.230224609422,47.56921386715,37.284435272176,896
1.64951352681717E+018,94,1.64951352681717E+018,r1000913c5/base_footprint,0,1.64951352681717E+018,v/m1vw10zy74w/map,-6.44827517301,-0.722783003081,0,0,0,-0.000811313113624,0.999999670885,0,67.3917160034,22.5490188599,46.8433761597,94.0011825562,51.3666877747,51.3666877747,67.3917160034,67.3917160034,40.1136322021,0.370429694653,0,0.00426561618224,0.0934342443943,0.271826803684,0.267561167479,-6.6585931778,-0.419031769037,0.155700683594,0.00165363040287,-3.70793914795,-0.0778018534184,-2.60106658936,-0.0693385452032,15.8904256821,94.156883239794,47.65874862675,37.51256561274,843
1.64951352691719E+018,95,1.64951352691719E+018,r1000913c5/base_footprint,0,1.64951352691719E+018,v/m1vw10zy74w/map,-6.44827517301,-0.722783003081,0,0,0,-0.000811313113624,0.999999670885,0,67.5547866821,17.6470584869,46.2176742554,94.0011825562,51.4008522034,51.4008522034,67.5547866821,67.5547866821,37.5472793579,0.0852592289448,0,0.00497283088043,0.103915810585,0.280944615602,0.275971770287,-1.75663280487,-0.1105466187,0.155700683594,0.00165363040287,-3.74210357666,-0.0785187110305,-0.0347137451172,-0.000925389758777,15.89042568203,94.156883239794,47.65874862674,37.5125656127828,843
1.64951352701692E+018,96,1.64951352701692E+018,r1000913c5/base_footprint,0,1.64951352701692E+018,v/m1vw10zy74w/map,-6.13425175957,-0.729649008518,0,0,0,-0.00291760196137,0.99999574379,0,67.5553436279,16.3830814362,45.6558685303,93.7276992798,51.5574607849,51.5574607849,67.5553436279,67.5553436279,38.2440681458,0.0260504111648,0,0.00614361977205,0.1160036847,0.28974878788,0.283605188131,-2.18727111816,-0.154078632593,0.355682373047,0.00378050166182,-3.90647888184,-0.0819810777903,-0.786140441895,-0.020987290889,14.19581031804,94.083381652847,47.65098190306,37.457927703905,796
1.64951352721697E+018,97,1.64951352721697E+018,r1000913c5/base_footprint,0,1.64951352721697E+018,v/m1vw10zy74w/map,-6.09586545128,-0.732666293684,0,0,0,-0.00358747911167,0.999993564976,0,68.3483581543,15.4107923508,45.3029708862,94.1247634888,51.5570869446,51.5570869446,68.3483581543,68.3483581543,25.3952579498,0.296382009983,0,0.00709995673969,0.122164845467,0.288695633411,0.281595677137,-1.21498203278,-0.0855873674154,-0.0413818359375,-0.00043984214426,-3.9061050415,-0.0819732323289,12.062669754,0.322032481432,14.19581031802,94.0833816528625,47.6509819031,37.4579277038,796
1.64951352731728E+018,98,1.64951352731728E+018,r1000913c5/base_footprint,0,1.64951352731728E+018,v/m1vw10zy74w/map,-5.90725212767,-0.737920346576,0,0,0,-0.00536123977119,0.999985628451,0,67.4221420288,12.4939231873,45.3029708862,94.0693359375,51.5385665894,51.5385665894,67.4221420288,67.4221420288,41.6676216125,0.106997907162,0,0.00824598316103,0.134158343077,0.254302352667,0.246056362987,0.607681274414,0.0463822036982,-0.0189895629883,-0.00020190847863,-3.90447235107,-0.0819680169225,-4.89604949951,-0.13314768672,13.101604461714,94.0503463745117,47.63409423833,36.77157211299,766
1.6495135274177E+018,99,1.6495135274177E+018,r1000913c5/base_footprint,0,1.6495135274177E+018,v/m1vw10zy74w/map,-5.70947272777,-0.745810153669,0,0,0,-0.00781189552253,0.999969486679,0,67.7071228027,13.5243844986,45.0686836243,93.5321502686,51.5949668884,51.5949668884,67.7071228027,67.7071228027,35.2131195068,0.307676076889,0,0.00666567403823,0.15689638257,0.159200340509,0.152534663677,-0.982224464417,-0.0783138200641,0.508949279785,0.00541198765859,-4.06535720825,-0.0855331495404,0.818580627441,0.0227183457464,12.542160034183,94.041099548385,47.52960968015,36.031700134241,766
1.6495135275187E+018,100,1.6495135275187E+018,r1000913c5/base_footprint,0,1.6495135275187E+018,v/m1vw10zy74w/map,-5.53078404917,-0.749237997343,0,0,0,-0.0045830105642,0.999989497952,0,67.4615783691,4.66531419754,44.9283599854,93.4997329712,51.3768501282,51.3768501282,67.4615783691,67.4615783691,37.160572052,0.128844514489,0,0.00639226846397,0.163813710213,0.138056531549,0.131664261222,7.58440923691,0.619149446487,0.498641967773,0.00530479336157,-3.8479309082,-0.0809597820044,-1.19299697876,-0.0331686809659,12.24972343445,93.998374938973,47.52891922,35.96757507324,766
