%time,field.header.seq,field.header.stamp,field.header.frame_id,field.pose.header.seq,field.pose.header.stamp,field.pose.header.frame_id,field.pose.pose.position.x,field.pose.pose.position.y,field.pose.pose.position.z,field.pose.pose.orientation.x,field.pose.pose.orientation.y,field.pose.pose.orientation.z,field.pose.pose.orientation.w,field.label,field.main_output,field.scan_score,field.pose_score,field.cov_score,field.lhood_map_score,field.lhood_robot_score,field.lhood_map_score_all,field.lhood_robot_score_all,field.point_angle_diff,field.average_orientation,field.map_average_orientation,field.sensor_div,field.odom_div_x,field.odom_div_w,field.imu_div_w,field.kdtree_div,field.kdtree_div_p,field.cov_div,field.cov_div_p,field.likelihood_div,field.likelihood_div_p,field.normal_diff_div,field.normal_diff_div_p,field.kdtree_average,field.cov_average,field.likelihood_average,field.normal_diff_average,field.map_update_count
1.64950623659837E+018,0,1.64950623659837E+018,r1000913c5/base_footprint,0,1.64950623659837E+018,v/m1vw10zy74w/map,-2.89375973445,-0.859549246663,0,0,0,0.97869207686,0.205333432961,0,63.6193008423,23.3926124573,100,95.9532546997,43.3720932007,43.3720932007,63.6193008423,63.6193008423,28.7028923035,0.318086594343,0,0.00244100554846,0.147587195039,0.226565852761,0.22900685668,-14.4049844742,-1.60275709629,-2.1411819458,-0.0228241626173,2.73933792114,0.0594069175422,5.82260131836,0.168646425009,8.9876279831,93.8120727539,46.11143112184,34.52549362186,769
1.64950623669823E+018,1,1.64950623669823E+018,r1000913c5/base_footprint,0,1.64950623669823E+018,v/m1vw10zy74w/map,-2.89375973445,-0.859549246663,0,0,0,0.97869207686,0.205333432961,0,62.976890564,14.5154466629,46.8691711426,95.9532546997,43.5377616882,43.5377616882,62.976890564,62.976890564,42.0555305481,1.04259777069,0,0.00184090365656,0.146541908383,0.236653342843,0.238494247198,-5.52781867981,-0.615047574043,-2.1411819458,-0.0228241626173,2.57366943359,0.0558141320944,-7.53003692627,-0.218100771308,8.98762798309,93.8120727539,46.11143112179,34.52549362183,769
1.64950623679867E+018,2,1.64950623679867E+018,r1000913c5/base_footprint,0,1.64950623679868E+018,v/m1vw10zy74w/map,-3.00312450547,-0.819910557213,0,0,0,0.986409256454,0.164306965106,0,63.3208847046,9.88735961914,47.1280975342,96.1588516235,43.6180267334,43.6180267334,63.3208847046,63.3208847046,37.4706306458,0.685589790344,0,0.00120989885181,0.145136997104,0.238822087646,0.240031987429,-1.37283802032,-0.161234900355,-2.29090118408,-0.0244055744261,2.45146942139,0.0532124191523,-2.4958114624,-0.0713602378964,8.51452159882,93.86795043942,46.06949615479,34.9748191834,772
1.64950623689824E+018,3,1.64950623689824E+018,r1000913c5/base_footprint,0,1.64950623689824E+018,v/m1vw10zy74w/map,-3.00312450547,-0.819910557213,0,0,0,0.986409256454,0.164306965106,0,63.0511932373,12.1676063538,47.5256233215,96.1588516235,43.4363632202,43.4363632202,63.0511932373,63.0511932373,40.3631439209,1.02701950073,0,0.000389041058952,0.144723415375,0.152342602611,0.152731657028,-3.65308475494,-0.429041683674,-2.29090118408,-0.0244055744261,2.63313293457,0.0571556687355,-5.38832473755,-0.154062971473,8.51452159886,93.86795043942,46.06949615477,34.97481918335,772
1.64950623699823E+018,4,1.64950623699823E+018,r1000913c5/base_footprint,0,1.64950623699823E+018,v/m1vw10zy74w/map,-3.11704905663,-0.788245385234,0,0,0,0.991877740072,0.127194924227,0,63.0617294312,11.9647855759,47.5256233215,96.4412765503,43.0872840881,43.0872840881,63.0617294312,63.0617294312,37.4201316833,0.705498754978,0,0.00285819801502,0.14603368938,0.143422871828,0.146281078458,-3.91785240173,-0.486875236034,-2.57015228271,-0.0273795835674,2.93118286133,0.0636957958341,-2.11714172363,-0.0599706061184,8.04693317417,93.87112426759,46.01846694943,35.30298995967,766
1.64950623709824E+018,5,1.64950623709824E+018,r1000913c5/base_footprint,0,1.64950623709824E+018,v/m1vw10zy74w/map,-3.21969374889,-0.806599850055,0,0,0,0.99529870675,0.0968529005368,0,62.2583999634,7.1628651619,47.975944519,96.4903106689,42.6248130798,42.6248130798,62.2583999634,62.2583999634,47.0618934631,1.22138524055,0,0.00331514608115,0.14394775033,0.166730672121,0.170045822859,0.72300863266,0.0916840210557,-2.65772247314,-0.0283240880817,3.26131057739,0.0710740014911,-11.8487510681,-0.33648660779,7.88587379456,93.83258819576,45.88612365719,35.213142395,779
1.64950623719943E+018,6,1.64950623719943E+018,r1000913c5/base_footprint,0,1.64950623719944E+018,v/m1vw10zy74w/map,-3.22847657867,-0.806852246015,0,0,0,0.995602306396,0.0936805609502,0,62.5552787781,9.80392169952,47.975944519,96.6990585327,42.218334198,42.218334198,62.5552787781,62.5552787781,38.0796165466,0.426714003086,0,0.00244019343518,0.141962498426,0.212306916714,0.21474711597,-1.91804790497,-0.243225798011,-2.86647033691,-0.0305487718433,3.66778945923,0.0799324288964,-2.86647415161,-0.0814035311341,7.88587379455,93.83258819579,45.88612365723,35.21314239499,779
1.64950623829895E+018,7,1.64950623829895E+018,r1000913c5/base_footprint,0,1.64950623829895E+018,v/m1vw10zy74w/map,-4.23974206804,-0.739777120601,0,0,0,0.999959267495,0.00902570500202,0,62.7802314758,10.5219554901,47.4422874451,96.2938079834,42.102268219,42.102268219,62.7802314758,62.7802314758,31.3180141449,0.166380375624,0,0.00114811817184,0.0287740062922,0.0748608186841,0.0760089308023,-1.07771778107,-0.114113792777,-2.28652954102,-0.0243228990585,1.40663909912,0.0323299095035,0.94154548645,0.0291865579784,9.44423770903,94.00727844238,43.50890731812,32.25955963135,1409
1.64950623839939E+018,8,1.64950623839939E+018,r1000913c5/base_footprint,0,1.64950623839939E+018,v/m1vw10zy74w/map,-4.3836930293,-0.738178365209,0,0,0,0.999975466983,0.00700467213373,0,62.3304824829,10.1307191849,47.3156509399,95.7309875488,42.1163444519,42.1163444519,62.3304824829,62.3304824829,37.5393562317,0.489659190178,0,0.000389589637052,0.0390104018152,0.0880438834429,0.0884334743023,-0.635356903076,-0.0669123381376,-1.73821258545,-0.0184930451214,1.43232727051,0.0328902639449,-5.12152099609,-0.157984673977,9.495362281824,93.99277496335,43.54867172241,32.41783523561,1390
1.6495062384987E+018,9,1.6495062384987E+018,r1000913c5/base_footprint,0,1.6495062384987E+018,v/m1vw10zy74w/map,-4.49365372728,-0.73663521816,0,0,0,0.999982947685,0.005839892022,0,62.4792938232,6.52699422836,47.1879920959,95.4576263428,41.8499183655,41.8499183655,62.4792938232,62.4792938232,30.9993133545,-0.0767990276217,0,0.000372770766262,0.0533756390214,0.0864247977734,0.0860520228744,3.04097795486,0.317828893661,-1.45129394531,-0.0154382577166,1.93927764893,0.0442866683006,1.85195159912,0.0563738308847,9.56797218322,94.00633239749,43.78919601443,32.85126495362,1362
1.64950623859854E+018,10,1.64950623859854E+018,r1000913c5/base_footprint,0,1.64950623859854E+018,v/m1vw10zy74w/map,-4.6807598659,-0.73487994299,0,0,0,0.999983263079,0.0057856341034,0,61.9171409607,6.52699422836,47.0885314941,95.7880859375,41.6594467163,41.6594467163,61.9171409607,61.9171409607,40.2506065369,-0.338268071413,0,0.0012163586216,0.0662508532405,0.0810292959213,0.0798129364848,3.08669614792,0.32107296586,-1.78735351562,-0.0190142504871,2.39823913574,0.054434068501,-6.87005996704,-0.205810293555,9.61369037628,94.00073242188,44.05768585204,33.38054656986,1250
1.64950623869883E+018,11,1.64950623869883E+018,r1000913c5/base_footprint,0,1.64950623869884E+018,v/m1vw10zy74w/map,-4.80719089202,-0.733344641615,0,0,0,0.999989025384,0.00468498783528,0,62.0745429993,11.3122167587,47.1075706482,95.4769668579,41.9042701721,41.9042701721,62.0745429993,62.0745429993,38.9414291382,0.23919737339,0,0.000938031997066,0.0786888673902,0.0704779699445,0.0695399343967,-1.29317569733,-0.129071801901,-1.42553710938,-0.0151569955051,3.32415771484,0.0734970867634,-4.22919082642,-0.12183573097,10.01904106137,94.05142974852,45.22842788694,34.71223831178,1040
1.64950623889903E+018,12,1.64950623889903E+018,r1000913c5/base_footprint,0,1.64950623889903E+018,v/m1vw10zy74w/map,-4.84194195779,-0.717582397698,0,0,0,0.999995537021,0.00298763099357,0,62.5207710266,12.4087591171,47.0535011292,95.5870285034,42.1890258789,42.1890258789,62.5207710266,62.5207710266,34.3809204102,0.416109740734,0,0.000750838837121,0.0818336680532,0.0689299702644,0.0681791305542,-2.49626350403,-0.251829981804,-1.57838439941,-0.016789779067,3.38289260864,0.0742319524288,1.001953125,0.0283174607903,9.91249561307,94.00864410399,45.57191848754,35.3828735352,972
1.64950623899812E+018,13,1.64950623899812E+018,r1000913c5/base_footprint,0,1.64950623899812E+018,v/m1vw10zy74w/map,-4.84194195779,-0.717582397698,0,0,0,0.999995537021,0.00298763099357,0,62.8758239746,11.764705658,47.0535011292,95.5870285034,42.4877700806,42.4877700806,62.8758239746,62.8758239746,31.2163524628,0.435897648335,0,0.000664305873215,0.0851100385189,0.0681459903717,0.0674816817045,-1.85221004486,-0.186856076121,-1.57838439941,-0.016789779067,3.08414840698,0.0676765069366,4.16652107239,0.117755308747,9.91249561314,94.00864410399,45.57191848758,35.38287353519,972
1.64950623909976E+018,14,1.64950623909976E+018,r1000913c5/base_footprint,0,1.64950623909976E+018,v/m1vw10zy74w/map,-4.95742157518,-0.716321054062,0,0,0,0.999996013642,0.00282359718006,0,62.9910430908,18.419921875,47.0535011292,95.5612258911,42.7506713867,42.7506713867,62.9910430908,62.9910430908,31.8889045715,0.40903788805,0,0.000644818181172,0.0938839912415,0.0653301253915,0.0646853074431,-8.00387382507,-0.768417537212,-1.71588134766,-0.0182841401547,4.75397109985,0.100073821843,5.41353988647,0.145125612617,10.41604804993,93.84534454344,47.50464248655,37.30244445797,746
1.64950623929796E+018,15,1.64950623929796E+018,r1000913c5/base_footprint,0,1.64950623929796E+018,v/m1vw10zy74w/map,-5.13753928264,-0.719309682123,0,0,0,-0.999996458858,0.00266125381024,0,63.1334152222,9.43715572357,47.0477027893,96.1127471924,42.9792022705,42.9792022705,63.1334152222,63.1334152222,33.7798042297,0.366971880198,0,0.00049178750487,0.10803168267,0.0604964978993,0.0600047111511,1.77527809143,0.15833120048,-2.1759185791,-0.0231636371464,4.58700942993,0.0964341983199,3.14226913452,0.0851054340601,11.212433815,93.9368286133,47.56621170043,36.92207336422,734
1.64950623939827E+018,16,1.64950623939827E+018,r1000913c5/base_footprint,0,1.64950623939827E+018,v/m1vw10zy74w/map,-5.3021482878,-0.722932819664,0,0,0,-0.99996859919,0.00792468515818,0,63.3039588928,14.2857141495,47.0014305115,96.380355835,43.2227096558,43.2227096558,63.3039588928,63.3039588928,34.3032836914,-0.00469602132216,0,0.00105865311343,0.122759364545,0.0581481717527,0.0570895187557,-2.48269176483,-0.21034373343,-2.39670562744,-0.0255013033748,4.40232467651,0.0924372002482,1.96873855591,0.0542770549655,11.80302238467,93.98365020756,47.62503433231,36.27202224731,741
1.64950623949886E+018,17,1.64950623949886E+018,r1000913c5/base_footprint,0,1.64950623949886E+018,v/m1vw10zy74w/map,-5.44476837802,-0.738622575721,0,0,0,-0.999964733976,0.00839826194233,0,63.6492156982,12.3904876709,47.0890617371,96.2543487549,43.4649772644,43.4649772644,63.6492156982,63.6492156982,30.2515106201,0.11770247668,0,0.0013410106767,0.131120890379,0.0577998422086,0.0564588308334,-0.305592536926,-0.0252871476114,-2.26915740967,-0.024143775925,4.05416488647,0.0853164568543,5.72066879272,0.159030362964,12.084895133974,93.98519134523,47.51914215087,35.97217941282,759
1.64950623959946E+018,18,1.64950623959946E+018,r1000913c5/base_footprint,0,1.64950623959946E+018,v/m1vw10zy74w/map,-5.60973791915,-0.731703357215,0,0,0,-0.999964194143,0.0084622946957,0,63.6884307861,12.4486999512,47.2335166931,96.0168380737,43.6262321472,43.6262321472,63.6884307861,63.6884307861,30.4321479797,0.237622275949,0,0.00201982632279,0.141067877412,0.0559610053897,0.0539411790669,0.188345909119,0.0149042671546,-1.9666595459,-0.0209107473493,3.95126724243,0.0830490738153,5.2975730896,0.148267969489,12.637045860319,94.0501785278,47.57749938963,35.7297210693,755
1.64950623969882E+018,19,1.64950623969882E+018,r1000913c5/base_footprint,0,1.64950623969883E+018,v/m1vw10zy74w/map,-5.76572674918,-0.732588629249,0,0,0,-0.999991330058,0.00416410960095,0,63.5762023926,17.2794113159,47.311920166,95.9704971313,43.9112663269,43.9112663269,63.5762023926,63.5762023926,35.3638458252,0.00909531395882,0,0.00229028775357,0.152873441577,0.0462786816061,0.0439883954823,-4.60213565826,-0.363022446632,-1.94036865234,-0.0206356048584,3.64389038086,0.0766245052218,0.772132873535,0.0213674269617,12.67727565764,94.03012847896,47.55515670776,36.135978698735,754
1.64950623979892E+018,20,1.64950623979892E+018,r1000913c5/base_footprint,0,1.64950623979892E+018,v/m1vw10zy74w/map,-5.93575914737,-0.735540921525,0,0,0,-0.99999670829,0.0025658155153,0,63.9089317322,13.4117650986,47.5063362122,95.8995819092,44.2801399231,44.2801399231,63.9089317322,63.9089317322,33.1032485962,0.0865140631795,0,0.00214282539673,0.164454713464,0.0369638316333,0.0348210036755,-0.0882081985474,-0.00662046903744,-1.846534729,-0.0196329075843,3.34117507935,0.0701613351703,3.8634185791,0.104510873556,13.3235569000526,94.0530471802,47.62131500245,36.9666671753,769
1.64950623989866E+018,21,1.64950623989866E+018,r1000913c5/base_footprint,0,1.64950623989867E+018,v/m1vw10zy74w/map,-6.21850298302,-0.73164463833,0,0,0,-0.999999655037,0.000830617532225,0,64.1980667114,11.2978525162,47.7235984802,95.4683380127,44.6537132263,44.6537132263,64.1980667114,64.1980667114,30.3808670044,0.332783669233,0,0.00178304570727,0.177206560969,0.0338909067214,0.0321078598499,3.28421878815,0.225223064423,-1.3824005127,-0.0146929556504,2.98662948608,0.0626911818981,7.26636123657,0.193011850119,14.58207130435,94.0859375,47.64034271238,37.64722824097,817
1.64950623999815E+018,22,1.64950623999815E+018,r1000913c5/base_footprint,0,1.64950623999815E+018,v/m1vw10zy74w/map,-6.34168156701,-0.731460150471,0,0,0,-0.999995244181,0.0030840907869,0,64.5879745483,9.36819171906,47.9590644836,95.2540588379,45.2113037109,45.2113037109,64.5879745483,64.5879745483,28.6131458282,0.486030310392,0,0.00127026194241,0.189697101712,0.027849894017,0.0265796314925,6.00815296173,0.390740007162,-1.14322662354,-0.0121476622298,2.44094848633,0.0512241981924,9.07840156555,0.240860417485,15.37634468079,94.11083221436,47.65225219723,37.69154739375,822
1.64950624009829E+018,23,1.64950624009829E+018,r1000913c5/base_footprint,0,1.64950624009829E+018,v/m1vw10zy74w/map,-6.46411168848,-0.735626064516,0,0,0,-0.999996870098,0.00250195795287,0,64.8908920288,12.2036876678,48.0023345947,95.3096008301,45.6789779663,45.6789779663,64.8908920288,64.8908920288,28.411441803,0.66902410984,0,0.000496180204209,0.20240688324,0.0105028813705,0.0100067006424,3.68673801422,0.232010021806,-1.15271759033,-0.012242520228,1.9797706604,0.0415405519307,9.10112380981,0.24261534214,15.89042568202,94.15688323977,47.6587486267,37.51256561281,843
1.64950624019834E+018,24,1.64950624019834E+018,r1000913c5/base_footprint,0,1.64950624019834E+018,v/m1vw10zy74w/map,-6.64279818122,-0.731094584201,0,0,0,-0.999999682189,0.000797259024998,0,64.6941680908,5.88235282898,47.9307327271,95.2195587158,46.0533027649,46.0533027649,64.6941680908,64.6941680908,35.6710777283,0.431715488434,0,0.000231576705119,0.212078735232,0.00573625415564,0.00596783077344,10.886888504,0.6492177248,-0.952247619629,-0.0101015679538,1.39945602417,0.0294915623963,1.44217681885,0.0388588085771,16.76924133298,94.267311096171,47.45275878907,37.11325454715,923
1.64950624029865E+018,25,1.64950624029865E+018,r1000913c5/base_footprint,0,1.64950624029865E+018,v/m1vw10zy74w/map,-6.90853721444,-0.733253935172,0,0,0,0.999999691899,0.000784985330386,0,64.7065048218,5.20524740219,47.9018249512,94.9923248291,46.0458145142,46.0458145142,64.7065048218,64.7065048218,34.5500183105,0.696986973286,0,0.00043623658712,0.225648611784,0.0065568969585,0.00699313310906,11.3989467621,0.68651008606,-0.50528717041,-0.00534768775105,0.325584411621,0.00702123343945,1.32444381714,0.036918848753,16.60419416429,94.48703765869,46.371398925821,35.87446212764,1261
1.64950624039965E+018,26,1.64950624039965E+018,r1000913c5/base_footprint,0,1.64950624039965E+018,v/m1vw10zy74w/map,-6.94739003009,-0.732533332166,0,0,0,0.999997818413,0.00208881995654,0,64.3144378662,3.11418676376,47.7392311096,95.2770996094,45.8375587463,45.8375587463,64.3144378662,64.3144378662,40.3833808899,0.618623912334,0,0.000254391896306,0.238140329719,0.00926610641181,0.00952049810439,13.3709506989,0.811091244221,-0.766609191895,-0.00811136607081,0.502479553223,0.0108433132991,-4.51616668701,-0.125913500786,16.48513746266,94.510490417505,46.340038299523,35.86721420289,1257
1.64950624049858E+018,27,1.64950624049858E+018,r1000913c5/base_footprint,0,1.64950624049858E+018,v/m1vw10zy74w/map,-7.27552836929,-0.73290694273,0,0,0,0.999997203973,0.00236475057239,0,64.2899780273,3.58248567581,47.6380844116,95.0178909302,45.7365074158,45.7365074158,64.2899780273,64.2899780273,38.799118042,-0.199384838343,0,0.000403991929488,0.254706859589,0.0079834042117,0.00757941231132,12.3446750641,0.775070667267,-0.51294708252,-0.00542772747576,0.563129425049,0.0121627179906,-2.93470001221,-0.0818276181817,15.92716073991,94.50494384768,46.299636840849,35.86441802979,1235
1.64950624059903E+018,28,1.64950624059903E+018,r1000913c5/base_footprint,0,1.64950624059904E+018,v/m1vw10zy74w/map,-7.44713160436,-0.737511875916,0,0,0,0.999995186902,0.00310260753684,0,64.1753616333,1.96078431606,47.5223884583,94.6982955933,45.9052810669,45.9052810669,64.1753616333,64.1753616333,41.5343208313,-0.123728126287,0,0.000395275448682,0.273962259293,0.00590275553986,0.00550747988746,13.9542007446,0.876796364784,-0.188674926758,-0.00199635676108,0.549297332764,0.0118243964389,-5.50382995605,-0.15275478363,15.91498506066,94.509620666542,46.454578399664,36.03049087525,1202
1.64950624069842E+018,29,1.64950624069842E+018,r1000913c5/base_footprint,0,1.64950624069842E+018,v/m1vw10zy74w/map,-7.69131619112,-0.722417253271,0,0,0,0.999990207535,0.00442547568835,0,64.2182769775,8.39694690704,47.5115776062,94.5407867432,46.2994880676,46.2994880676,64.2182769775,64.2182769775,44.4523696899,0.336583167315,0,0.000487663841341,0.386793255806,0.00205349782482,0.00254116184078,7.60873126984,0.475376993418,-0.22004699707,-0.00233296514489,1.26706314087,0.0266376920044,-7.37305450439,-0.198845490813,16.00567817688,94.32073974613,47.56655120847,37.07931518551,925
1.64950624079813E+018,30,1.64950624079813E+018,r1000913c5/base_footprint,0,1.64950624079813E+018,v/m1vw10zy74w/map,-7.8587181542,-0.719084190058,0,0,0,0.999986168071,0.00525962612771,0,64.978225708,9.36819171906,47.6008834839,94.858581543,46.7050933838,46.7050933838,64.978225708,64.978225708,36.2978401184,0.860359191895,0,0.00055861758301,0.44811180234,0.0116126509383,0.0110540334135,7.21306705475,0.435013234615,-0.673141479492,-0.00714698014781,1.42495346069,0.0296063181013,1.2780418396,0.0340122915804,16.58125877381,94.185440063508,48.13004684449,37.575881958,796
1.64950624089815E+018,31,1.64950624089815E+018,r1000913c5/base_footprint,0,1.64950624089815E+018,v/m1vw10zy74w/map,-7.8587181542,-0.719084190058,0,0,0,0.999986168071,0.00525962612771,0,65.1272888184,15.966386795,47.7525291443,94.858581543,47.1310119629,47.1310119629,65.1272888184,65.1272888184,38.2145957947,0.688368439674,0,0.000997915863991,0.480464786291,0.014847971499,0.013850055635,0.61487197876,0.0370823480189,-0.673141479492,-0.00714698014781,0.999034881592,0.0207569897175,-0.63871383667,-0.0169979725033,16.58125877376,94.185440063508,48.130046844492,37.57588195803,796
1.64950624099838E+018,32,1.64950624099838E+018,r1000913c5/base_footprint,0,1.64950624099838E+018,v/m1vw10zy74w/map,-8.00699227997,-0.715349973415,0,0,0,-0.999999992447,0.000122909421776,0,65.7309188843,43.3551216125,47.8800849915,95.1938476562,47.5371704102,47.5371704102,65.7309188843,65.7309188843,32.9427909851,0.246515884995,0,0.00085393874906,0.497209370136,0.0147561812773,0.0139022422954,-25.6125221252,-1.4435608387,-0.921348571777,-0.0097732488066,0.644546508789,0.013377408497,4.469581604,0.119468010962,17.7425994873,94.272499084423,48.181716918989,37.4123725891,824
1.64950624109883E+018,33,1.64950624109883E+018,r1000913c5/base_footprint,0,1.64950624109883E+018,v/m1vw10zy74w/map,-8.00699227997,-0.715349973415,0,0,0,-0.999999992447,0.000122909421776,0,66.269569397,43.2924232483,48.0979576111,95.1938476562,48.0834541321,48.0834541321,66.269569397,66.269569397,29.1468677521,0.272922903299,0,0.000746822101064,0.508233189583,0.0171123761684,0.0163655541837,-25.549823761,-1.44002711773,-0.921348571777,-0.0097732488066,0.0982627868652,0.00203942065127,8.26550483704,0.220929712057,17.7425994873,94.272499084423,48.1817169189652,37.41237258914,824
1.64950624119922E+018,34,1.64950624119922E+018,r1000913c5/base_footprint,0,1.64950624119922E+018,v/m1vw10zy74w/map,-8.14939208847,-0.721594116023,0,0,0,-0.999971808386,0.00750882375369,0,66.9299621582,37.254901886,48.2562484741,95.3095626831,48.5195541382,48.5195541382,66.9299621582,66.9299621582,22.386297226,0.373376309872,0,0.0010091754375,0.511398136616,0.0206770654768,0.0196678899229,-18.8007907867,-1.01878607273,-0.92497253418,-0.00980003736913,-0.694683074951,-0.0145255606622,14.1694087982,0.387611418962,18.4541110993,94.38459014892,47.824871063249,36.5557060242,929
1.64950624129891E+018,35,1.64950624129891E+018,r1000913c5/base_footprint,0,1.64950624129891E+018,v/m1vw10zy74w/map,-8.27844936823,-0.722791502946,0,0,0,-0.999952045497,0.00979319697837,0,67.1559524536,42.4836616516,48.4567604065,95.0312194824,49.1179695129,49.1179695129,67.1559524536,67.1559524536,23.7792491913,0.332062661648,0,0.000944479659665,0.519894778728,0.0443888381124,0.0434443578124,-24.4072742462,-1.35022962093,-0.557609558105,-0.00590227870271,-2.06667709351,-0.0439239181578,11.9464664459,0.334394037724,18.0763874054,94.473609924295,47.05129241939,35.7257156372,1103
1.64950624139825E+018,36,1.64950624139825E+018,r1000913c5/base_footprint,0,1.64950624139825E+018,v/m1vw10zy74w/map,-8.29835815174,-0.724485475657,0,0,0,-0.999920117778,0.012639543655,0,67.513053894,40.3114204407,48.5691833496,95.3038406372,49.8223457336,49.8223457336,67.513053894,67.513053894,25.9401493073,0.300489902496,0,0.00227640080266,0.522168576717,0.0563054457307,0.0540290437639,-22.3110771179,-1.23948061466,-0.7958984375,-0.0084214983508,-3.0623588562,-0.0654910132289,9.50562095642,0.268173635006,18.0003433228,94.5079421997,46.7599868774,35.44577026372,1181
1.64950624149841E+018,37,1.64950624149841E+018,r1000913c5/base_footprint,0,1.64950624149841E+018,v/m1vw10zy74w/map,-8.43362525215,-0.72103230426,0,0,0,-0.998981915924,0.0451124335057,0,67.4660568237,31.7988071442,48.5691833496,95.5172119141,50.2270698547,50.2270698547,67.4660568237,67.4660568237,31.925321579,0.166753306985,0,0.00231557060033,0.521457493305,0.0407872460783,0.0384716764092,-13.6438541412,-0.751522421837,-1.00917053223,-0.0106781441718,-3.54753494263,-0.0759976506233,3.28233528137,0.0932278856635,18.154953003,94.50804138187,46.67953491207,35.20765686037,1196
1.64950624159867E+018,38,1.64950624159867E+018,r1000913c5/base_footprint,0,1.64950624159867E+018,v/m1vw10zy74w/map,-8.43362525215,-0.72103230426,0,0,0,-0.998981915924,0.0451124335057,0,67.1590194702,23.2736568451,48.5842666626,95.5172119141,50.0232009888,50.0232009888,67.1590194702,67.1590194702,35.2501335144,0.0813195332885,0,0.00202060234733,0.519688665867,0.051073461771,0.0490528605878,-5.11870384216,-0.281945317984,-1.00917053223,-0.0106781441718,-3.34366607666,-0.0716302320361,-0.0424766540527,-0.0012064606417,18.15495300294,94.50804138187,46.67953491214,35.2076568603473,1196
1.64950624169846E+018,39,1.64950624169846E+018,r1000913c5/base_footprint,0,1.64950624169846E+018,v/m1vw10zy74w/map,-8.56665827842,-0.739954234981,0,0,0,-0.995191577518,0.0979475575839,0,67.2799606323,27.2111721039,48.5707321167,95.3288421631,50.0064926147,50.0064926147,67.2799606323,67.2799606323,32.2146224976,0.0483379922807,0,0.0038691048976,0.516155183315,0.0668497160077,0.0629806146026,-9.03869056702,-0.497383385897,-0.773551940918,-0.00818094797432,-3.3959236145,-0.0728573724627,2.67847824097,0.0767624005675,18.17248153688,94.555290222182,46.6105690002,34.89310073857,1171
1.64950624179849E+018,40,1.64950624179849E+018,r1000913c5/base_footprint,0,1.64950624179849E+018,v/m1vw10zy74w/map,-8.56665827842,-0.739954234981,0,0,0,-0.995191577518,0.0979475575839,0,66.8211746216,24.6720275879,48.2846603394,95.3288421631,49.7777862549,49.7777862549,66.8211746216,66.8211746216,38.0028343201,0.0654840022326,0,0.00409761955962,0.514977872372,0.0662248656154,0.0621272474527,-6.49954605103,-0.357658684254,-0.773551940918,-0.00818094797432,-3.16721725464,-0.0679506212473,-3.10973358154,-0.0891217291355,18.17248153687,94.555290222182,46.61056900026,34.89310073856,1171
1.64950624189942E+018,41,1.64950624189942E+018,r1000913c5/base_footprint,0,1.64950624189942E+018,v/m1vw10zy74w/map,-8.56665827842,-0.739954234981,0,0,0,-0.995191577518,0.0979475575839,0,66.7784881592,20.1680679321,48.2846603394,95.3288421631,49.5571517944,49.5571517944,66.7784881592,66.7784881592,36.3882865906,-0.0242049470544,0,0.00426730839536,0.514033913612,0.0653127729893,0.0610454678535,-1.99558639526,-0.109813645482,-0.773551940918,-0.00818094797432,-2.94658279419,-0.0632170513272,-1.49518585205,-0.042850472033,18.17248153684,94.555290222182,46.61056900021,34.89310073855,1171
1.64950624199964E+018,42,1.64950624199964E+018,r1000913c5/base_footprint,0,1.64950624199964E+018,v/m1vw10zy74w/map,-8.56665827842,-0.739954234981,0,0,0,-0.995191577518,0.0979475575839,0,66.8649368286,22.9792633057,48.2846603394,95.3288421631,49.3151054382,49.3151054382,66.8649368286,66.8649368286,32.218132019,-0.0219715684652,0,0.00470705376938,0.517724394798,0.0624516420066,0.0577445887029,-4.8067817688,-0.26450881362,-0.773551940918,-0.00818094797432,-2.70453643799,-0.0580241009593,2.67496871948,0.0766618251801,18.1724815369,94.555290222182,46.61056900021,34.89310073848,1171
1.64950624210042E+018,43,1.64950624210042E+018,r1000913c5/base_footprint,0,1.64950624210042E+018,v/m1vw10zy74w/map,-8.56665827842,-0.739954234981,0,0,0,-0.995191577518,0.0979475575839,0,66.5664291382,19.8635978699,48.2846603394,95.3288421631,49.1401176453,49.1401176453,66.5664291382,66.5664291382,35.7014122009,-0.0919061303139,0,0.00491302181035,0.536258280277,0.0627343952656,0.0578213743865,-1.69111633301,-0.0930591821671,-0.773551940918,-0.00818094797432,-2.52954864502,-0.0542698502541,-0.808311462402,-0.0231653656811,18.17248153689,94.555290222182,46.61056900028,34.893100738498,1171
1.64950624220558E+018,44,1.64950624220558E+018,r1000913c5/base_footprint,0,1.64950624220558E+018,v/m1vw10zy74w/map,-8.65588543549,-0.765273806831,0,0,0,-0.987690180501,0.15642284789,0,66.7127685547,20.9961357117,48.2846603394,95.4974822998,48.8844985962,48.8844985962,66.7127685547,66.7127685547,30.9137153625,0.0887784957886,0,0.00523407757282,0.544328212738,0.0627544522285,0.0575203709304,-2.74885749817,-0.150644794106,-0.935516357422,-0.00989315658808,-2.33380508423,-0.0501346997917,3.76258468628,0.108505941927,18.24727821353,94.561965942378,46.55069351197,34.67630004878,1182
1.64950624239826E+018,45,1.64950624239826E+018,r1000913c5/base_footprint,0,1.64950624239826E+018,v/m1vw10zy74w/map,-8.65588543549,-0.765273806831,0,0,0,-0.987690180501,0.15642284789,0,66.1979064941,22.1453285217,47.9697036743,95.4974822998,48.7188415527,48.7188415527,66.1979064941,66.1979064941,38.3921546936,0.199950948358,0,0.00635989708826,0.562546789646,0.0505266860127,0.0441667884588,-3.89805030823,-0.213623657823,-0.935516357422,-0.00989315658808,-2.16814804077,-0.04657606408,-3.71585464478,-0.107158340514,18.24727821347,94.561965942378,46.55069351193,34.67630004882,1182
1.64950624259833E+018,46,1.64950624259833E+018,r1000913c5/base_footprint,0,1.64950624259833E+018,v/m1vw10zy74w/map,-8.67931361538,-0.771967259161,0,0,0,-0.964980216587,0.26232266695,0,65.8568191528,19.1737766266,47.5348434448,95.5725250244,48.3347434998,48.3347434998,65.8568191528,65.8568191528,40.6536026001,-0.0698837190866,0,0.00523974187672,0.55638551712,0.0486124008894,0.0433726608753,-0.926498413086,-0.0507746078074,-1.01055908203,-0.0106867393479,-1.78404998779,-0.0383248850703,-5.97730255127,-0.172374293208,18.247278213514,94.56196594237,46.55069351201,34.67630004883,1182
1.64950624269879E+018,47,1.64950624269879E+018,r1000913c5/base_footprint,0,1.64950624269879E+018,v/m1vw10zy74w/map,-8.68263209719,-0.775211175053,0,0,0,-0.961098238907,0.276206761631,0,66.2301940918,16.2210330963,46.9518928528,95.7143554688,47.9436950684,47.9436950684,66.2301940918,66.2301940918,30.2201271057,0.502766907215,0,0.00526487687603,0.542184948921,0.0403837747872,0.0351189002395,2.02624511719,0.111043691635,-1.15238952637,-0.0121866073459,-1.3930015564,-0.0299244001508,4.45617294312,0.128507733345,18.24727821349,94.56196594243,46.550693512,34.67630004882,1182
1.64950624279901E+018,48,1.64950624279901E+018,r1000913c5/base_footprint,0,1.64950624279901E+018,v/m1vw10zy74w/map,-8.70238101382,-0.784364558293,0,0,0,-0.942591475035,0.333948066607,0,66.0875167847,20.96991539,46.2049942017,95.5973052979,47.6478004456,47.6478004456,66.0875167847,66.0875167847,29.1711940765,0.13473431766,0,0.00473582046106,0.523821592331,0.0305598061532,0.0258239842951,-2.75835227966,-0.151461586356,-1.04316711426,-0.0110324854031,-1.10284423828,-0.0236941725016,5.42318534851,0.156764924526,18.21156311034,94.55413818364,46.54495620732,34.59437942501,1176
1.64950624289904E+018,49,1.64950624289904E+018,r1000913c5/base_footprint,0,1.64950624289904E+018,v/m1vw10zy74w/map,-8.69794735449,-0.798654624323,0,0,0,-0.919901214249,0.392150170246,0,66.2262573242,21.882352829,46.2049942017,95.87865448,47.408618927,47.408618927,66.2262573242,66.2262573242,25.1035575867,0.218559920788,0,0.00487845391035,0.50226765871,0.0116529408842,0.00677448697388,-3.67078971863,-0.201563686132,-1.32451629639,-0.0140080200508,-0.863662719727,-0.0185554530472,9.49082183838,0.274345785379,18.21156311037,94.55413818361,46.544956207273,34.59437942508,1176
1.64950624299833E+018,50,1.64950624299833E+018,r1000913c5/base_footprint,0,1.64950624299833E+018,v/m1vw10zy74w/map,-8.69854237821,-0.794240280142,0,0,0,-0.897057604401,0.441913627745,0,65.8305053711,20.6349201202,45.6846237183,96.0052566528,47.0256919861,47.0256919861,65.8305053711,65.8305053711,28.5472335815,0.0402687340975,0,0.00492006214336,0.487065851688,0.000489489641041,0.00443057250232,-2.42335700989,-0.133066937327,-1.45111846924,-0.0153469592333,-0.480735778809,-0.0103284185752,6.04714584351,0.174801394343,18.21156311031,94.55413818356,46.544956207291,34.59437942501,1176
1.64950624309866E+018,51,1.64950624309866E+018,r1000913c5/base_footprint,0,1.64950624309866E+018,v/m1vw10zy74w/map,-8.69684466328,-0.796247174086,0,0,0,-0.867525996812,0.497391842369,0,65.6036148071,23.7132358551,44.8208236694,95.8208847046,46.8035926819,46.8035926819,65.6036148071,65.6036148071,29.5689411163,0.166426837444,0,0.0055199326016,0.458928674459,0.0158764068037,0.0213963389397,-5.50167274475,-0.302097767591,-1.266746521,-0.0133970500901,-0.258636474609,-0.00555670261383,5.02543830872,0.145267486572,18.21156311035,94.5541381836,46.544956207291,34.59437942502,1176
1.64950624319852E+018,52,1.64950624319852E+018,r1000913c5/base_footprint,0,1.64950624319852E+018,v/m1vw10zy74w/map,-8.699890778,-0.794144114167,0,0,0,-0.840509571579,0.541796696266,0,65.5859603882,21.2669677734,44.8208236694,95.7434997559,46.5524635315,46.5524635315,65.5859603882,65.5859603882,26.895942688,0.0956579223275,0,0.00563805457205,0.419499129057,0.0266270563006,0.032265111804,-3.05540466309,-0.167772784829,-1.18936157227,-0.0125786308199,-0.00750732421875,-0.00016129190044,7.69843673706,0.222534313798,18.21156311031,94.55413818363,46.5449562072813,34.59437942506,1176
1.64950624329823E+018,53,1.64950624329823E+018,r1000913c5/base_footprint,0,1.64950624329823E+018,v/m1vw10zy74w/map,-8.70019532117,-0.79390562166,0,0,0,-0.808687293803,0.588238778764,0,65.4149780273,21.2737731934,44.1051826477,95.677772522,46.3671417236,46.3671417236,65.4149780273,65.4149780273,27.7354545593,0.0679425671697,0,0.00445476034656,0.250236153603,0.0745060741901,0.0789608284831,-3.06221008301,-0.16814647615,-1.12363433838,-0.0118835028261,0.177814483643,0.0038202740252,6.85892486572,0.198267027736,18.21156311039,94.55413818362,46.544956207243,34.59437942502,1176
1.64950624339833E+018,54,1.64950624339833E+018,r1000913c5/base_footprint,0,1.64950624339833E+018,v/m1vw10zy74w/map,-8.69944454541,-0.791741227733,0,0,0,-0.773044152445,0.63435221949,0,64.8140182495,21.8548736572,43.3981552124,95.7395248413,46.2676544189,46.2676544189,64.8140182495,64.8140182495,37.7006721497,-0.148664653301,0,0.00386486481875,0.204583436251,0.0907416418195,0.0946065038443,-3.64331054688,-0.20005479455,-1.18538665771,-0.0125365918502,0.27730178833,0.00595771940425,-3.10629272461,-0.0897918343544,18.21156311032,94.55413818359,46.54495620723,34.59437942509,1176
1.64950624429834E+018,55,1.64950624429834E+018,r1000913c5/base_footprint,0,1.64950624429834E+018,v/m1vw10zy74w/map,-8.70359394541,-0.793020027698,0,0,0,-0.739222784127,0.673460968005,0,65.0799026489,21.5686283112,42.7925186157,95.8918838501,46.2568321228,46.2568321228,65.0799026489,65.0799026489,33.3463172913,0.134293869138,0,0.003235361306,0.000370118272258,0.212944924831,0.209709569812,-3.35706520081,-0.18433701992,-1.3377456665,-0.0141479335725,0.288124084473,0.00619023200125,1.24806213379,0.0360770188272,18.21156311039,94.5541381836,46.544956207273,34.59437942509,1176
1.64950624439865E+018,56,1.64950624439865E+018,r1000913c5/base_footprint,0,1.64950624439865E+018,v/m1vw10zy74w/map,-8.70359394541,-0.793020027698,0,0,0,-0.739222784127,0.673460968005,0,64.8021469116,9.83254623413,41.8739089966,95.8918838501,45.7136306763,45.7136306763,64.8021469116,64.8021469116,32.4794006348,0.121901899576,0,0.00385721609928,0.0775691494346,0.210906416178,0.207049205899,8.37901687622,0.460093230009,-1.3377456665,-0.0141479335725,0.831325531006,0.0178607013077,2.11497879028,0.0611364841461,18.21156311035,94.5541381836,46.544956207306,34.59437942508,1176
1.64950624449878E+018,57,1.64950624449878E+018,r1000913c5/base_footprint,0,1.64950624449878E+018,v/m1vw10zy74w/map,-8.70359394541,-0.793020027698,0,0,0,-0.739222784127,0.673460968005,0,64.3385696411,14.5154466629,41.8739089966,95.8918838501,45.163848877,45.163848877,64.3385696411,64.3385696411,34.8860702515,0.0924325585365,0,0.00355830369517,0.0978733077645,0.202596530318,0.199038237333,3.69611644745,0.202954381704,-1.3377456665,-0.0141479335725,1.38110733032,0.0296725463122,-0.291690826416,-0.00843174010515,18.21156311035,94.5541381836,46.54495620732,34.594379425084,1176
1.64950624459824E+018,58,1.64950624459824E+018,r1000913c5/base_footprint,0,1.64950624459824E+018,v/m1vw10zy74w/map,-8.70359394541,-0.793020027698,0,0,0,-0.739222784127,0.673460968005,0,63.8692092896,14.5154466629,41.8739089966,95.8918838501,44.7834358215,44.7834358215,63.8692092896,63.8692092896,39.2260971069,0.135414525867,0,0.00320762395859,0.125216960907,0.192361369729,0.18915374577,3.69611644745,0.202954381704,-1.3377456665,-0.0141479335725,1.76152038574,0.0378455705941,-4.63171768188,-0.133886426687,18.21156311035,94.5541381836,46.54495620724,34.59437942502,1176
1.64950624469829E+018,59,1.64950624469829E+018,r1000913c5/base_footprint,0,1.64950624469829E+018,v/m1vw10zy74w/map,-8.70359394541,-0.793020027698,0,0,0,-0.739222784127,0.673460968005,0,63.9504776001,13.224864006,41.8739089966,95.8918838501,44.5518989563,44.5518989563,63.9504776001,63.9504776001,35.262714386,0.239007368684,0,0.00292795337737,0.124518953264,0.191779583693,0.188851624727,4.98669910431,0.273820489645,-1.3377456665,-0.0141479335725,1.99305725098,0.0428200475872,-0.668334960938,-0.0193191785365,18.21156311031,94.5541381836,46.54495620728,34.594379425062,1176
1.64950624479814E+018,60,1.64950624479814E+018,r1000913c5/base_footprint,0,1.64950624479814E+018,v/m1vw10zy74w/map,-8.66467865876,-0.871104333796,0,0,0,-0.70093863154,0.713221588859,0,63.7444114685,16.806722641,41.8739089966,95.6283798218,44.2359962463,44.2359962463,63.7444114685,63.7444114685,34.6115493774,0.300606459379,0,0.00324621447362,0.117103084922,0.197281956673,0.194035738707,1.317029953,0.072668723762,-1.05480194092,-0.0111532416195,2.08401870728,0.0449917539954,0.109943389893,0.00316643621773,18.123752594,94.57357788088,46.32001495358,34.721492767293,1191
1.64950624499849E+018,61,1.64950624499849E+018,r1000913c5/base_footprint,0,1.64950624499849E+018,v/m1vw10zy74w/map,-8.66467865876,-0.871104333796,0,0,0,-0.70093863154,0.713221588859,0,63.5639152527,15.8437099457,41.8739089966,95.6283798218,43.9415931702,43.9415931702,63.5639152527,63.5639152527,34.6809005737,0.157380908728,0,0.00342613272369,0.113900110126,0.198122605681,0.194696471095,2.28004264832,0.125804111362,-1.05480194092,-0.0111532416195,2.37842178345,0.0513476021588,0.0405921936035,0.00116907968186,18.12375259402,94.57357788088,46.32001495365,34.7214927673035,1191
1.64950624509916E+018,62,1.64950624509916E+018,r1000913c5/base_footprint,0,1.64950624509916E+018,v/m1vw10zy74w/map,-8.66112031502,-1.006368207,0,0,0,-0.697221153968,0.716856096061,0,63.1609649658,14.7485084534,41.8739089966,95.3420791626,43.6170005798,43.6170005798,63.1609649658,63.1609649658,37.3977546692,0.184939354658,0,0.00421400088817,0.109435163438,0.192178174853,0.187964186072,3.34740257263,0.184981152415,-0.725227355957,-0.00766488583758,2.49061965942,0.0540175288916,-2.59352111816,-0.0745174065232,18.09591102603,94.616851806643,46.10762023922,34.80423355104,1142
1.6495062451992E+018,63,1.6495062451992E+018,r1000913c5/base_footprint,0,1.6495062451992E+018,v/m1vw10zy74w/map,-8.66112031502,-1.006368207,0,0,0,-0.697221153968,0.716856096061,0,63.3626823425,22.4211425781,41.6696166992,95.3420791626,43.504573822,43.504573822,63.3626823425,63.3626823425,32.5526161194,0.137028649449,0,0.00459947483614,0.102005489171,0.17330904305,0.16870957613,-4.32523155212,-0.23901706934,-0.725227355957,-0.00766488583758,2.60304641724,0.0564558841288,2.25161743164,0.0646937787533,18.09591102598,94.616851806643,46.10762023924,34.80423355104,1142
1.6495062453002E+018,64,1.6495062453002E+018,r1000913c5/base_footprint,0,1.6495062453002E+018,v/m1vw10zy74w/map,-8.68039744158,-1.16448285826,0,0,0,-0.705370376338,0.70883893247,0,63.3700370789,23.8754329681,41.574054718,94.9987792969,43.3548545837,43.3548545837,63.3700370789,63.3700370789,29.5673389435,0.258803635836,0,0.0049977353774,0.0959944203496,0.154645130038,0.149647399783,-5.84778594971,-0.324378758669,-0.0921630859375,-0.00097109231865,1.83957672119,0.0407036133111,5.13459205627,0.147962719202,18.02764701839,94.9066162109625,45.19443130489,34.70193099977,787
1.6495062453994E+018,65,1.6495062453994E+018,r1000913c5/base_footprint,0,1.6495062453994E+018,v/m1vw10zy74w/map,-8.68142851439,-1.16963160231,0,0,0,-0.706418548892,0.70779434427,0,63.4993171692,22.4030036926,41.9153633118,95.3373565674,43.2576637268,43.2576637268,63.4993171692,63.4993171692,27.4095535278,0.241387248039,0,0.0052274200134,0.0930055975914,0.143135309219,0.137907892466,-4.37535667419,-0.242702588439,-0.430740356445,-0.00453857053071,1.93676757812,0.0428541190922,7.29237747192,0.21014328301,18.02764701841,94.906616210955,45.19443130492,34.70193099972,787
1.64950624549811E+018,66,1.64950624549811E+018,r1000913c5/base_footprint,0,1.64950624549811E+018,v/m1vw10zy74w/map,-8.68142851439,-1.16963160231,0,0,0,-0.706418548892,0.70779434427,0,63.3122367859,23.5294113159,41.9153633118,95.3373565674,43.0440406799,43.0440406799,63.3122367859,63.3122367859,28.4698925018,0.233914136887,0,0.00494722649455,0.0870956107974,0.113161362708,0.108214132488,-5.50176429749,-0.305184811354,-0.430740356445,-0.00453857053071,2.150390625,0.0475808754563,6.23203849792,0.17958766222,18.02764701841,94.906616210955,45.1944313049,34.70193099972,787
1.6495062455982E+018,67,1.6495062455982E+018,r1000913c5/base_footprint,0,1.6495062455982E+018,v/m1vw10zy74w/map,-8.68142851439,-1.16963160231,0,0,0,-0.706418548892,0.70779434427,0,63.3334197998,21.2924613953,41.9153633118,95.3373565674,42.8206253052,42.8206253052,63.3334197998,63.3334197998,25.6757030487,0.12432666868,0,0.00463920179754,0.0829368010163,0.0955380871892,0.0908988788724,-3.26481437683,-0.181100413203,-0.430740356445,-0.00453857053071,2.37380599976,0.0525243021548,9.02622795105,0.260107368231,18.02764701847,94.906616210955,45.19443130496,34.70193099975,787
1.64950624569827E+018,68,1.64950624569827E+018,r1000913c5/base_footprint,0,1.64950624569828E+018,v/m1vw10zy74w/map,-8.65652399376,-1.27520498577,0,0,0,-0.716671386253,0.697411015203,0,63.4367294312,20.7516345978,42.4389457703,95.2835083008,42.675365448,42.675365448,63.4367294312,63.4367294312,22.0534439087,0.131317704916,0,0.00438473979011,0.0799913480878,0.0875872448087,0.0832025036216,-4.51413917542,-0.278007119894,-0.130172729492,-0.00136803113855,-1.23265838623,-0.0297436751425,14.025806427,0.388749927282,16.23749542238,95.153335571308,41.44270706177,36.0792503357,321
1.64950624579811E+018,69,1.64950624579811E+018,r1000913c5/base_footprint,0,1.64950624579811E+018,v/m1vw10zy74w/map,-8.65652399376,-1.27520498577,0,0,0,-0.716671386253,0.697411015203,0,63.2247848511,20.1974487305,42.7961959839,95.2835083008,42.66796875,42.66796875,63.2247848511,63.2247848511,25.7885398865,0.232995867729,0,0.00407597236335,0.0752706006169,0.0773184448481,0.0732424706221,-3.95995330811,-0.243877097964,-0.130172729492,-0.00136803113855,-1.22526168823,-0.0295651946217,10.2907104492,0.285225182772,16.23749542239,95.153335571308,41.44270706177,36.0792503357,321
1.64950624589867E+018,70,1.64950624589867E+018,r1000913c5/base_footprint,0,1.64950624589867E+018,v/m1vw10zy74w/map,-8.65652399376,-1.27520498577,0,0,0,-0.716671386253,0.697411015203,0,63.3230438232,18.419921875,42.7961959839,95.2835083008,42.571975708,42.571975708,63.3230438232,63.3230438232,22.9831886292,0.197173833847,0,0.00392661755905,0.0705034807324,0.0655650570989,0.0616384409368,-2.18242645264,-0.134406596422,-0.130172729492,-0.00136803113855,-1.12926864624,-0.0272489115596,13.0960617065,0.362980425358,16.23749542236,95.153335571308,41.44270706176,36.0792503357,321
1.64950624599938E+018,71,1.64950624599938E+018,r1000913c5/base_footprint,0,1.64950624599938E+018,v/m1vw10zy74w/map,-8.65907231773,-1.40082673086,0,0,0,-0.716220937986,0.697873604596,0,62.8904647827,18.7473545074,42.7961959839,95.0910491943,42.4500312805,42.4500312805,62.8904647827,62.8904647827,28.7597351074,0.123355098069,0,0.0038409656845,0.0659439489245,0.0564398616552,0.0525988973677,-2.99305725098,-0.189983546734,0.0744552612305,0.000782376562711,-1.22081756592,-0.029610497877,7.51915359497,0.207259759307,15.75429725642,95.1655044555305,41.22921371458,36.27888870237,324
1.64950624919917E+018,72,1.64950624919917E+018,r1000913c5/base_footprint,0,1.64950624919917E+018,v/m1vw10zy74w/map,-8.66668778626,-2.21704213555,0,0,0,-0.705647489323,0.708563067633,0,62.8503990173,17.3967456818,42.9152908325,95.5792236328,42.4688568115,42.4688568115,62.8503990173,62.8503990173,31.4416828156,0.292753636837,0,0.000134391782922,0.0415066294372,0.0110527751967,0.0111871678382,-5.29215908051,-0.437202781439,-0.165252685547,-0.00173195486423,-2.02061080933,-0.0499554611742,-2.73762512207,-0.0953741520643,12.10458660129,95.413970947253,40.44824600217,28.70405769353,206
1.6495062505983E+018,73,1.6495062505983E+018,r1000913c5/base_footprint,0,1.6495062505983E+018,v/m1vw10zy74w/map,-8.66612230545,-2.45346807395,0,0,0,-0.707872757446,0.70633997428,0,63.67760849,19.4071331024,42.7375869751,95.8444671631,42.6621284485,42.6621284485,63.67760849,63.67760849,19.5941295624,1.37097382545,0,0.000686401035637,0.120482318103,0.0117489499971,0.0124353505671,-8.33536052704,-0.752847909927,-0.493278503418,-0.00517328130081,-2.40323257446,-0.0596944466233,7.03305244446,0.264130562544,11.07177257536,95.351188659682,40.25889587404,26.62718200686,155
1.64950625069873E+018,74,1.64950625069873E+018,r1000913c5/base_footprint,0,1.64950625069873E+018,v/m1vw10zy74w/map,-8.66612230545,-2.45346807395,0,0,0,-0.707872757446,0.70633997428,0,62.7396392822,10.6912841797,42.4775352478,95.8444671631,42.5630683899,42.5630683899,62.7396392822,62.7396392822,35.4076843262,1.64729487896,0,0.000869684037752,0.195669710636,0.0129757383838,0.0138454232365,0.380488395691,0.0343656241894,-0.493278503418,-0.00517328130081,-2.30417251587,-0.0572338737547,-8.78050231934,-0.329757094383,11.071772575391,95.351188659682,40.25889587403,26.62718200686,155
1.64950625079927E+018,75,1.64950625079927E+018,r1000913c5/base_footprint,0,1.64950625079927E+018,v/m1vw10zy74w/map,-8.66612230545,-2.45346807395,0,0,0,-0.707872757446,0.70633997428,0,63.2307014465,10.23965168,42.4775352478,95.8444671631,42.2860221863,42.2860221863,63.2307014465,63.2307014465,23.576505661,1.39412260056,0,0.00125423329882,0.214062556624,0.0259029027075,0.0271571371704,0.832120895386,0.0751569718122,-0.493278503418,-0.00517328130081,-2.02712631226,-0.0503522567451,3.05067634583,0.114570006728,11.071772575386,95.351188659682,40.25889587404,26.62718200683,155
1.64950625109824E+018,76,1.64950625109824E+018,r1000913c5/base_footprint,0,1.64950625109824E+018,v/m1vw10zy74w/map,-8.66612230545,-2.45346807395,0,0,0,-0.707872757446,0.70633997428,0,62.8773078918,15.6010227203,42.4775352478,95.8444671631,42.1864051819,42.1864051819,62.8773078918,62.8773078918,28.8617095947,1.42290055752,0,0.00191835442092,0.213669866323,0.0402031503618,0.0421215035021,-4.52925014496,-0.409080862999,-0.493278503418,-0.00517328130081,-1.92750930786,-0.0478778481483,-2.23452758789,-0.0839190408587,11.07177257534,95.351188659682,40.25889587404,26.62718200681,155
1.64950625119844E+018,77,1.64950625119844E+018,r1000913c5/base_footprint,0,1.64950625119844E+018,v/m1vw10zy74w/map,-8.67271289988,-2.32948290358,0,0,0,-0.717880451451,0.696166400672,0,62.5929450989,14.5154466629,42.4775352478,95.5564651489,42.0922241211,42.0922241211,62.5929450989,62.5929450989,31.9262504578,1.50094592571,0,0.0020459368825,0.209518238902,0.0459781847894,0.0480241216719,-2.92277336121,-0.252122461796,-0.144836425781,-0.00151801644824,-1.7113609314,-0.0423804931343,-4.39134979248,-0.15948304534,11.59267330169,95.411628723119,40.3808631897,27.53490066532,181
1.64950625129845E+018,78,1.64950625129845E+018,r1000913c5/base_footprint,0,1.64950625129845E+018,v/m1vw10zy74w/map,-8.67271289988,-2.32948290358,0,0,0,-0.717880451451,0.696166400672,0,62.7749443054,15.3618278503,42.4775352478,95.5564651489,41.9909172058,41.9909172058,62.7749443054,62.7749443054,27.5562076569,1.50556015968,0,0.00171461096033,0.198716267943,0.0521396137774,0.0538542233407,-3.76915454865,-0.325132459402,-0.144836425781,-0.00151801644824,-1.61005401611,-0.0398717075586,-0.0213069915771,-0.000773817650042,11.59267330165,95.411628723119,40.38086318969,27.5349006653229,181
1.64950625139813E+018,79,1.64950625139813E+018,r1000913c5/base_footprint,0,1.64950625139813E+018,v/m1vw10zy74w/map,-8.67469310698,-2.2175119611,0,0,0,-0.722405091441,0.691470088912,0,62.4247779846,15.6010227203,42.4775352478,95.3115997314,42.0251579285,42.0251579285,62.4247779846,62.4247779846,33.3474769592,1.51550137997,0,0.00164791720454,0.176320180297,0.0469129569829,0.048560872674,-3.49643611908,-0.288852185011,0.10237121582,0.00107291643508,-1.57691192627,-0.038985915482,-4.64341926575,-0.161768734455,12.10458660122,95.41397094722,40.44824600223,28.70405769345,206
1.64950625149863E+018,80,1.64950625149863E+018,r1000913c5/base_footprint,0,1.64950625149863E+018,v/m1vw10zy74w/map,-8.672232878,-2.1061442959,0,0,0,-0.721475062034,0.69244041972,0,62.6256904602,9.43715572357,42.3265266418,95.1663894653,42.1003379822,42.1003379822,62.6256904602,62.6256904602,30.0202445984,1.62635815144,0,0.00110693310853,0.149583429098,0.0455507002771,0.0466576330364,3.26142597198,0.25683388114,0.197631835938,0.00207239412703,-1.5312461853,-0.0377441570163,0.308374404907,0.0101677691564,12.69858169555,95.364021301238,40.5690917969,30.328619003307,256
1.64950625159907E+018,81,1.64950625159907E+018,r1000913c5/base_footprint,0,1.64950625159907E+018,v/m1vw10zy74w/map,-8.67203340258,-2.08728328925,0,0,0,-0.721785749547,0.692116559368,0,62.668712616,13.6690645218,41.9720420837,95.4194335938,42.246421814,42.246421814,62.668712616,62.668712616,31.7345161438,1.58363592625,0,0.00120983866509,0.126119419932,0.0431281775236,0.0443380139768,-0.970482826233,-0.0764245018363,-0.0554122924805,-0.000581060769036,-1.67733001709,-0.0413450226188,-1.4058971405,-0.0463554635644,12.698581695567,95.3640213013195,40.56909179691,30.3286190033,256
1.64950625170007E+018,82,1.64950625170007E+018,r1000913c5/base_footprint,0,1.64950625170007E+018,v/m1vw10zy74w/map,-8.67203340258,-2.08728328925,0,0,0,-0.721785749547,0.692116559368,0,63.0932731628,13.3126935959,41.6693534851,95.4194335938,42.3661384583,42.3661384583,63.0932731628,63.0932731628,25.3853206635,1.19639182091,0,0.000915225013159,0.112236745656,0.0424022488296,0.0433174744248,-0.61411190033,-0.0483606681228,-0.0554122924805,-0.000581060769036,-1.79704666138,-0.0442959554493,4.94329833984,0.162991210818,12.69858169557,95.3640213013195,40.56909179692,30.32861900334,256
1.64950625179809E+018,83,1.64950625179809E+018,r1000913c5/base_footprint,0,1.64950625179809E+018,v/m1vw10zy74w/map,-8.67218722706,-1.97660510745,0,0,0,-0.723253528493,0.690582604417,0,63.1464233398,15.7155399323,41.2943267822,95.5634689331,42.6899719238,42.6899719238,63.1464233398,63.1464233398,28.4445972443,1.11650848389,0,0.000849341682624,0.0975061357021,0.0407761745155,0.0416255183518,-2.84183597565,-0.220747351646,-0.230018615723,-0.00241277972236,-2.04561233521,-0.0503295511007,2.66688537598,0.0857202932239,12.87370395665,95.333450317377,40.64435958859,31.11148262028,290
1.64950625189823E+018,84,1.64950625189823E+018,r1000913c5/base_footprint,0,1.64950625189823E+018,v/m1vw10zy74w/map,-8.66369897589,-1.8535954729,0,0,0,-0.723820751583,0.689988057562,0,62.8052902222,16.8509502411,40.795841217,95.442855835,42.8991699219,42.8991699219,62.8052902222,62.8052902222,36.4101295471,0.81215184927,0,0.000752875348553,0.0870207250118,0.0397976487875,0.0405505225062,-3.22801685333,-0.23695461452,-0.132621765137,-0.00139147450682,-2.12966918945,-0.0522368215024,-3.76927185059,-0.115477107465,13.62293338777,95.310234069863,40.76950073245,32.64085769651,307
1.64950625199842E+018,85,1.64950625199842E+018,r1000913c5/base_footprint,0,1.64950625199842E+018,v/m1vw10zy74w/map,-8.66369897589,-1.8535954729,0,0,0,-0.723820751583,0.689988057562,0,63.0849571228,15.966386795,40.5887947083,95.442855835,43.0506095886,43.0506095886,63.0849571228,63.0849571228,33.011680603,0.820775926113,0,0.000608615810052,0.0754841640592,0.039941906929,0.0405505225062,-2.34345340729,-0.172022670507,-0.132621765137,-0.00139147450682,-2.2811088562,-0.0559513568878,-0.370822906494,-0.0113606974483,13.62293338771,95.310234069863,40.7695007324,32.640857696506,307
1.64950625209847E+018,86,1.64950625209847E+018,r1000913c5/base_footprint,0,1.64950625209847E+018,v/m1vw10zy74w/map,-8.6594879806,-1.74664568732,0,0,0,-0.724031595712,0.689766807269,0,62.7623214722,16.5623703003,40.5887947083,95.1502304077,43.0781707764,43.0781707764,62.7623214722,62.7623214722,38.0633277893,0.824009716511,0,0.00059318455169,0.0687231197953,0.0399573370814,0.0405505225062,-2.22742843628,-0.155384540558,0.102569580078,0.0010768143693,-2.24369049072,-0.0549459792674,-3.96336746216,-0.116227917373,14.33494186402,95.252799987778,40.83448028568,34.09996032714,311
1.64950625219815E+018,87,1.64950625219815E+018,r1000913c5/base_footprint,0,1.64950625219815E+018,v/m1vw10zy74w/map,-8.6594879806,-1.74664568732,0,0,0,-0.724031595712,0.689766807269,0,62.8899688721,17.1499576569,40.4338607788,95.1502304077,43.0661277771,43.0661277771,62.8899688721,62.8899688721,35.6355934143,0.636902987957,0,0.000607633963227,0.0643595457077,0.0399428904057,0.0405505225062,-2.81501579285,-0.196374416351,0.102569580078,0.0010768143693,-2.23164749146,-0.054651055485,-1.53563308716,-0.0450332798064,14.33494186405,95.252799987778,40.83448028564,34.09996032714,311
1.64950625229875E+018,88,1.64950625229875E+018,r1000913c5/base_footprint,0,1.64950625229875E+018,v/m1vw10zy74w/map,-8.66309339848,-1.63035900897,0,0,0,-0.724267647339,0.68951894464,0,62.707988739,15.1660661697,40.4338607788,95.1044158936,42.921421051,42.921421051,62.707988739,62.707988739,37.1834602356,0.50272923708,0,0.000599543505814,0.0559066161513,0.0399509780109,0.0405505225062,-0.198766708374,-0.0132800647989,0.137588500977,0.00144461996388,-1.91809082031,-0.0467789024115,-2.19313049316,-0.0626781880856,14.967299461326,95.242004394577,41.00333023069,34.99032974244,316
1.64950625239916E+018,89,1.64950625239916E+018,r1000913c5/base_footprint,0,1.64950625239916E+018,v/m1vw10zy74w/map,-8.65844243734,-1.61823651762,0,0,0,-0.723148604902,0.690692475149,0,62.3843574524,13.3545312881,40.6739845276,95.3806686401,42.6644134521,42.6644134521,62.3843574524,62.3843574524,41.2276153564,0.441804081202,0,0.000578885024879,0.0493420697749,0.0399716384709,0.0405505225062,1.61276817322,0.107752785087,-0.138664245605,-0.00145591481123,-1.66108322144,-0.0405109338462,-6.23728561401,-0.178257405758,14.96729946132,95.242004394495,41.00333023066,34.99032974239,316
1.64950625249908E+018,90,1.64950625249908E+018,r1000913c5/base_footprint,0,1.64950625249908E+018,v/m1vw10zy74w/map,-8.65372560469,-1.51038311691,0,0,0,-0.723351682026,0.690479792688,0,61.987663269,14.1494436264,41.2232666016,95.330039978,42.3979721069,42.3979721069,61.987663269,61.987663269,45.3082771301,0.551338851452,0,0.000395729788579,0.0424308292568,0.0401547923684,0.0405505225062,1.30105018616,0.0842076763511,-0.134704589844,-0.0014150334755,-1.27196502686,-0.0309284832329,-9.38594436646,-0.261284381151,15.45049381256,95.195335388156,41.12600708004,35.92233276364,314
1.64950625259866E+018,91,1.64950625259866E+018,r1000913c5/base_footprint,0,1.64950625259866E+018,v/m1vw10zy74w/map,-8.65372560469,-1.51038311691,0,0,0,-0.723351682026,0.690479792688,0,61.7749328613,15.1660661697,42.0994033813,95.330039978,42.2139587402,42.2139587402,61.7749328613,61.7749328613,47.150100708,0.219313785434,0,0.000352409406332,0.033640306443,0.0401981137693,0.0405505225062,0.284427642822,0.018408967182,-0.134704589844,-0.0014150334755,-1.08795166016,-0.0264541041106,-11.2277679443,-0.312556773424,15.450493812522,95.195335388156,41.12600708004,35.9223327637,314
1.64950625269837E+018,92,1.64950625269837E+018,r1000913c5/base_footprint,0,1.64950625269837E+018,v/m1vw10zy74w/map,-8.6494195095,-1.39662886436,0,0,0,-0.724498718022,0.689276147552,0,61.7141227722,18.6140213013,42.0994033813,95.2243881226,42.0357131958,42.0357131958,61.7141227722,61.7141227722,45.9393005371,0.516895115376,0,0.000350831105607,0.0306351520121,0.0401996932924,0.0405505225062,-2.8597240448,-0.18152025342,-0.0588836669922,-0.000618750113063,-0.806499481201,-0.0195613596588,-9.66041183472,-0.26628190279,15.7542972565,95.1655044556078,41.229213714599,36.27888870238,324
1.64950625279812E+018,93,1.64950625279812E+018,r1000913c5/base_footprint,0,1.64950625279812E+018,v/m1vw10zy74w/map,-8.65013699556,-1.37776558508,0,0,0,-0.724458126129,0.689318811208,0,61.5172615051,18.0527381897,43.2234153748,95.2557601929,41.9245567322,41.9245567322,61.5172615051,61.5172615051,48.3952331543,0.506395637989,0,0.000392111833207,0.0222538318485,0.0394467562437,0.0398388691247,-2.29844093323,-0.145892947912,-0.0902557373047,-0.0009484080947,-0.695343017578,-0.016865298152,-12.1163444519,-0.333977818489,15.75429725647,95.1655044555953,41.229213714622,36.2788887024,324
1.64950625289824E+018,94,1.64950625289824E+018,r1000913c5/base_footprint,0,1.64950625289824E+018,v/m1vw10zy74w/map,-8.64555371156,-1.26755351803,0,0,0,-0.725784035697,0.687922621759,0,61.3673858643,17.0024166107,44.8988189697,95.4260101318,41.7896347046,41.7896347046,61.3673858643,61.3673858643,50.2487220764,0.256916612387,0,0.00040812138468,0.0181216560304,0.0394307486713,0.0398388691247,-0.764921188354,-0.047108322382,-0.272674560547,-0.00286563322879,-0.346927642822,-0.00837125908583,-14.1694717407,-0.392731875181,16.237495422346,95.153335571253,41.442707061778,36.0792503357,321
1.64950625299813E+018,95,1.64950625299813E+018,r1000913c5/base_footprint,0,1.64950625299813E+018,v/m1vw10zy74w/map,-8.64555371156,-1.26755351803,0,0,0,-0.725784035697,0.687922621759,0,61.4583473206,16.4300193787,46.1462783813,95.4260101318,41.6761894226,41.6761894226,61.4583473206,61.4583473206,47.3862533569,0.291703373194,0,0.000386704574339,0.0569778978825,0.0387949757278,0.0391816794872,-0.192523956299,-0.0118567524478,-0.272674560547,-0.00286563322879,-0.23348236084,-0.00563385896385,-11.3070030212,-0.313393503428,16.237495422401,95.153335571253,41.44270706176,36.0792503357,321
1.64950625309835E+018,96,1.64950625309835E+018,r1000913c5/base_footprint,0,1.64950625309835E+018,v/m1vw10zy74w/map,-8.63629478103,-1.13656478934,0,0,0,-0.723764469852,0.690047094176,0,61.8810844421,22.1328811646,47.2162704468,95.8441009521,41.6222381592,41.6222381592,61.8810844421,61.8810844421,40.6994018555,0.346398979425,0,0.000463487929665,0.0930476263165,0.0387181900442,0.0391816794872,-4.0874004364,-0.226505488157,-1.0756072998,-0.011349841021,3.90916442871,0.0858564451337,-5.96298217773,-0.171663701534,18.0454807282,94.7684936523,45.53140258791,34.73641967777,941
1.64950625319957E+018,97,1.64950625319957E+018,r1000913c5/base_footprint,0,1.64950625319957E+018,v/m1vw10zy74w/map,-8.63629478103,-1.13656478934,0,0,0,-0.723764469852,0.690047094176,0,62.1191635132,17.9784584045,47.6878585815,95.8441009521,41.5332527161,41.5332527161,62.1191635132,62.1191635132,35.4529190063,0.234261214733,0,0.000296317535685,0.122105516493,0.0355704016984,0.0352740846574,0.0670223236084,0.00371407810599,-1.0756072998,-0.011349841021,3.99814987183,0.0878108218312,-0.716499328613,-0.0206267461181,18.0454807281084,94.7684936523,45.53140258793,34.736419677687,941
1.64950625329954E+018,98,1.64950625329954E+018,r1000913c5/base_footprint,0,1.64950625329954E+018,v/m1vw10zy74w/map,-8.63629478103,-1.13656478934,0,0,0,-0.723764469852,0.690047094176,0,62.2152481079,18.4873943329,47.6878585815,95.8441009521,41.5042152405,41.5042152405,62.2152481079,62.2152481079,33.4098091125,0.508067786694,0,9.05076376512E-05,0.141231566668,0.0257862303406,0.0256957225502,-0.441913604736,-0.0244888793677,-1.0756072998,-0.011349841021,4.02718734741,0.0884485691786,1.32661056519,0.038190767169,18.045480728164,94.7684936523,45.53140258791,34.73641967769,941
1.64950625339858E+018,99,1.64950625339858E+018,r1000913c5/base_footprint,0,1.64950625339858E+018,v/m1vw10zy74w/map,-8.6367085757,-1.03587367154,0,0,0,-0.724983099231,0.688766655573,0,62.3915176392,17.9009742737,47.6878585815,95.7853317261,41.5753746033,41.5753746033,62.3915176392,62.3915176392,30.7938938141,0.330201983452,0,0.000654862145893,0.152545452118,0.0147562567145,0.0141013944522,0.192537307739,0.0106412349269,-1.1572265625,-0.0122292060405,4.42509078979,0.0961966514587,3.99194526672,0.11475776881,18.093511581439,94.6281051636,46.00046539309,34.78583908082,1080
1.64950625349828E+018,100,1.64950625349828E+018,r1000913c5/base_footprint,0,1.64950625349828E+018,v/m1vw10zy74w/map,-8.6367085757,-1.03587367154,0,0,0,-0.724983099231,0.688766655573,0,61.9505767822,20.1680679321,48.0295944214,95.7853317261,41.7414093018,41.7414093018,61.9505767822,61.9505767822,40.5239944458,0.13019824028,0,0.000881666433997,0.154487580061,0.00925568304956,0.00837401673198,-2.07455635071,-0.114657476544,-1.1572265625,-0.0122292060405,4.25905609131,0.0925872400403,-5.73815536499,-0.164956644177,18.09351158139,94.6281051636,46.00046539311,34.78583908081,1080
