%time,field.header.seq,field.header.stamp,field.header.frame_id,field.pose.header.seq,field.pose.header.stamp,field.pose.header.frame_id,field.pose.pose.position.x,field.pose.pose.position.y,field.pose.pose.position.z,field.pose.pose.orientation.x,field.pose.pose.orientation.y,field.pose.pose.orientation.z,field.pose.pose.orientation.w,field.label,field.main_output,field.scan_score,field.pose_score,field.cov_score,field.lhood_map_score,field.lhood_robot_score,field.lhood_map_score_all,field.lhood_robot_score_all,field.point_angle_diff,field.average_orientation,field.map_average_orientation,field.sensor_div,field.odom_div_x,field.odom_div_w,field.imu_div_w,field.kdtree_div,field.kdtree_div_p,field.cov_div,field.cov_div_p,field.likelihood_div,field.likelihood_div_p,field.normal_diff_div,field.normal_diff_div_p,field.kdtree_average,field.cov_average,field.likelihood_average,field.normal_diff_average,field.map_update_count
1.63084237145601E+018,0,1.63084237145601E+018,r1000913c5/base_footprint,0,1.63084237145601E+018,alta/m1vW10zy74W/map,-7.11195657361,-0.777921290678,0,0,0,-0.935905556394,0.352251031951,0,63.6815795898,14.4385023117,100,98.4464416504,43.2727279663,43.2727279663,63.6815795898,63.6815795898,35.484210968,0.442876845598,0,0.011771784164,0.529191076756,0.0629309862852,0.0511591993272,-4.84007930756,-0.50425773859,-2.24961853027,-0.0233855806291,3.1131362915,0.0671138986945,1.31582260132,0.0357560180128,9.59842300415,96.1968231201,46.3858642578,36.8000335693,263
1.63084237155658E+018,1,1.63084237155658E+018,r1000913c5/base_footprint,0,1.63084237155658E+018,alta/m1vW10zy74W/map,-7.11055186536,-0.782571337753,0,0,0,-0.922808721087,0.385258438307,0,63.1719779968,8.78090381622,72.2830047607,98.4139709473,43.0527000427,43.0527000427,63.1719779968,63.1719779968,42.163848877,0.513710796833,0,0.0118776429445,0.518584012985,0.0495636351407,0.0376859940588,0.817519187927,0.0851722434163,-2.21714782715,-0.0230480358005,3.33316421509,0.0718573257327,-5.36381530762,-0.145755723119,9.59842300415,96.1968231201,46.3858642578,36.8000335693,263
1.63084237165653E+018,2,1.63084237165653E+018,r1000913c5/base_footprint,0,1.63084237165653E+018,alta/m1vW10zy74W/map,-7.10274142483,-0.784998061913,0,0,0,-0.895316484268,0.445430570345,0,63.5604667664,3.7433154583,49.233997345,98.6384124756,42.795917511,42.795917511,63.5604667664,63.5604667664,33.2057723999,0.246706396341,0,0.0114066805691,0.510962128639,0.0385959781706,0.0271892957389,5.85510730743,0.610007226467,-2.44158935547,-0.0253811851144,3.58994674683,0.0773931220174,3.59426116943,0.0976700484753,9.59842300415,96.1968231201,46.3858642578,36.8000335693,263
1.63084237175678E+018,3,1.63084237175678E+018,r1000913c5/base_footprint,0,1.63084237175678E+018,alta/m1vW10zy74W/map,-7.1005359737,-0.78271255472,0,0,0,-0.884099805477,0.46729812107,0,62.9261665344,3.7433154583,49.0891036987,98.3384628296,42.5352630615,42.5352630615,62.9261665344,62.9261665344,40.7283287048,0.29876485467,0,0.0125273829326,0.508957624435,0.0320295020938,0.0195021182299,5.85510730743,0.610007226467,-2.14163970947,-0.0222631022334,3.85060119629,0.0830123871565,-3.9282951355,-0.106747053564,9.59842300415,96.1968231201,46.3858642578,36.8000335693,263
1.63084237185612E+018,4,1.63084237185612E+018,r1000913c5/base_footprint,0,1.63084237185612E+018,alta/m1vW10zy74W/map,-7.09556254276,-0.778982245088,0,0,0,-0.863375537861,0.504561869965,0,63.0254669189,3.32877326012,49.1943778992,98.2505493164,42.3770866394,42.3770866394,63.0254669189,63.0254669189,36.9160881042,0.0259899813682,0,0.0112561080605,0.485391288996,0.0134724816307,0.00221637333743,6.26964950562,0.653195798397,-2.05372619629,-0.0213492102921,4.00877761841,0.0864223986864,-0.116054534912,-0.00315365288407,9.59842300415,96.1968231201,46.3858642578,36.8000335693,263
1.63084237195592E+018,5,1.63084237195592E+018,r1000913c5/base_footprint,0,1.63084237195592E+018,alta/m1vW10zy74W/map,-7.0939081978,-0.776112824322,0,0,0,-0.845992041427,0.533195523089,0,62.5959777832,5.88235282898,49.0120811462,98.5283279419,42.2865791321,42.2865791321,62.5959777832,62.5959777832,44.6694221497,0.105514287949,0,0.00952974613756,0.464969784021,0.00194623996504,0.00758350593969,3.71607017517,0.387154251337,-2.33150482178,-0.0242368169129,4.09928512573,0.0883735865355,-7.86938858032,-0.213841885328,9.59842300415,96.1968231201,46.3858642578,36.8000335693,263
1.63084237205623E+018,6,1.63084237205623E+018,r1000913c5/base_footprint,0,1.63084237205623E+018,alta/m1vW10zy74W/map,-7.09324744735,-0.774966357772,0,0,0,-0.825657296301,0.564171985361,0,63.0230903625,9.43043899536,48.7518577576,98.6242446899,42.1253814697,42.1253814697,63.0230903625,63.0230903625,35.5857772827,0.133564963937,0,0.00646447530016,0.370964556932,0.0119178425521,0.0183823183179,0.167984008789,0.0175012089312,-2.42742156982,-0.0252339057624,4.26048278809,0.091848731041,1.21425628662,0.0329960659146,9.59842300415,96.1968231201,46.3858642578,36.8000335693,263
1.63084237215617E+018,7,1.63084237215617E+018,r1000913c5/base_footprint,0,1.63084237215617E+018,alta/m1vW10zy74W/map,-7.09030969599,-0.775107272754,0,0,0,-0.790701923097,0.612201330292,0,62.7730026245,13.4117650986,48.1424560547,98.8170928955,42.0072402954,42.0072402954,62.7730026245,62.7730026245,39.5056610107,0.185913652182,0,0.00524951703846,0.316187143326,0.0235575772822,0.0288070943207,-3.81334209442,-0.397288411856,-2.62026977539,-0.027238631621,4.3786239624,0.0943956524134,-2.70562744141,-0.0735224187374,9.59842300415,96.1968231201,46.3858642578,36.8000335693,263
1.63084237225638E+018,8,1.63084237225638E+018,r1000913c5/base_footprint,0,1.63084237225638E+018,alta/m1vW10zy74W/map,-7.08757939515,-0.772319306869,0,0,0,-0.769658733155,0.638455507047,0,63.3137969971,6.25,47.633605957,98.8929367065,41.9440193176,41.9440193176,63.3137969971,63.3137969971,29.3616428375,0.125179544091,0,0.00353599525988,0.263264149427,0.0350547470152,0.0385907441378,3.34842300415,0.348851382732,-2.69611358643,-0.0280270539224,4.44184494019,0.095758587122,7.43839073181,0.202130004764,9.59842300415,96.1968231201,46.3858642578,36.8000335693,263
1.6308423723566E+018,9,1.6308423723566E+018,r1000913c5/base_footprint,0,1.6308423723566E+018,alta/m1vW10zy74W/map,-7.08941337591,-0.776481646922,0,0,0,-0.753340021257,0.657631213046,0,62.6145477295,15.1398267746,47.1828651428,98.6510543823,41.9610900879,41.9610900879,62.6145477295,62.6145477295,41.2617225647,0.0087619824335,0,0.00101253890898,0.225462839007,0.0466810204089,0.0476935617626,-5.54140377045,-0.577324390411,-2.45423126221,-0.0255126021802,4.42477416992,0.095390573144,-4.46168899536,-0.121241435409,9.59842300415,96.1968231201,46.3858642578,36.8000335693,263
1.63084237315654E+018,10,1.63084237315654E+018,r1000913c5/base_footprint,0,1.63084237315655E+018,alta/m1vW10zy74W/map,-7.0918914313,-0.779136668992,0,0,0,-0.72966403449,0.68380581803,0,63.0203933716,16.1041469574,47.1828651428,98.7552947998,42.0592460632,42.0592460632,63.0203933716,63.0203933716,35.3917999268,0.108965106308,0,0.0146423317492,0.0459017753601,0.178527444601,0.163885101676,-6.50572395325,-0.677790939808,-2.55847167969,-0.0265962183475,4.32661819458,0.0932744964957,1.40823364258,0.0382671840489,9.59842300415,96.1968231201,46.3858642578,36.8000335693,263
1.63084237325686E+018,11,1.63084237325686E+018,r1000913c5/base_footprint,0,1.63084237325687E+018,alta/m1vW10zy74W/map,-7.0918914313,-0.779136668992,0,0,0,-0.72966403449,0.68380581803,0,63.0254707336,12.5455493927,46.1632728577,98.7552947998,42.6789855957,42.6789855957,63.0254707336,63.0254707336,41.9935951233,0.155091911554,0,0.0149444136769,0.0157945677638,0.236360058188,0.221415653825,-2.94712638855,-0.307042777538,-2.55847167969,-0.0265962183475,3.70687866211,0.0799139738083,-5.19356155396,-0.141129255295,9.59842300415,96.1968231201,46.3858642578,36.8000335693,263
1.63084237335648E+018,12,1.63084237335648E+018,r1000913c5/base_footprint,0,1.63084237335648E+018,alta/m1vW10zy74W/map,-7.0918914313,-0.779136668992,0,0,0,-0.72966403449,0.68380581803,0,63.4891891479,14.9159660339,46.1632728577,98.7552947998,43.3289413452,43.3289413452,63.4891891479,63.4891891479,40.6662406921,0.0564642809331,0,0.0246614180505,0.0294436160475,0.336462676525,0.311801254749,-5.31754302979,-0.554001748562,-2.55847167969,-0.0265962183475,3.0569229126,0.0659020394087,-3.8662071228,-0.105059877038,9.59842300415,96.1968231201,46.3858642578,36.8000335693,263
1.63084237345602E+018,13,1.63084237345602E+018,r1000913c5/base_footprint,0,1.63084237345602E+018,alta/m1vW10zy74W/map,-7.09372403954,-0.791005880298,0,0,0,-0.748804681413,0.662790727978,0,63.7881469727,8.38105106354,46.1632728577,98.7919235229,43.694278717,43.694278717,63.7881469727,63.7881469727,39.3624954224,0.233704909682,0,0.0474374853075,0.0501414053142,0.35671299696,0.309275507927,1.21737194061,0.126830413938,-2.59510040283,-0.0269769858569,2.69158554077,0.0580259859562,-2.56246185303,-0.0696320533752,9.59842300415,96.1968231201,46.3858642578,36.8000335693,263
1.63084237355613E+018,14,1.63084237355613E+018,r1000913c5/base_footprint,0,1.63084237355613E+018,alta/m1vW10zy74W/map,-7.0967583278,-0.812321509066,0,0,0,-0.773407573816,0.633909082412,0,64.1313247681,12.0204601288,46.1632728577,98.783241272,43.722240448,43.722240448,64.1313247681,64.1313247681,33.4559860229,0.149694219232,0,0.0469166152179,0.0726523399353,0.335222601891,0.288305997849,-2.09825515747,-0.211470648646,-2.5380859375,-0.026371050626,2.65868759155,0.0573228634894,3.31435775757,0.0901367068291,9.92220497131,96.2451553345,46.3809280396,36.7703437805,271
1.63084237365613E+018,15,1.63084237365613E+018,r1000913c5/base_footprint,0,1.63084237365613E+018,alta/m1vW10zy74W/map,-7.10847680562,-0.851380388487,0,0,0,-0.813541990039,0.581506174038,0,63.7648735046,17.2794113159,46.1632728577,98.5877532959,43.8281440735,43.8281440735,63.7648735046,63.7648735046,40.4921188354,0.114539906383,0,0.0516444519162,0.0941761359572,0.300384759903,0.248740300536,-7.3572063446,-0.741489052773,-2.34259796143,-0.0243399050087,2.55278396606,0.0550395175815,-3.72177505493,-0.101216763258,9.92220497131,96.2451553345,46.3809280396,36.7703437805,271
1.63084237375596E+018,16,1.63084237375596E+018,r1000913c5/base_footprint,0,1.63084237375596E+018,alta/m1vW10zy74W/map,-7.12180553192,-0.889695960852,0,0,0,-0.836682816282,0.54768774401,0,63.8997154236,19.4570140839,45.5469017029,98.5934906006,43.806098938,43.806098938,63.8997154236,63.8997154236,37.8475914001,0.229401767254,0,0.046503379941,0.107410006225,0.220296576619,0.173793196678,-9.49760818481,-0.953631997108,-2.30906677246,-0.0239817276597,2.54456710815,0.0548981763422,-1.15345001221,-0.0314341746271,9.95940589905,96.2844238281,46.3506660461,36.6941413879,276
1.63084237385623E+018,17,1.63084237385623E+018,r1000913c5/base_footprint,0,1.63084237385623E+018,alta/m1vW10zy74W/map,-7.14558346264,-0.941819579129,0,0,0,-0.847410768217,0.530937839968,0,64.2475891113,31.7844791412,45.3906860352,98.7782211304,44.1515388489,44.1515388489,64.2475891113,64.2475891113,35.9816436768,0.253607809544,0,0.0377992801368,0.104537710547,0.18074914813,0.142949879169,-21.2667655945,-2.0219950676,-2.4494934082,-0.0254284832627,2.2444190979,0.0483753159642,0.590965270996,0.0161586850882,10.5177135468,96.3287277222,46.3959579468,36.5726089478,282
1.63084237395664E+018,18,1.63084237395664E+018,r1000913c5/base_footprint,0,1.63084237395664E+018,alta/m1vW10zy74W/map,-7.14805011689,-0.947809834584,0,0,0,-0.847516609348,0.530768873314,0,64.7612457275,26.3510284424,45.2935638428,98.8852386475,44.5404510498,44.5404510498,64.7612457275,64.7612457275,31.3213176727,0.345996409655,0,0.0204780101776,0.100372709334,0.133581414819,0.113103397191,-15.8333148956,-1.50539517403,-2.55651092529,-0.0265394449234,1.85550689697,0.0399928577244,5.25129127502,0.14358535409,10.5177135468,96.3287277222,46.3959579468,36.5726089478,282
1.63084237405712E+018,19,1.63084237405712E+018,r1000913c5/base_footprint,0,1.63084237405712E+018,alta/m1vW10zy74W/map,-7.17257285894,-1.00331400133,0,0,0,-0.844884598055,0.534948610588,0,65.2286071777,35.8288764954,45.2563667297,99.0979003906,45.5945854187,45.5945854187,65.2286071777,65.2286071777,35.0590515137,0.22810600698,0,0.0165979340672,0.0952363088727,0.115243703127,0.0986457690597,-25.3317298889,-2.41320180893,-2.72443389893,-0.0282695442438,0.713970184326,0.0154176736251,1.55067062378,0.042356800288,10.4971456528,96.3734664917,46.308555603,36.6097221375,281
1.63084237415721E+018,20,1.63084237415721E+018,r1000913c5/base_footprint,0,1.63084237415721E+018,alta/m1vW10zy74W/map,-7.20517838759,-1.07478438513,0,0,0,-0.832700665193,0.553723398628,0,65.7977828979,35.0912780762,45.3738174438,98.8596801758,46.3101272583,46.3101272583,65.7977828979,65.7977828979,31.6841392517,0.270432710648,0,0.0103488378227,0.0865403115749,0.0997887998819,0.089439958334,-24.373298645,-2.27405714989,-2.3200302124,-0.0240318905562,-0.249008178711,-0.00540603836998,4.58158111572,0.126333653927,10.7179794312,96.5396499634,46.0611190796,36.2657203674,266
1.63084237425658E+018,21,1.63084237425658E+018,r1000913c5/base_footprint,0,1.63084237425658E+018,alta/m1vW10zy74W/map,-7.23168294334,-1.15498787772,0,0,0,-0.803761688529,0.594951382933,0,65.7644348145,27.7443256378,45.6004981995,98.7474365234,46.3822631836,46.3822631836,65.7644348145,65.7644348145,32.6593284607,0.197137653828,0,0.00505400961265,0.0826463922858,0.0960608124733,0.0910068079829,-16.6345119476,-1.49728095531,-2.05328369141,-0.0212348271161,-0.413948059082,-0.00900507345796,3.44267654419,0.0953597053885,11.1098136902,96.694152832,45.9683151245,36.1020050049,255
1.63084237435636E+018,22,1.63084237435636E+018,r1000913c5/base_footprint,0,1.63084237435636E+018,alta/m1vW10zy74W/map,-7.23644776722,-1.16771045686,0,0,0,-0.799847057679,0.600203868967,0,65.6033401489,25.3034553528,45.7712173462,98.7580337524,46.4678459167,46.4678459167,65.6033401489,65.6033401489,36.5215072632,0.158247977495,0,0.00587178394198,0.07485396415,0.0993756130338,0.0935038328171,-13.7680330276,-1.19354391098,-1.90944671631,-0.0197157934308,-0.609100341797,-0.0132820978761,-0.339645385742,-0.00938717275858,11.5354223251,96.8485870361,45.858745575,36.1818618774,229
1.63084237445631E+018,23,1.63084237445631E+018,r1000913c5/base_footprint,0,1.63084237445631E+018,alta/m1vW10zy74W/map,-7.25325599624,-1.23398960835,0,0,0,-0.7805446062,0.625100086172,0,65.8031997681,28.1045761108,45.7505378723,98.5194396973,46.6234436035,46.6234436035,65.8031997681,65.8031997681,33.7456283569,0.118585988879,0,0.00756633514538,0.0689642578363,0.102292515337,0.0947261825204,-14.4298648834,-1.0552226305,-1.12635040283,-0.0115649932995,-1.41704940796,-0.0313462167978,1.68988800049,0.0476891025901,13.6747112274,97.3930892944,45.2063941956,35.4355163574,143
1.63084237455635E+018,24,1.63084237455635E+018,r1000913c5/base_footprint,0,1.63084237455635E+018,alta/m1vW10zy74W/map,-7.26854253758,-1.33867022066,0,0,0,-0.741528280087,0.670921612285,0,65.9196243286,23.1125526428,45.7026176453,98.7284393311,46.6878700256,46.6878700256,65.9196243286,65.9196243286,33.0981826782,0.13039496541,0,0.00309530412778,0.0611779689789,0.111920453608,0.108825147152,-4.60104751587,-0.248550698161,-0.993835449219,-0.0101687163115,-1.09266281128,-0.0239644218236,0.144138336182,0.00433598877862,18.511505127,97.7346038818,45.5952072144,33.2423210144,99
1.63084237465765E+018,25,1.63084237465765E+018,r1000913c5/base_footprint,0,1.63084237465765E+018,alta/m1vW10zy74W/map,-7.27125863833,-1.34546725857,0,0,0,-0.740522561903,0.67203149875,0,66.3402328491,25.8916168213,45.8332710266,98.6248855591,46.9080619812,46.9080619812,66.3402328491,66.3402328491,27.5324821472,0.141916066408,0,0.00423707440495,0.0555931329727,0.130085915327,0.125848844647,-7.38011169434,-0.398677021265,-0.890281677246,-0.00910917576402,-1.31285476685,-0.028793701902,5.70983886719,0.171764150262,18.511505127,97.7346038818,45.5952072144,33.2423210144,99
1.63084237475705E+018,26,1.63084237475705E+018,r1000913c5/base_footprint,0,1.63084237475705E+018,alta/m1vW10zy74W/map,-7.27721581987,-1.43160002968,0,0,0,-0.720872053925,0.693068165385,0,66.3212203979,29.2279415131,45.9838943481,98.3428955078,47.4227218628,47.4227218628,66.3212203979,66.3212203979,32.4179077148,-0.0383036658168,0,0.00716260634363,0.0498280972242,0.135461226106,0.12829862535,-10.8178672791,-0.587605834007,-0.645454406738,-0.00660666637123,-1.77327346802,-0.0388454534113,0.232849121094,0.00713150762022,18.410074234,97.6974411011,45.6494483948,32.6507568359,97
1.63084237755642E+018,27,1.63084237755642E+018,r1000913c5/base_footprint,0,1.63084237755642E+018,alta/m1vW10zy74W/map,-7.27100053476,-2.29325709713,0,0,0,-0.709811676012,0.704391499521,0,66.7480621338,31.1334285736,46.0928382874,98.3137359619,48.015411377,48.015411377,66.7480621338,66.7480621338,31.03083992,0.356981545687,0,0.00215862831101,0.0367327816784,0.0101331267506,0.0122917545959,-19.1205635071,-1.5916737318,-0.208000183105,-0.00212016329169,-3.03802490234,-0.067545607686,1.46361732483,0.0450420603156,12.0128660202,98.1057357788,44.9773864746,32.4944572449,46
1.6308423776562E+018,28,1.6308423776562E+018,r1000913c5/base_footprint,0,1.6308423776562E+018,alta/m1vW10zy74W/map,-7.27172998232,-2.38043025055,0,0,0,-0.714918193335,0.69920810696,0,67.380317688,25.3196926117,46.0263252258,97.7951583862,48.2373466492,48.2373466492,67.380317688,67.380317688,20.1801357269,1.31583428383,0,0.00232762400992,0.02201513201,0.0137041741982,0.0160317979753,-14.2782039642,-1.29314124584,0.309173583984,0.00315147731453,-3.33242416382,-0.0742106661201,12.630865097,0.38495823741,11.0414886475,98.1043319702,44.9049224854,32.811000824,42
1.63084237925631E+018,29,1.63084237925631E+018,r1000913c5/base_footprint,0,1.63084237925631E+018,alta/m1vW10zy74W/map,-7.27412745929,-2.52961082839,0,0,0,-0.711758929604,0.702423822296,0,67.3468551636,28.4313716888,45.974609375,97.9007415771,48.3286132812,48.3286132812,67.3468551636,67.3468551636,22.1483650208,1.41499733925,0,0.00524549325928,0.1672424227,0.00916066300124,0.0144061557949,-18.2984256744,-1.8058347702,0.244857788086,0.0024948422797,-3.43900680542,-0.0766103118658,11.0342636108,0.33253133297,10.1329460144,98.1455993652,44.8896064758,33.1826286316,33
1.6308423793563E+018,30,1.6308423793563E+018,r1000913c5/base_footprint,0,1.6308423793563E+018,alta/m1vW10zy74W/map,-7.27412745929,-2.52961082839,0,0,0,-0.711758929604,0.702423822296,0,66.6795196533,0.0520562194288,45.8911170959,97.9007415771,48.2258415222,48.2258415222,66.6795196533,66.6795196533,33.0504379272,0.497088462114,0,0.00513370428234,0.221845343709,0.0108117684722,0.0159454718232,10.0808897018,0.994862675667,0.244857788086,0.0024948422797,-3.33623504639,-0.0743208825588,0.132190704346,0.00398373231292,10.1329460144,98.1455993652,44.8896064758,33.1826286316,33
1.63084237945621E+018,31,1.63084237945621E+018,r1000913c5/base_footprint,0,1.63084237945621E+018,alta/m1vW10zy74W/map,-7.27412745929,-2.52961082839,0,0,0,-0.711758929604,0.702423822296,0,67.6274261475,0.0520562194288,45.8911170959,97.9007415771,48.0952911377,48.0952911377,67.6274261475,67.6274261475,14.5782003403,0.549525380135,0,0.0051410230808,0.242211818695,0.0117127848789,0.016853807494,10.0808897018,0.994862675667,0.244857788086,0.0024948422797,-3.20568466187,-0.0714126229286,18.6044273376,0.560667693615,10.1329460144,98.1455993652,44.8896064758,33.1826286316,33
1.63084237955625E+018,32,1.63084237955625E+018,r1000913c5/base_footprint,0,1.63084237955625E+018,alta/m1vW10zy74W/map,-7.27412745929,-2.52961082839,0,0,0,-0.711758929604,0.702423822296,0,67.4057846069,0,45.8911170959,97.9007415771,47.7664642334,47.7664642334,67.4057846069,67.4057846069,15.0163974762,0.178297549486,0,0.00466543994844,0.275877356529,0.010763598606,0.0154290385544,10.1329460144,1,0.244857788086,0.0024948422797,-2.87685775757,-0.0640873908997,18.1662311554,0.547462105751,10.1329460144,98.1455993652,44.8896064758,33.1826286316,33
1.63084237965815E+018,33,1.63084237965815E+018,r1000913c5/base_footprint,0,1.63084237965815E+018,alta/m1vW10zy74W/map,-7.27412745929,-2.52961082839,0,0,0,-0.711758929604,0.702423822296,0,66.8249969482,0,45.8911170959,97.9007415771,47.5049438477,47.5049438477,66.8249969482,66.8249969482,22.6461486816,0.473832935095,0,0.00397857790813,0.288530766964,0.00951934233308,0.0134979197755,10.1329460144,1,0.244857788086,0.0024948422797,-2.61533737183,-0.0582615360618,10.53647995,0.31753000617,10.1329460144,98.1455993652,44.8896064758,33.1826286316,33
1.63084237975641E+018,34,1.63084237975641E+018,r1000913c5/base_footprint,0,1.63084237975641E+018,alta/m1vW10zy74W/map,-7.27306967604,-2.45581414719,0,0,0,-0.711001612273,0.703190377739,0,66.5092926025,0,45.8911170959,97.8003921509,47.2751121521,47.2751121521,66.5092926025,66.5092926025,25.485376358,0.677177488804,0,0.00490347808227,0.283908933401,0.0123930443078,0.0172965228558,10.5989599228,1,0.368408203125,0.00375280342996,-2.39200973511,-0.0532942153513,7.72636604309,0.232639580965,10.5989599228,98.168800354,44.883102417,33.2117424011,38
1.63084237985616E+018,35,1.63084237985616E+018,r1000913c5/base_footprint,0,1.63084237985616E+018,alta/m1vW10zy74W/map,-7.27184855267,-2.38135785945,0,0,0,-0.711876973713,0.702304189292,0,66.2205352783,0,45.8911170959,97.8950424194,46.8908195496,46.8908195496,66.2205352783,66.2205352783,26.8733692169,-0.066535808146,0,0.00529912952334,0.271574914455,0.0192751605064,0.024574290961,11.0414886475,1,0.209289550781,0.00213333638385,-1.98589706421,-0.044224485755,5.93763160706,0.180964663625,11.0414886475,98.1043319702,44.9049224854,32.811000824,42
1.63084237995604E+018,36,1.63084237995604E+018,r1000913c5/base_footprint,0,1.63084237995604E+018,alta/m1vW10zy74W/map,-7.27184855267,-2.38135785945,0,0,0,-0.711876973713,0.702304189292,0,65.856338501,0,45.8911170959,97.8950424194,46.6967391968,46.6967391968,65.856338501,65.856338501,31.3328762054,0.11317498982,0,0.00593089684844,0.26297006011,0.020890917629,0.0268218144774,11.0414886475,1,0.209289550781,0.00213333638385,-1.79181671143,-0.0399024561048,1.47812461853,0.0450496673584,11.0414886475,98.1043319702,44.9049224854,32.811000824,42
1.63084238005623E+018,37,1.63084238005623E+018,r1000913c5/base_footprint,0,1.63084238005623E+018,alta/m1vW10zy74W/map,-7.2708288828,-2.29504915195,0,0,0,-0.714076767487,0.700067403994,0,66.1479721069,0,45.718624115,97.9362792969,46.5931777954,46.5931777954,66.1479721069,66.1479721069,25.1133937836,0.07738019526,0,0.00284620956518,0.250220775604,0.0165537055582,0.0193999148905,12.0128660202,1,0.169456481934,0.0017272841651,-1.6157913208,-0.0359245277941,7.3810634613,0.227148383856,12.0128660202,98.1057357788,44.9773864746,32.4944572449,46
1.63084238015627E+018,38,1.63084238015627E+018,r1000913c5/base_footprint,0,1.63084238015627E+018,alta/m1vW10zy74W/map,-7.26642755055,-2.21446362489,0,0,0,-0.715313072279,0.698804127511,0,66.0256652832,0,45.718624115,97.7455368042,46.5960464478,46.5960464478,66.0256652832,66.0256652832,26.6592140198,0.106917135417,0,0.00348602398299,0.243287399411,0.0052647436969,0.00875076744705,12.4023790359,1,0.383316040039,0.00390625232831,-1.66504669189,-0.0370578616858,5.79950332642,0.17867320776,12.4023790359,98.1288528442,44.9309997559,32.4587173462,51
1.63084238025623E+018,39,1.63084238025623E+018,r1000913c5/base_footprint,0,1.63084238025623E+018,alta/m1vW10zy74W/map,-7.26443631446,-2.13928425824,0,0,0,-0.715730112376,0.698376980031,0,65.3659286499,0,45.4625892639,97.5450210571,46.7022743225,46.7022743225,65.3659286499,65.3659286499,38.9599533081,0.144515529275,0,0.00355901406147,0.233204692602,0.0110284583643,0.0145874721929,14.1546478271,1,0.517311096191,0.00527532910928,-1.45539474487,-0.0321656391025,-6.52312469482,-0.201102420688,14.1546478271,98.0623321533,45.2468795776,32.4368286133,61
1.63084238035678E+018,40,1.63084238035678E+018,r1000913c5/base_footprint,0,1.63084238035679E+018,alta/m1vW10zy74W/map,-7.26443631446,-2.13928425824,0,0,0,-0.715730112376,0.698376980031,0,65.5193939209,3.11418676376,45.0157318115,97.5450210571,46.9412918091,46.9412918091,65.5193939209,65.5193939209,38.7789382935,-0.0532275252044,0,0.00139068358112,0.213091343641,0.0110621815547,0.0124528650194,11.0404605865,0.779988348484,0.517311096191,0.00527532910928,-1.69441223145,-0.037448156625,-6.34210968018,-0.195521876216,14.1546478271,98.0623321533,45.2468795776,32.4368286133,61
1.63084238045662E+018,41,1.63084238045662E+018,r1000913c5/base_footprint,0,1.63084238045662E+018,alta/m1vW10zy74W/map,-7.26287662027,-2.06735415442,0,0,0,-0.715587952365,0.698522642747,0,65.9245529175,2.12555599213,44.6635551453,97.5163574219,47.1522026062,47.1522026062,65.9245529175,65.9245529175,33.6607055664,0.193345323205,0,0.000765033939388,0.170896813273,0.00978196319193,0.0105469971895,12.6787366867,0.856423020363,0.526588439941,0.00537099782377,-1.84815979004,-0.0407945886254,-1.14679718018,-0.03527097404,14.8042926788,98.0429458618,45.3040428162,32.5139083862,70
1.63084238055611E+018,42,1.63084238055611E+018,r1000913c5/base_footprint,0,1.63084238055611E+018,alta/m1vW10zy74W/map,-7.26057456801,-1.97529183619,0,0,0,-0.715700885659,0.698406931715,0,65.6514434814,4.47461032867,44.6615753174,97.3963851929,47.5412559509,47.5412559509,65.6514434814,65.6514434814,42.3465270996,0.378004163504,0,0.000464473880129,0.151225402951,0.00961503945291,0.0100795133039,11.6681642532,0.722810328007,0.579887390137,0.00591865135357,-2.02753067017,-0.0445476770401,-10.229801178,-0.318519413471,16.1427745819,97.976272583,45.5137252808,32.1167259216,78
1.63084238065599E+018,43,1.63084238065599E+018,r1000913c5/base_footprint,0,1.63084238065599E+018,alta/m1vW10zy74W/map,-7.26041358228,-1.97588049117,0,0,0,-0.715641932763,0.698467339302,0,66.2123413086,4.90196084976,44.7112503052,97.4207992554,47.9254646301,47.9254646301,66.2123413086,66.2123413086,36.487701416,0.127790302038,0,3.25533183059E-05,0.135973274708,0.0101120667532,0.0100795133039,11.240814209,0.696337163448,0.555473327637,0.00566946808249,-2.41173934937,-0.0529892742634,-4.37097549438,-0.136096552014,16.1427745819,97.976272583,45.5137252808,32.1167259216,78
1.63084238075617E+018,44,1.63084238075617E+018,r1000913c5/base_footprint,0,1.63084238075617E+018,alta/m1vW10zy74W/map,-7.25751656975,-1.88289757271,0,0,0,-0.715978776758,0.698122046087,0,65.6820831299,2.12555599213,44.7219390869,97.6128997803,48.2438430786,48.2438430786,65.6820831299,65.6820831299,50.1624412537,0.259231835604,0,0.000321297615301,0.12140315026,0.0104008112103,0.0100795133039,14.0828371048,0.868860781193,0.307777404785,0.0031431298703,-2.63041687012,-0.0576676018536,-18.0086936951,-0.560080707073,16.2083930969,97.9206771851,45.6134262085,32.1537475586,80
1.63084238085624E+018,45,1.63084238085624E+018,r1000913c5/base_footprint,0,1.63084238085624E+018,alta/m1vW10zy74W/map,-7.25515514516,-1.80266175673,0,0,0,-0.71575923846,0.698347128983,0,66.338104248,9.3539056778,44.7219390869,97.7286071777,48.5965080261,48.5965080261,66.338104248,66.338104248,42.5793380737,0.0155615555122,0,0.000638542405795,0.111459083855,0.0100501924753,0.0106887351722,7.96157360077,0.459795147181,0.0877914428711,0.000897512538359,-2.86513900757,-0.0626515001059,-9.85443496704,-0.301129549742,17.3154792786,97.8163986206,45.7313690186,32.7249031067,93
1.63084238095662E+018,46,1.63084238095662E+018,r1000913c5/base_footprint,0,1.63084238095662E+018,alta/m1vW10zy74W/map,-7.25457232959,-1.71954877711,0,0,0,-0.715344696385,0.698771754834,0,66.3859329224,9.3539056778,44.8637008667,97.4022369385,48.8811187744,48.8811187744,66.3859329224,66.3859329224,43.6173324585,0.12135180831,0,0.000481091701658,0.100623063743,0.0102076437324,0.0106887351722,8.46161746979,0.474957555532,0.366287231445,0.00374647392891,-3.16917037964,-0.0693291500211,-10.9371299744,-0.33467143774,17.8155231476,97.7685241699,45.7119483948,32.6802024841,94
1.63084238105602E+018,47,1.63084238105602E+018,r1000913c5/base_footprint,0,1.63084238105602E+018,alta/m1vW10zy74W/map,-7.25431812976,-1.71590803211,0,0,0,-0.715553937541,0.698557486875,0,66.4722061157,8.27517414093,44.8637008667,97.4702911377,49.2684326172,49.2684326172,66.4722061157,66.4722061157,46.4923439026,0.212998136878,0,0.00018271135923,0.0961753204465,0.0105060236529,0.0106887351722,9.54034900665,0.535507678986,0.298233032227,0.00305039924569,-3.55648422241,-0.0778020694852,-13.8121414185,-0.422645539045,17.8155231476,97.7685241699,45.7119483948,32.6802024841,94
1.63084238115697E+018,48,1.63084238115697E+018,r1000913c5/base_footprint,0,1.63084238115698E+018,alta/m1vW10zy74W/map,-7.25431812976,-1.71590803211,0,0,0,-0.715553937541,0.698557486875,0,66.2898864746,8.27517414093,45.0689697266,97.4702911377,49.4398918152,49.4398918152,66.2898864746,66.2898864746,51.6259689331,-0.00495912181213,0,9.34238414629E-05,0.0932831764221,0.0107821589336,0.0106887351722,9.54034900665,0.535507678986,0.298233032227,0.00305039924569,-3.72794342041,-0.0815529301763,-18.945766449,-0.579732239246,17.8155231476,97.7685241699,45.7119483948,32.6802024841,94
1.63084238125711E+018,49,1.63084238125711E+018,r1000913c5/base_footprint,0,1.63084238125711E+018,alta/m1vW10zy74W/map,-7.25244882221,-1.62602356334,0,0,0,-0.716200545959,0.697894532123,0,66.297744751,7.06870985031,45.1830711365,97.133140564,49.5866584778,49.5866584778,66.297744751,66.297744751,51.8558502197,0.283746570349,0,7.9096891568E-05,0.0911137089133,0.0106096379459,0.0106887351722,11.147151947,0.611947536469,0.640419006348,0.00655002240092,-3.9277305603,-0.0860232785344,-18.8457489014,-0.570908546448,18.2158622742,97.7735595703,45.6589279175,33.0101013184,96
1.6308423813561E+018,50,1.6308423813561E+018,r1000913c5/base_footprint,0,1.63084238135611E+018,alta/m1vW10zy74W/map,-7.25244882221,-1.62602356334,0,0,0,-0.716200545959,0.697894532123,0,66.5933990479,9.27218341827,45.1830711365,97.133140564,49.7390098572,49.7390098572,66.5933990479,66.5933990479,48.179473877,0.0424967333674,0,0.00074808235513,0.0867877453566,0.00994065310806,0.0106887351722,8.9436788559,0.490983009338,0.640419006348,0.00655002240092,-4.0800819397,-0.0893600061536,-15.1693725586,-0.459537297487,18.2158622742,97.7735595703,45.6589279175,33.0101013184,96
1.63084238145597E+018,51,1.63084238145597E+018,r1000913c5/base_footprint,0,1.63084238145597E+018,alta/m1vW10zy74W/map,-7.24946798871,-1.5446878745,0,0,0,-0.716429272343,0.697659729188,0,66.2782516479,5.28414773941,45.1408920288,97.1596374512,49.8803634644,49.8803634644,66.2782516479,66.2782516479,55.4740524292,0.120863489807,0,0.000123818885186,0.0773513019085,0.0108125535771,0.0106887351722,13.4351234436,0.717716157436,0.6064453125,0.00620302371681,-4.12017059326,-0.0900383144617,-22.9934539795,-0.707913517952,18.7192707062,97.7660827637,45.7601928711,32.4805984497,93
1.63084238155619E+018,52,1.63084238155619E+018,r1000913c5/base_footprint,0,1.63084238155619E+018,alta/m1vW10zy74W/map,-7.24711071094,-1.47413311672,0,0,0,-0.716813204422,0.697265250795,0,66.6987380981,13.7931032181,45.309551239,97.0516586304,50.0250854492,50.0250854492,66.6987380981,66.6987380981,49.0796661377,0.0904722586274,0,0.000314889795845,0.07161090523,0.0103738456964,0.0106887351722,4.92279338837,0.263027399778,0.6787109375,0.00694472901523,-4.3484992981,-0.0952019318938,-16.7615470886,-0.518642425537,18.7158966064,97.7303695679,45.6765861511,32.3181190491,95
1.6308423816561E+018,53,1.6308423816561E+018,r1000913c5/base_footprint,0,1.6308423816561E+018,alta/m1vW10zy74W/map,-7.24549109453,-1.39927949844,0,0,0,-0.718105804078,0.695933943812,0,67.3513336182,12.5188541412,45.8204154968,97.3603286743,50.3636016846,50.3636016846,67.3513336182,67.3513336182,42.1000404358,0.0544058382511,0,0.00118858704809,0.0649278089404,0.0118773216382,0.0106887351722,6.17104721069,0.330180823803,0.368782043457,0.00377351278439,-4.67817306519,-0.102399677038,-9.11825561523,-0.276463389397,18.6899013519,97.7291107178,45.6854286194,32.9817848206,97
1.63084238175608E+018,54,1.63084238175608E+018,r1000913c5/base_footprint,0,1.63084238175608E+018,alta/m1vW10zy74W/map,-7.24324726673,-1.32512861537,0,0,0,-0.716327584994,0.697764137067,0,66.9107818604,14.0664958954,46.5278549194,97.1274871826,50.4950675964,50.4950675964,66.9107818604,66.9107818604,50.6116447449,-0.0572338663042,0,6.98145013303E-05,0.0408440567553,0.0107585499063,0.0106887351722,4.44500923157,0.240121439099,0.607116699219,0.00621189083904,-4.89986038208,-0.107464373112,-17.3693237305,-0.522506356239,18.511505127,97.7346038818,45.5952072144,33.2423210144,99
1.63084238185605E+018,55,1.63084238185605E+018,r1000913c5/base_footprint,0,1.63084238185605E+018,alta/m1vW10zy74W/map,-7.24250250202,-1.33304414304,0,0,0,-0.718307804662,0.695725447114,0,67.2351989746,16.8356990814,46.5278549194,97.2001876831,50.5757331848,50.5757331848,67.2351989746,67.2351989746,45.9050483704,-0.0297400746495,0,0.00017527017917,0.00338150956668,0.0105134649202,0.0106887351722,1.67580604553,0.0905278101563,0.53441619873,0.00546803465113,-4.98052597046,-0.109233543277,-12.662727356,-0.38092187047,18.511505127,97.7346038818,45.5952072144,33.2423210144,99
1.63084238195674E+018,56,1.63084238195674E+018,r1000913c5/base_footprint,0,1.63084238195675E+018,alta/m1vW10zy74W/map,-7.23792464656,-1.25831662785,0,0,0,-0.718767100644,0.695250929544,0,67.2374649048,14.529914856,47.2760276794,97.3660736084,50.7344017029,50.7344017029,67.2374649048,67.2374649048,48.1750297546,-0.0502981469035,0,0.00011621327576,0.0576831325889,0.010804948397,0.0106887351722,-0.85520362854,-0.0625390633941,0.0270156860352,0.000277388113318,-5.52800750732,-0.122283749282,-12.7395133972,-0.35951256752,13.6747112274,97.3930892944,45.2063941956,35.4355163574,143
1.63084238205631E+018,57,1.63084238205631E+018,r1000913c5/base_footprint,0,1.63084238205631E+018,alta/m1vW10zy74W/map,-7.2369663443,-1.18094526465,0,0,0,-0.718305937172,0.695727375215,0,67.9044265747,20.5630970001,48.1139259338,97.2622756958,50.8737792969,50.8737792969,67.9044265747,67.9044265747,37.3013343811,0.113273322582,0,0.00106617144775,0.095587939024,0.00917563401163,0.00810946244746,-9.02767467499,-0.782604634762,-0.413688659668,-0.00427149934694,-5.01503372192,-0.109358280897,-1.11947250366,-0.0309401582927,11.5354223251,96.8485870361,45.858745575,36.1818618774,229
1.63084238215617E+018,58,1.63084238215617E+018,r1000913c5/base_footprint,0,1.63084238215617E+018,alta/m1vW10zy74W/map,-7.23744872493,-1.16764280106,0,0,0,-0.718670800788,0.695350472852,0,67.927482605,20.2046031952,48.8152732849,97.1625061035,51.2081413269,51.2081413269,67.927482605,67.927482605,40.13829422,0.0275921449065,0,0.000576506077778,0.140772908926,0.0129354894161,0.0135119957849,-8.66918087006,-0.75152695179,-0.313919067383,-0.00324133853428,-5.34939575195,-0.116649411619,-3.95643234253,-0.109348498285,11.5354223251,96.8485870361,45.858745575,36.1818618774,229
1.6308423822562E+018,59,1.6308423822562E+018,r1000913c5/base_footprint,0,1.6308423822562E+018,alta/m1vW10zy74W/map,-7.23475062364,-1.09991536038,0,0,0,-0.719170882307,0.694833247652,0,68.2408676147,24.5852184296,48.5844955444,96.9415054321,51.4223709106,51.4223709106,68.2408676147,68.2408676147,36.0154495239,0.0774397104979,0,4.25977450504E-05,0.14994071424,0.0134693980217,0.0135119957849,-13.8672389984,-1.29382956028,-0.40185546875,-0.00416259514168,-5.36125183105,-0.116394303739,0.250270843506,0.00690103042871,10.7179794312,96.5396499634,46.0611190796,36.2657203674,266
1.63084238235588E+018,60,1.63084238235588E+018,r1000913c5/base_footprint,0,1.63084238235588E+018,alta/m1vW10zy74W/map,-7.23475062364,-1.09991536038,0,0,0,-0.719170882307,0.694833247652,0,68.0527496338,22.2506389618,48.4302444458,96.9415054321,51.5010032654,51.5010032654,68.0527496338,68.0527496338,40.2506828308,-0.0628372132778,0,0.000581053900532,0.154801726341,0.00793706905097,0.00851812306792,-11.5326595306,-1.07601058483,-0.40185546875,-0.00416259514168,-5.43988418579,-0.11810143292,-3.98496246338,-0.109882347286,10.7179794312,96.5396499634,46.0611190796,36.2657203674,266
1.6308423824561E+018,61,1.6308423824561E+018,r1000913c5/base_footprint,0,1.6308423824561E+018,alta/m1vW10zy74W/map,-7.23200733613,-1.01753056137,0,0,0,-0.717305775673,0.696758512101,0,68.4205093384,21.2276210785,48.2452278137,96.9815292358,51.5717735291,51.5717735291,68.4205093384,68.4205093384,34.5394744873,0.277123242617,0,0.000143755372846,0.158257082105,0.00191618327517,0.00177242793143,-10.5979881287,-0.997022986412,-0.522880554199,-0.00542077422142,-5.35045623779,-0.115757331252,1.92545700073,0.0528029799461,10.6296329498,96.4586486816,46.2213172913,36.464931488,274
1.63084238255598E+018,62,1.63084238255598E+018,r1000913c5/base_footprint,0,1.63084238255598E+018,alta/m1vW10zy74W/map,-7.22888394427,-0.92824491504,0,0,0,-0.720061425376,0.693910328274,0,68.1866760254,25.3196926117,48.0842247009,97.187538147,51.5372047424,51.5372047424,68.1866760254,68.1866760254,39.1167488098,0.192812174559,0,0.000644552113954,0.154364496469,0.00125377369113,0.000609221635386,-14.8337678909,-1.4146361351,-0.848533630371,-0.00880778860301,-5.13838195801,-0.110743798316,-2.4827003479,-0.0677702948451,10.4859247208,96.3390045166,46.3988227844,36.6340484619,280
1.63084238265597E+018,63,1.63084238265597E+018,r1000913c5/base_footprint,0,1.63084238265597E+018,alta/m1vW10zy74W/map,-7.22564543156,-0.841911151987,0,0,0,-0.718879710454,0.695134491949,0,68.7288818359,26.8413238525,48.0842247009,97.1627807617,51.6128959656,51.6128959656,68.7288818359,68.7288818359,30.0854492188,0.160778596997,0,0.000889885763172,0.152102679014,0.00028066415689,0.000609221635386,-16.5448150635,-1.60683739185,-0.928329467773,-0.00964653957635,-5.16741943359,-0.111257754266,6.54936599731,0.178774371743,10.2965087891,96.2344512939,46.445476532,36.6348152161,279
1.6308423827565E+018,64,1.6308423827565E+018,r1000913c5/base_footprint,0,1.6308423827565E+018,alta/m1vW10zy74W/map,-7.2249605286,-0.831514661471,0,0,0,-0.719618936114,0.694369200632,0,68.3441009521,22.9208927155,48.0743141174,97.2704620361,51.6800537109,51.6800537109,68.3441009521,68.3441009521,38.1244621277,0.138423144817,0,9.51614929363E-05,0.151898011565,0.00051406014245,0.000609221635386,-12.6243839264,-1.2260838747,-1.03601074219,-0.0107654873282,-5.23457717896,-0.112703703344,-1.48964691162,-0.0406620576978,10.2965087891,96.2344512939,46.445476532,36.6348152161,279
1.63084238285606E+018,65,1.63084238285606E+018,r1000913c5/base_footprint,0,1.63084238285606E+018,alta/m1vW10zy74W/map,-7.22198640331,-0.741084285004,0,0,0,-0.720756793841,0.693188029421,0,68.9486999512,23.632610321,47.9539260864,97.2310409546,51.5795936584,51.5795936584,68.9486999512,68.9486999512,26.0148181915,0.214222252369,0,0.000444983830675,0.153430148959,0.000754779961426,0.00119976385031,-13.8414812088,-1.41367566586,-1.1011505127,-0.0114548187703,-5.11132049561,-0.109995923936,10.7750988007,0.292881846428,9.79112911224,96.1298904419,46.4682731628,36.7899169922,264
1.63084238295657E+018,66,1.63084238295657E+018,r1000913c5/base_footprint,0,1.63084238295657E+018,alta/m1vW10zy74W/map,-7.22198640331,-0.741084285004,0,0,0,-0.720756793841,0.693188029421,0,68.3955841064,24.6646022797,47.8685302734,97.2310409546,51.5391769409,51.5391769409,68.3955841064,68.3955841064,35.5343551636,0.0683162212372,0,0.000702380610164,0.149525672197,0.000497383181937,0.00119976385031,-14.8734731674,-1.51907634735,-1.1011505127,-0.0114548187703,-5.07090377808,-0.109126150608,1.25556182861,0.0341278798878,9.79112911224,96.1298904419,46.4682731628,36.7899169922,264
1.63084238305601E+018,67,1.63084238305601E+018,r1000913c5/base_footprint,0,1.63084238305601E+018,alta/m1vW10zy74W/map,-7.2186515306,-0.6638423295,0,0,0,-0.720610233207,0.693340386677,0,68.4035110474,25.0390415192,47.8313560486,97.1228179932,51.5277366638,51.5277366638,68.4035110474,68.4035110474,34.8785133362,0.0913949459791,0,0.000378817581804,0.150819033384,0.000820946239401,0.00119976385031,-15.3066482544,-1.57275271416,-1.00586700439,-0.0104650324211,-5.03790664673,-0.108365781605,1.92860031128,0.0523974895477,9.73239326477,96.1169509888,46.4898300171,36.8071136475,262
1.63084238315597E+018,68,1.63084238315597E+018,r1000913c5/base_footprint,0,1.63084238315597E+018,alta/m1vW10zy74W/map,-7.21757080203,-0.594322151664,0,0,0,-0.719207952607,0.694794876857,0,68.6039886475,25.8081607819,47.8313560486,97.0925598145,51.6668548584,51.6668548584,68.6039886475,68.6039886475,32.6635284424,0.177104324102,0,0.000518684450071,0.152820438147,0.00068107934203,0.00119976385031,-16.4985179901,-1.77219665051,-1.01914978027,-0.0106080314144,-5.19747924805,-0.111847408116,4.33798217773,0.117237977684,9.30964279175,96.0734100342,46.4693756104,37.0015106201,248
1.63084238445598E+018,69,1.63084238445598E+018,r1000913c5/base_footprint,0,1.63084238445598E+018,alta/m1vW10zy74W/map,-7.21204390461,-0.457319915798,0,0,0,-0.720385780958,0.693573591333,0,68.8889770508,30.4347820282,47.7289237976,97.4216690063,51.8419075012,51.8419075012,68.8889770508,68.8889770508,30.6090812683,0.0502436570823,0,0.00273285899311,0.237550705671,0.0240008365363,0.0267336964607,-21.8446731567,-2.54300308228,-1.35384368896,-0.014092582278,-5.53106689453,-0.119433522224,6.70894622803,0.179777622223,8.59010887146,96.0678253174,46.3108406067,37.3180274963,216
1.63084238455681E+018,70,1.63084238455681E+018,r1000913c5/base_footprint,0,1.63084238455681E+018,alta/m1vW10zy74W/map,-7.21204390461,-0.457319915798,0,0,0,-0.720385780958,0.693573591333,0,68.6686248779,26.2213363647,47.7773170471,97.4216690063,51.7000923157,51.7000923157,68.6686248779,68.6686248779,33.0437240601,0.190948709846,0,0.00356064666994,0.244271785021,0.0574450194836,0.0538843721151,-17.6312274933,-2.0525033474,-1.35384368896,-0.014092582278,-5.38925170898,-0.116371281445,4.27430343628,0.114537231624,8.59010887146,96.0678253174,46.3108406067,37.3180274963,216
1.63084238465691E+018,71,1.63084238465691E+018,r1000913c5/base_footprint,0,1.63084238465691E+018,alta/m1vW10zy74W/map,-7.21204390461,-0.457319915798,0,0,0,-0.720385780958,0.693573591333,0,68.1336975098,25.2243270874,47.7773170471,97.4216690063,51.5538101196,51.5538101196,68.1336975098,68.1336975098,41.0926628113,-0.022022947669,0,0.00514441449195,0.24495588243,0.0639488995075,0.0588044822216,-16.6342182159,-1.93643856049,-1.35384368896,-0.014092582278,-5.24296951294,-0.113212577999,-3.77463531494,-0.101147770882,8.59010887146,96.0678253174,46.3108406067,37.3180274963,216
1.63084238475619E+018,72,1.63084238475619E+018,r1000913c5/base_footprint,0,1.63084238475619E+018,alta/m1vW10zy74W/map,-7.20970904734,-0.45619108369,0,0,0,-0.701239909772,0.712925374035,0,67.8171234131,19.5575656891,47.7773170471,97.4074783325,51.0676612854,51.0676612854,67.8171234131,67.8171234131,41.4893951416,0.194916576147,0,0.00851659942418,0.246426194906,0.0729661807418,0.0644495859742,-10.9674568176,-1.27675414085,-1.33965301514,-0.013944867067,-4.75682067871,-0.102715060115,-4.17136764526,-0.111778885126,8.59010887146,96.0678253174,46.3108406067,37.3180274963,216
1.63084238485604E+018,73,1.63084238485604E+018,r1000913c5/base_footprint,0,1.63084238485604E+018,alta/m1vW10zy74W/map,-7.20799172181,-0.508313191183,0,0,0,-0.660651694748,0.75069257238,0,68.3203048706,12.7789049149,47.7773170471,97.5742034912,50.4091720581,50.4091720581,68.3203048706,68.3203048706,25.9207305908,0.218629434705,0,0.0120904324576,0.239243358374,0.108914785087,0.0968243554235,-3.62692928314,-0.396300137043,-1.46649169922,-0.0152588346973,-3.91766357422,-0.0842662155628,11.300037384,0.303594946861,9.15197563171,96.107711792,46.4915084839,37.2207679749,231
1.63084238495611E+018,74,1.63084238495611E+018,r1000913c5/base_footprint,0,1.63084238495611E+018,alta/m1vW10zy74W/map,-7.20799172181,-0.508313191183,0,0,0,-0.660651694748,0.75069257238,0,67.336151123,6.46094512939,47.7949562073,97.5742034912,49.7608757019,49.7608757019,67.336151123,67.336151123,36.6339263916,0.265243083239,0,0.0113446861506,0.239843979478,0.119288131595,0.107943445444,2.69103050232,0.294038206339,-1.46649169922,-0.0152588346973,-3.26936721802,-0.0703218132257,0.586841583252,0.0157665088773,9.15197563171,96.107711792,46.4915084839,37.2207679749,231
1.63084238505608E+018,75,1.63084238505608E+018,r1000913c5/base_footprint,0,1.63084238505608E+018,alta/m1vW10zy74W/map,-7.19486184504,-0.552542722857,0,0,0,-0.604432275052,0.796656528797,0,67.1996688843,6.46094512939,47.7949562073,97.6234741211,49.2823295593,49.2823295593,67.1996688843,67.1996688843,34.0996551514,0.0592228099704,0,0.0178532414138,0.239105209708,0.142368510365,0.124515272677,2.84758472443,0.305911332369,-1.51015472412,-0.0157122313976,-2.82119369507,-0.0607215836644,3.07608413696,0.082744397223,9.30852985382,96.113319397,46.4611358643,37.1757392883,240
1.63084238515686E+018,76,1.63084238515686E+018,r1000913c5/base_footprint,0,1.63084238515686E+018,alta/m1vW10zy74W/map,-7.18687373346,-0.579055783474,0,0,0,-0.567993338901,0.823033150587,0,66.3362350464,5.28414773941,47.7354393005,97.5681228638,48.7091827393,48.7091827393,66.3362350464,66.3362350464,43.2521438599,-0.0507248714566,0,0.0231061857194,0.240642234683,0.15864007175,0.135533884168,4.02549505234,0.432400584221,-1.49471282959,-0.0155580285937,-2.23980712891,-0.0481996387243,-6.25063323975,-0.168929129839,9.30964279175,96.0734100342,46.4693756104,37.0015106201,248
1.63084238525604E+018,77,1.63084238525604E+018,r1000913c5/base_footprint,0,1.63084238525604E+018,alta/m1vW10zy74W/map,-7.1744497113,-0.613388939734,0,0,0,-0.531311537091,0.847176516762,0,66.8915939331,5.6795129776,47.6762886047,97.674407959,48.3632621765,48.3632621765,66.8915939331,66.8915939331,29.9023723602,0.281138628721,0,0.0239999592304,0.237422883511,0.164833426476,0.140833467245,3.76082706451,0.39837834239,-1.5516204834,-0.0161420665681,-1.8325881958,-0.0393845178187,7.02376747131,0.190211251378,9.44034004211,96.1227874756,46.5306739807,36.9261398315,254
1.63084238535597E+018,78,1.63084238535597E+018,r1000913c5/base_footprint,0,1.63084238535597E+018,alta/m1vW10zy74W/map,-7.15933829967,-0.638710762257,0,0,0,-0.487378991748,0.873190539574,0,66.7915725708,3.6511156559,47.5909233093,97.665145874,48.0364189148,48.0364189148,66.7915725708,66.7915725708,28.1395778656,0.460879087448,0,0.0254930704832,0.234257891774,0.166511774063,0.141018688679,5.78922462463,0.613243222237,-1.54235839844,-0.0160457100719,-1.50574493408,-0.0323602631688,8.78656196594,0.23794965446,9.44034004211,96.1227874756,46.5306739807,36.9261398315,254
1.63084238545613E+018,79,1.63084238545613E+018,r1000913c5/base_footprint,0,1.63084238545613E+018,alta/m1vW10zy74W/map,-7.13890104045,-0.657084130941,0,0,0,-0.437366624227,0.899283290189,0,66.7083129883,10.9697933197,47.5855674744,97.84715271,47.8553009033,47.8553009033,66.7083129883,66.7083129883,28.3374023438,0.318262696266,0,0.0272998567671,0.233046978712,0.165818765759,0.13851891458,-1.52945327759,-0.162012517452,-1.72436523438,-0.0179391931742,-1.32462692261,-0.0284678209573,8.58873748779,0.232592344284,9.44034004211,96.1227874756,46.5306739807,36.9261398315,254
1.63084238555605E+018,80,1.63084238555605E+018,r1000913c5/base_footprint,0,1.63084238555606E+018,alta/m1vW10zy74W/map,-7.1256001651,-0.670801625004,0,0,0,-0.405433383904,0.91412459283,0,66.7400588989,1.7808958292,47.5855674744,97.9740600586,47.6009635925,47.6009635925,66.7400588989,66.7400588989,25.4759941101,0.488802522421,0,0.0288249105215,0.231049895287,0.125095173717,0.096270263195,7.62112951279,0.81058382988,-1.86958312988,-0.0194536522031,-1.19557189941,-0.0257636420429,11.3686485291,0.308556348085,9.40202522278,96.1044769287,46.4053916931,36.8446426392,257
1.63084238565606E+018,81,1.63084238565606E+018,r1000913c5/base_footprint,0,1.63084238565606E+018,alta/m1vW10zy74W/map,-7.0504235219,-0.69310552943,0,0,0,-0.271840589937,0.962342295476,0,65.8896331787,2.14403510094,47.562702179,98.009727478,47.1539497375,47.1539497375,65.8896331787,65.8896331787,36.0842285156,0.30719101429,0,0.0268013868481,0.22436016798,0.0684567317367,0.0416553467512,7.1628704071,0.769629657269,-1.92136383057,-0.0199958011508,-0.636043548584,-0.013673090376,0.652927398682,0.0177729427814,9.30690574646,96.0883636475,46.517906189,36.7371559143,257
1.63084238575609E+018,82,1.63084238575609E+018,r1000913c5/base_footprint,0,1.63084238575609E+018,alta/m1vW10zy74W/map,-7.03514466176,-0.736261103172,0,0,0,-0.242958419674,0.970036703589,0,65.5514144897,2.52100849152,47.4771842957,98.2883377075,46.6804618835,46.6804618835,65.5514144897,65.5514144897,38.0615463257,0.337482482195,0,0.0194020420313,0.226006761193,0.0191959254444,0.000206118333153,6.94177055359,0.733586907387,-2.17765808105,-0.022657815367,-0.191188812256,-0.00411253608763,-1.33779525757,-0.0364286117256,9.4627790451,96.1106796265,46.4892730713,36.7237510681,261
1.63084238585598E+018,83,1.63084238585598E+018,r1000913c5/base_footprint,0,1.63084238585598E+018,alta/m1vW10zy74W/map,-6.96163319969,-0.73378476154,0,0,0,-0.170610117635,0.985338615787,0,64.8547668457,0,47.260761261,98.2580871582,46.21043396,46.21043396,64.8547668457,64.8547668457,45.4159698486,-0.0753874927759,0,0.012042960152,0.204024374485,0.00288460589945,0.00915835425258,9.26035499573,1,-2.1794128418,-0.0226836279035,0.204517364502,0.00440628221259,-8.72901916504,-0.237932533026,9.26035499573,96.0786743164,46.4149513245,36.6869506836,257
1.63084238595662E+018,84,1.63084238595662E+018,r1000913c5/base_footprint,0,1.63084238595662E+018,alta/m1vW10zy74W/map,-6.90717255445,-0.752564150654,0,0,0,-0.133473863878,0.991052333462,0,64.5660934448,6.08875131607,47.0290679932,98.3457107544,45.9358825684,45.9358825684,64.5660934448,64.5660934448,47.9624519348,0.32212266326,0,0.00598652660847,0.16495603323,0.0191837921739,0.0251703187823,3.10729169846,0.337894439697,-2.20662689209,-0.0229524429888,0.529121398926,0.0113875251263,-11.2390670776,-0.30604660511,9.19604301453,96.1390838623,46.4650039673,36.7233848572,254
1.63084238605621E+018,85,1.63084238605621E+018,r1000913c5/base_footprint,0,1.63084238605621E+018,alta/m1vW10zy74W/map,-6.8524191909,-0.765869811063,0,0,0,-0.100577450176,0.994929231914,0,64.7557449341,6.4856710434,46.8624420166,98.2488327026,45.7115249634,45.7115249634,64.7557449341,64.7557449341,41.7769241333,0.21751973033,0,0.00131766311824,0.0990036651492,0.0493259429932,0.0506436042488,2.96981525421,0.314083814621,-2.08665466309,-0.0216993279755,0.740909576416,0.0159498546273,-5.21957015991,-0.142777577043,9.45548629761,96.1621780396,46.4524345398,36.5573539734,245
1.63084238615619E+018,86,1.63084238615619E+018,r1000913c5/base_footprint,0,1.63084238615619E+018,alta/m1vW10zy74W/map,-6.70434899293,-0.811944526315,0,0,0,-0.0420182813427,0.999116842033,0,64.7185211182,14.807302475,46.8277015686,98.0779037476,45.9127845764,45.9127845764,64.7185211182,64.7185211182,44.0052070618,0.049544300884,0,0.00296887848526,0.0831125229597,0.0657577142119,0.062788836658,-3.71486568451,-0.334900766611,-2.49619293213,-0.0261158011854,1.68572998047,0.0354156009853,-8.57946014404,-0.242181494832,11.0924367905,95.5817108154,47.5985145569,35.4257469177,159
1.63084238625597E+018,87,1.63084238625597E+018,r1000913c5/base_footprint,0,1.63084238625597E+018,alta/m1vW10zy74W/map,-6.70434899293,-0.811944526315,0,0,0,-0.0420182813427,0.999116842033,0,65.1267471313,14.9777555466,46.8450126648,98.0779037476,46.0181465149,46.0181465149,65.1267471313,65.1267471313,37.7950325012,0.353768736124,0,0.00363218039274,0.0842414796352,0.0689138770103,0.0652816966176,-3.8853187561,-0.350267380476,-2.49619293213,-0.0261158011854,1.58036804199,0.0332020446658,-2.3692855835,-0.0668803304434,11.0924367905,95.5817108154,47.5985145569,35.4257469177,159
1.6308423863563E+018,88,1.6308423863563E+018,r1000913c5/base_footprint,0,1.6308423863563E+018,alta/m1vW10zy74W/map,-6.59151097267,-0.790727620045,0,0,0,-0.00862112100762,0.999962837446,0,65.3160018921,13.4662132263,46.9663085938,97.875,46.2237701416,46.2237701416,65.3160018921,65.3160018921,35.8787307739,0.483682632446,0,0.00374504574575,0.0913433581591,0.077179774642,0.0734347254038,-1.33467197418,-0.110016688704,-2.38430023193,-0.0249689258635,1.90609741211,0.039603214711,-0.575084686279,-0.0162896681577,12.1315412521,95.4906997681,48.1298675537,35.3036460876,146
1.63084238645598E+018,89,1.63084238645598E+018,r1000913c5/base_footprint,0,1.63084238645598E+018,alta/m1vW10zy74W/map,-6.51543447315,-0.79272715808,0,0,0,0.00781633279548,0.999969452004,0,65.6806259155,18.117647171,47.1554412842,97.8707580566,46.7397918701,46.7397918701,65.6806259155,65.6806259155,34.8732337952,0.351435393095,0,0.0106485849246,0.083965241909,0.103225141764,0.0925765559077,-5.49808597565,-0.435679644346,-2.42835235596,-0.0254431180656,1.5555267334,0.0322086438537,0.719421386719,0.0202126353979,12.6195611954,95.4424057007,48.2953186035,35.5926551819,137
1.63084238655582E+018,90,1.63084238655582E+018,r1000913c5/base_footprint,0,1.63084238655582E+018,alta/m1vW10zy74W/map,-6.35977536796,-0.787308953201,0,0,0,0.0334579256238,0.999440126878,0,65.9036560059,20.3334884644,47.3918037415,97.8467559814,47.1406173706,47.1406173706,65.9036560059,65.9036560059,35.1012001038,0.470443129539,0,0.0117553034797,0.080537840724,0.119450971484,0.107695668936,-7.1265707016,-0.539608895779,-2.42586517334,-0.0254227891564,1.19762039185,0.0247758384794,0.228218078613,0.00645971810445,13.2069177628,95.4208908081,48.3382377625,35.3294181824,142
1.63084238665613E+018,91,1.63084238665613E+018,r1000913c5/base_footprint,0,1.63084238665613E+018,alta/m1vW10zy74W/map,-6.28756961551,-0.78168265784,0,0,0,0.0399611373094,0.999201234739,0,66.5992584229,22.5023345947,47.503200531,97.8952178955,47.6416358948,47.6416358948,66.5992584229,66.5992584229,28.1657772064,0.417029112577,0,0.0175516586751,0.0778633132577,0.13680998981,0.119258321822,-10.2807502747,-0.84119617939,-2.34122467041,-0.0245015881956,0.335597991943,0.00699494266883,7.68512916565,0.214363589883,12.2215843201,95.5539932251,47.9772338867,35.8509063721,151
1.63084238675628E+018,92,1.63084238675628E+018,r1000913c5/base_footprint,0,1.63084238675628E+018,alta/m1vW10zy74W/map,-6.12598686046,-0.763779396605,0,0,0,0.0421334496327,0.999111991932,0,67.0891036987,26.1285915375,47.663646698,97.9356536865,48.2867736816,48.2867736816,67.0891036987,67.0891036987,26.4616947174,0.486859351397,0,0.0187144316733,0.0750801563263,0.14168342948,0.122968994081,-13.6576213837,-1.09515309334,-2.24418640137,-0.0234523154795,-0.412483215332,-0.00861596502364,9.09886741638,0.255869626999,12.4709701538,95.6914672852,47.8742904663,35.5605621338,152
1.63084238685617E+018,93,1.63084238685617E+018,r1000913c5/base_footprint,0,1.63084238685617E+018,alta/m1vW10zy74W/map,-6.05318808051,-0.756036491984,0,0,0,0.0390120473541,0.999238740322,0,66.9366531372,28.3088226318,47.761051178,97.7374267578,48.7002830505,48.7002830505,66.9366531372,66.9366531372,32.958065033,0.395191371441,0,0.0192192085087,0.0641612187028,0.142234385014,0.12301517278,-16.302028656,-1.35773360729,-2.02599334717,-0.0211677253246,-0.991111755371,-0.0207740291953,2.60610198975,0.0732788741589,12.0067949295,95.7114334106,47.7091712952,35.5641670227,151
1.63084238695617E+018,94,1.63084238695617E+018,r1000913c5/base_footprint,0,1.63084238695617E+018,alta/m1vW10zy74W/map,-6.03749852163,-0.756495698816,0,0,0,0.037522532137,0.999295781829,0,67.1913757324,27.0405845642,47.9118766785,97.7863693237,49.1480827332,49.1480827332,67.1913757324,67.1913757324,33.3854789734,0.25526830554,0,0.0195403732359,0.0538517981768,0.140127882361,0.1205875054,-15.0337896347,-1.25210678577,-2.07493591309,-0.0216790810227,-1.43891143799,-0.0301600601524,2.17868804932,0.0612607635558,12.0067949295,95.7114334106,47.7091712952,35.5641670227,151
1.63084238705601E+018,95,1.63084238705601E+018,r1000913c5/base_footprint,0,1.63084238705601E+018,alta/m1vW10zy74W/map,-5.78239693058,-0.738479681674,0,0,0,0.0195485887126,0.999808908082,0,67.5481033325,27.8074874878,48.2503967285,97.8843994141,49.4590339661,49.4590339661,67.5481033325,67.5481033325,30.6755218506,0.559023678303,0,0.0202955305576,0.0468673408031,0.140318229795,0.120022706687,-16.4427261353,-1.44681668282,-2.14649200439,-0.0224205031991,-1.56995010376,-0.0327830463648,4.23834609985,0.121394343674,11.3647613525,95.7379074097,47.8890838623,34.9138679504,151
1.63084238715605E+018,96,1.63084238715605E+018,r1000913c5/base_footprint,0,1.63084238715605E+018,alta/m1vW10zy74W/map,-5.68828493999,-0.734007636527,0,0,0,0.0147553230646,0.999891134295,0,67.7680969238,28.5067882538,48.5318107605,97.9588699341,49.6692848206,49.6692848206,67.7680969238,67.7680969238,29.2544975281,0.322439908981,0,0.0207828376442,0.029976695776,0.152193486691,0.13141065836,-17.6093788147,-1.61592328548,-2.24978637695,-0.0235065091401,-1.91150283813,-0.0400249511003,5.46546554565,0.157415643334,10.8974103928,95.7090835571,47.7577819824,34.7199630737,149
1.63084238725598E+018,97,1.63084238725598E+018,r1000913c5/base_footprint,0,1.63084238725598E+018,alta/m1vW10zy74W/map,-5.5626448082,-0.732383766169,0,0,0,0.00913982807504,0.999958230899,0,67.7266159058,24.5621910095,48.5318107605,97.9468841553,49.8542633057,49.8542633057,67.7266159058,67.7266159058,31.9557971954,0.382588416338,0,0.0293094217777,0.0146650746465,0.182744726539,0.153435304761,-14.4871788025,-1.43793165684,-2.32117462158,-0.0242735408247,-2.05278778076,-0.0429440252483,2.93584632874,0.0841418206692,10.075012207,95.6257095337,47.8014755249,34.8916435242,160
1.6308423873559E+018,98,1.6308423873559E+018,r1000913c5/base_footprint,0,1.6308423873559E+018,alta/m1vW10zy74W/map,-5.44571875238,-0.729290058771,0,0,0,0.00601333912743,0.999981919713,0,68.431312561,22.4806194305,48.5763168335,97.7888031006,50.0618591309,50.0618591309,68.431312561,68.431312561,20.9440803528,0.335582256317,0,0.0306980609894,0.00146121520083,0.190406739712,0.159708678722,-12.9051399231,-1.34772777557,-2.151512146,-0.0224965810776,-2.06162261963,-0.0429502613842,13.8300704956,0.397711247206,9.57547950745,95.6372909546,48.0002365112,34.7741508484,158
1.63084238745604E+018,99,1.63084238745604E+018,r1000913c5/base_footprint,0,1.63084238745604E+018,alta/m1vW10zy74W/map,-5.24419803163,-0.727927537514,0,0,0,0.00300878870965,0.999995473585,0,68.1037139893,22.2011394501,48.527973175,97.4841918945,50.1718025208,50.1718025208,68.1037139893,68.1037139893,26.9317302704,0.322668969631,0,0.030545020476,0.00421513151377,0.215193137527,0.184648111463,-13.5152683258,-1.55600607395,-2.16208648682,-0.0226818993688,-2.08183670044,-0.0432904586196,7.88869667053,0.226553708315,8.68587112427,95.3221054077,48.0899658203,34.8204269409,151
1.63084238755653E+018,100,1.63084238755653E+018,r1000913c5/base_footprint,0,1.63084238755653E+018,alta/m1vW10zy74W/map,-5.13820180785,-0.729123311155,0,0,0,0.00346684930569,0.99999399046,0,68.0682373047,23.4815883636,48.477142334,97.4432449341,50.1611289978,50.1611289978,68.0682373047,68.0682373047,27.3076038361,0.133994087577,0,0.0341627821326,0.0229677204043,0.242706671357,0.208543881774,-15.2954702377,-1.8684643507,-2.18014526367,-0.0228855162859,-2.02156066895,-0.0419937446713,8.06636238098,0.228031039238,8.18611812592,95.2630996704,48.1395683289,35.373966217,150
1.63084238765678E+018,101,1.63084238765678E+018,r1000913c5/base_footprint,0,1.63084238765678E+018,alta/m1vW10zy74W/map,-5.00150312089,-0.728765826258,0,0,0,0.00281982084533,0.999996024297,0,67.8852386475,19.9614276886,48.5772209167,97.2234420776,50.0737037659,50.0737037659,67.8852386475,67.8852386475,28.8661003113,0.159808695316,0,0.0369258597493,0.0301299132407,0.266725033522,0.229799196124,-12.4476203918,-1.65663290024,-1.93300628662,-0.0202854182571,-1.80137634277,-0.037316955626,7.1693611145,0.198952943087,7.51380729675,95.290435791,48.2723274231,36.0354614258,148
1.63084238775598E+018,102,1.63084238775598E+018,r1000913c5/base_footprint,0,1.63084238775598E+018,alta/m1vW10zy74W/map,-4.88191642631,-0.729824558592,0,0,0,0.000405140280809,0.999999917931,0,67.7692565918,22.8868026733,48.6558609009,97.3357620239,49.9554100037,49.9554100037,67.7692565918,67.7692565918,30.080619812,0.0963604897261,0,0.040992166847,0.0415979474783,0.280114501715,0.239122331142,-18.4345340729,-4.14048099518,-1.36618041992,-0.014235557057,-3.70846176147,-0.0801882445812,5.51592254639,0.154956698418,4.45226860046,95.969581604,46.2469482422,35.5965423584,220
