%time,field.header.seq,field.header.stamp,field.header.frame_id,field.pose.header.seq,field.pose.header.stamp,field.pose.header.frame_id,field.pose.pose.position.x,field.pose.pose.position.y,field.pose.pose.position.z,field.pose.pose.orientation.x,field.pose.pose.orientation.y,field.pose.pose.orientation.z,field.pose.pose.orientation.w,field.label,field.main_output,field.scan_score,field.pose_score,field.cov_score,field.lhood_map_score,field.lhood_robot_score,field.lhood_map_score_all,field.lhood_robot_score_all,field.point_angle_diff,field.average_orientation,field.map_average_orientation,field.sensor_div,field.odom_div_x,field.odom_div_w,field.imu_div_w,field.kdtree_div,field.kdtree_div_p,field.cov_div,field.cov_div_p,field.likelihood_div,field.likelihood_div_p,field.normal_diff_div,field.normal_diff_div_p,field.kdtree_average,field.cov_average,field.likelihood_average,field.normal_diff_average,field.map_update_count
1.64951318343152E+018,0,1.64951318343152E+018,r1000913c5/base_footprint,0,1.64951318343152E+018,v/m1vw10zy74w/map,-8.14768286556,-0.727156510134,0,0,0,0.999996617448,0.0026009792901,0,68.5905075073,39.8883628845,100,95.60987854,51.5985412598,51.5985412598,68.5905075073,68.5905075073,26.8307418823,0.271831572056,0,0.0010393736884,0.0491767674685,0.0156270451844,0.0166664198041,-21.4342517853,-1.16148924828,-1.22528839111,-0.0129818692803,-3.77367019653,-0.0789060220122,9.72496414185,0.266031354666,18.4541110992,94.38459014889,47.82487106327,36.55570602415,929
1.64951318353055E+018,1,1.64951318353055E+018,r1000913c5/base_footprint,0,1.64951318353055E+018,v/m1vw10zy74w/map,-8.32028208978,-0.724918267863,0,0,0,-0.999999999996,2.69725102903E-06,0,68.440246582,17.4714660645,46.8382568359,95.8769226074,51.4662971497,51.4662971497,68.440246582,68.440246582,29.0684642792,0.422176122665,0,0.00143228133675,0.0600978657603,0.0135236792266,0.0149559602141,0.528877258301,0.0293815098703,-1.36898040771,-0.014485348016,-4.70631027222,-0.100648239255,6.3773059845,0.179917261004,18.000343322801,94.50794219969,46.75998687748,35.4457702637,1181
1.64951318363105E+018,2,1.64951318363105E+018,r1000913c5/base_footprint,0,1.64951318363105E+018,v/m1vw10zy74w/map,-8.4422018298,-0.719997842988,0,0,0,0.99999999296,0.000118662858551,0,68.03956604,12.8872919083,46.8382568359,95.849861145,51.4204330444,51.4204330444,68.03956604,68.03956604,35.6880455017,0.237278774381,0,0.00148936000187,0.066398948431,0.0142262829468,0.0157156437635,5.29223537445,0.291109621525,-1.3130645752,-0.0138894552365,-4.74920272827,-0.101758681238,-0.487209320068,-0.0138408448547,18.17952728275,94.5367965698,46.67123031613,35.200836181632,1190
1.64951318373163E+018,3,1.64951318373163E+018,r1000913c5/base_footprint,0,1.64951318373163E+018,v/m1vw10zy74w/map,-8.59052869287,-0.720960393429,0,0,0,-0.999999851683,0.000544640752148,0,68.1109161377,8.59728527069,47.2596435547,95.4709091187,51.1083869934,51.1083869934,68.1109161377,68.1109161377,29.669418335,0.325025886297,0,0.00151916313916,0.0785771384835,0.0153958536685,0.0169150177389,9.58254909515,0.527097702026,-0.913673400879,-0.00966264959425,-4.46947479248,-0.0958314538002,5.18252563477,0.148701190948,18.17983436584,94.557235717821,46.63891220092,34.85194396977,1176
1.6495131838309E+018,4,1.6495131838309E+018,r1000913c5/base_footprint,0,1.6495131838309E+018,v/m1vw10zy74w/map,-8.73005033849,-0.733892148836,0,0,0,-0.999998803731,0.00154678238898,0,67.9889755249,12.4486999512,47.9086608887,95.5068969727,51.0339851379,51.0339851379,67.9889755249,67.9889755249,31.1903629303,0.360648602247,0,0.00100542907603,0.0872082784772,0.0165709070861,0.0175763368607,5.76275062561,0.316435575485,-0.966415405273,-0.0102222394198,-4.39367675781,-0.094203427434,3.41617774963,0.0987147986889,18.21145057681,94.540481567427,46.64030838009,34.60654067993,1157
1.6495131839307E+018,5,1.6495131839307E+018,r1000913c5/base_footprint,0,1.6495131839307E+018,v/m1vw10zy74w/map,-8.92405814353,-0.732880153881,0,0,0,-0.999995950608,0.00284583335915,0,67.7771453857,7.62527227402,48.3163795471,95.2166671753,50.9957695007,50.9957695007,67.7771453857,67.7771453857,33.5456886292,0.0106805181131,0,0.000962832476944,0.111622653902,0.00983666907996,0.0107995010912,10.7721843719,0.585525751114,-0.637275695801,-0.00673799728975,-3.89239501953,-0.0826351642609,0.698509216309,0.0203978847712,18.39745664592,94.579391479499,47.10337448117,34.244197845509,1131
1.64951318403137E+018,6,1.64951318403137E+018,r1000913c5/base_footprint,0,1.64951318403137E+018,v/m1vw10zy74w/map,-9.06035762305,-0.729132890153,0,0,0,-0.99999074531,0.00430224298014,0,67.5994338989,16.7024478912,48.5153503418,95.4664840698,50.9713745117,50.9713745117,67.5994338989,67.5994338989,37.3803100586,0.13650675118,0,0.000885454704985,0.142825931311,0.00769118964672,0.00857664458454,1.83983612061,0.0992238149047,-0.890045166016,-0.00941085536033,-3.20048904419,-0.0669966414571,-3.01389312744,-0.0876987874508,18.54228401181,94.576438903784,47.77088546751,34.36641693116,1024
1.64951318413054E+018,7,1.64951318413054E+018,r1000913c5/base_footprint,0,1.64951318413054E+018,v/m1vw10zy74w/map,-9.1994551304,-0.730485179631,0,0,0,-0.999997538454,0.00221880261408,0,68.1322631836,23.5723495483,48.7038650513,95.3779602051,51.1326332092,51.1326332092,68.1322631836,68.1322631836,29.2124042511,0.278657197952,0,0.00166354386602,0.180952444673,0.0120461229235,0.0137096671388,-4.82050895691,-0.257068574429,-0.878067016602,-0.0092917252332,-2.66272735596,-0.054935682565,5.37345695496,0.15536570549,18.75184059139,94.499893188498,48.46990585324,34.58586120606,907
1.64951318423039E+018,8,1.64951318423039E+018,r1000913c5/base_footprint,0,1.64951318423039E+018,v/m1vw10zy74w/map,-9.2125388284,-0.731824850102,0,0,0,-0.99999765666,0.00216487300123,0,68.2447814941,27.2563991547,48.729839325,95.521484375,51.3430328369,51.3430328369,68.2447814941,68.2447814941,29.9760856628,0.31314471364,0,0.000686933344696,0.219583362341,0.0134825501591,0.0141694834456,-8.50455856323,-0.45353192091,-1.02159118652,-0.0108105009422,-2.87312698364,-0.0592765137553,4.60977554321,0.133284971118,18.75184059147,94.49989318848,48.46990585326,34.58586120601,907
1.64951318433058E+018,9,1.64951318433058E+018,r1000913c5/base_footprint,0,1.64951318433058E+018,v/m1vw10zy74w/map,-9.36582491009,-0.732135401959,0,0,0,-0.999994195301,0.0034072517637,0,68.0940475464,37.9342269897,48.8022079468,95.5204391479,51.2835350037,51.2835350037,68.0940475464,68.0940475464,32.042881012,0.161239892244,0,0.000524744449649,0.244716882706,0.00814250204712,0.00866724643856,-17.952589035,-0.89845430851,-1.11122894287,-0.0117703443393,-1.71388626099,-0.034575317055,2.94873809814,0.084269836545,19.9816379547,94.40921020503,49.56964874271,34.99161911014,796
1.64951318443151E+018,10,1.64951318443151E+018,r1000913c5/base_footprint,0,1.64951318443152E+018,v/m1vw10zy74w/map,-9.36582491009,-0.732135401959,0,0,0,-0.999994195301,0.0034072517637,0,67.8578033447,37.6646194458,48.8956756592,95.5204391479,51.035030365,51.035030365,67.8578033447,67.8578033447,33.6114845276,0.175084933639,0,7.64812939451E-05,0.262985318899,0.0024789061863,0.00255538756028,-17.6829814911,-0.884961545467,-1.11122894287,-0.0117703443393,-1.46538162231,-0.0295620746911,1.38013458252,0.0394418612123,19.9816379547,94.40921020503,49.56964874269,34.99161911012,796
1.64951318453248E+018,11,1.64951318453248E+018,r1000913c5/base_footprint,0,1.64951318453249E+018,v/m1vw10zy74w/map,-9.49747892267,-0.735392287112,0,0,0,-0.999974747551,0.0071066348922,0,68.0154037476,46.2915611267,48.8956756592,95.3274230957,51.0184822083,51.0184822083,68.0154037476,68.0154037476,29.9011001587,0.150247082114,0,9.70723849605E-05,0.273902088404,0.000789952115156,0.000692879722919,-25.2737751007,-1.20249462128,-0.814636230469,-0.00861932337284,-1.42721939087,-0.0287796538323,4.94178771973,0.141830593348,21.017786026,94.512786865231,49.59126281743,34.84288787843,851
1.64951318463135E+018,12,1.64951318463135E+018,r1000913c5/base_footprint,0,1.64951318463135E+018,v/m1vw10zy74w/map,-9.52276149923,-0.734319525792,0,0,0,-0.999987451535,0.00500966788418,0,67.8757247925,45.0407905579,48.8956756592,95.4746780396,50.9830589294,50.9830589294,67.8757247925,67.8757247925,32.5627975464,0.186182424426,0,0.000164532961207,0.280281543732,0.00203589606099,0.00187136325985,-24.0230045319,-1.14298450947,-0.961891174316,-0.0101773655042,-1.39179611206,-0.0280653499067,2.28009033203,0.0654391869903,21.017786026,94.512786865284,49.59126281734,34.84288787843,851
1.6495131847314E+018,13,1.6495131847314E+018,r1000913c5/base_footprint,0,1.6495131847314E+018,v/m1vw10zy74w/map,-9.52276149923,-0.734319525792,0,0,0,-0.999987451535,0.00500966788418,0,68.0499267578,40.3114204407,48.8802909851,95.4746780396,51.0009307861,51.0009307861,68.0499267578,68.0499267578,29.6202144623,0.206139728427,0,0.000526453426573,0.286077916622,0.00158451450989,0.00105806102511,-19.2936344147,-0.917967021465,-0.961891174316,-0.0101773655042,-1.40966796875,-0.0284257326275,5.22267341614,0.149892091751,21.017786026,94.512786865284,49.59126281735,34.84288787844,851
1.64951318483058E+018,14,1.64951318483058E+018,r1000913c5/base_footprint,0,1.64951318483058E+018,v/m1vw10zy74w/map,-9.52276149923,-0.734319525792,0,0,0,-0.999987451535,0.00500966788418,0,67.9934921265,45.8995285034,48.8802909851,95.4746780396,51.0220031738,51.0220031738,67.9934921265,67.9934921265,30.8636302948,0.24065567553,0,0.000546029303223,0.288831055164,0.000760729366448,0.000214700077777,-24.8817424774,-1.18384218216,-0.961891174316,-0.0101773655042,-1.43074035645,-0.0288506541401,3.97925758362,0.114205732942,21.017786026,94.512786865284,49.59126281735,34.84288787842,851
1.6495131849307E+018,15,1.6495131849307E+018,r1000913c5/base_footprint,0,1.6495131849307E+018,v/m1vw10zy74w/map,-9.66561711333,-0.736277397424,0,0,0,-0.999991089451,0.00422149480495,0,67.9814453125,49.4553375244,48.8802909851,95.5423812866,51.1427688599,51.1427688599,67.9814453125,67.9814453125,32.6284790039,0.108343169093,0,0.000628938490991,0.29322218895,0.00179491005838,0.00242384849116,-27.1250152588,-1.2147166729,-0.840476989746,-0.00887497421354,-1.88768768311,-0.0383247286081,1.35680770874,0.0399233847857,22.3303222656,94.701904296854,49.25508117679,33.98528671264,1022
1.64951318503064E+018,16,1.64951318503064E+018,r1000913c5/base_footprint,0,1.64951318503064E+018,v/m1vw10zy74w/map,-9.66561711333,-0.736277397424,0,0,0,-0.999991089451,0.00422149480495,0,67.883354187,45.4390449524,48.9647712708,95.5423812866,51.1821136475,51.1821136475,67.883354187,67.883354187,34.8190803528,0.157395631075,0,0.000977192539722,0.311497420073,0.016046019271,0.0170232113451,-23.1087226868,-1.03485846519,-0.840476989746,-0.00887497421354,-1.9270324707,-0.0391235277057,-0.833793640137,-0.0245339591056,22.3303222656,94.701904296854,49.2550811768,33.985286712663,1022
1.6495131851307E+018,17,1.6495131851307E+018,r1000913c5/base_footprint,0,1.6495131851307E+018,v/m1vw10zy74w/map,-9.81526215762,-0.731989775798,0,0,0,0.999995785243,0.00290335954954,0,68.1761703491,42.0415229797,48.9105682373,95.5727920532,51.0991973877,51.0991973877,68.1761703491,68.1761703491,28.7623291016,0.16332128644,0,0.000659079756588,0.316892385483,0.0258200727403,0.0264791529626,-18.6617240906,-0.798198640347,-0.67211151123,-0.00708226207644,-2.08135986328,-0.0424612760544,4.44219207764,0.133782744408,23.3797988891,94.90068054197,49.01783752442,33.20452117924,1195
1.64951318523146E+018,18,1.64951318523146E+018,r1000913c5/base_footprint,0,1.64951318523146E+018,v/m1vw10zy74w/map,-9.81526215762,-0.731989775798,0,0,0,0.999995785243,0.00290335954954,0,68.2280654907,42.9065742493,48.8414535522,95.5727920532,51.0738372803,51.0738372803,68.2280654907,68.2280654907,27.5543174744,0.245845869184,0,0.000366252701497,0.321979016066,0.0295578911901,0.0299241449684,-19.5267753601,-0.835198581219,-0.67211151123,-0.00708226207644,-2.05599975586,-0.041943911463,5.65020370483,0.170163691044,23.3797988892,94.90068054197,49.01783752444,33.20452117923,1195
1.64951318533175E+018,19,1.64951318533175E+018,r1000913c5/base_footprint,0,1.64951318533175E+018,v/m1vw10zy74w/map,-9.95026589783,-0.731136573993,0,0,0,0.999993747819,0.00353614527897,0,68.3509979248,46.4442481995,48.7251777649,95.6127624512,51.1097373962,51.1097373962,68.3509979248,68.3509979248,25.8731460571,0.130884006619,0,0.000417853123508,0.326388955116,0.033087734133,0.0335055887699,-22.4423809052,-0.935026466846,-0.737030029297,-0.00776837253943,-2.2278175354,-0.045575492084,7.00855636597,0.213144570589,24.0018672943,94.875732421903,48.8819198608,32.88170242307,1193
1.64951318543083E+018,20,1.64951318543083E+018,r1000913c5/base_footprint,0,1.64951318543083E+018,v/m1vw10zy74w/map,-9.95026589783,-0.731136573993,0,0,0,0.999993747819,0.00353614527897,0,68.4798583984,45.1570091248,48.6187286377,95.6127624512,51.1483879089,51.1483879089,68.4798583984,68.4798583984,23.9711399078,0.174823507667,0,0.000400551245548,0.330939441919,0.0391548126936,0.0395553633571,-21.1551418304,-0.881395637989,-0.737030029297,-0.00776837253943,-2.2664680481,-0.0463661849499,8.91056251526,0.270988464355,24.0018672944,94.875732421903,48.8819198608,32.88170242306,1193
1.64951318563053E+018,21,1.64951318563053E+018,r1000913c5/base_footprint,0,1.64951318563053E+018,v/m1vw10zy74w/map,-10.0878959615,-0.728827474916,0,0,0,-0.999970664484,0.00765964569421,0,68.3542861938,42.0415229797,48.569732666,95.7669677734,51.3136940002,51.3136940002,68.3542861938,68.3542861938,28.5717983246,0.220376133919,0,0.00049066595966,0.391364753246,0.0759949088097,0.0755042433739,-17.3785037994,-0.704638123512,-0.882133483887,-0.00929688569158,-2.42218017578,-0.0495419353247,3.95578956604,0.121613368392,24.6630191803,94.884834289513,48.89151382442,32.52758789064,1199
1.64951318573052E+018,22,1.64951318573052E+018,r1000913c5/base_footprint,0,1.64951318573052E+018,v/m1vw10zy74w/map,-10.0878959615,-0.728827474916,0,0,0,-0.999970664484,0.00765964569421,0,68.0405502319,35.2941169739,48.582118988,95.7669677734,51.1151809692,51.1151809692,68.0405502319,68.0405502319,32.0751571655,0.242979124188,0,0.00224624294788,0.389112025499,0.10926053673,0.107014298439,-10.6310977936,-0.431054204702,-0.882133483887,-0.00929688569158,-2.22366714478,-0.045481659472,0.452430725098,0.0139091387391,24.6630191803,94.884834289513,48.89151382442,32.527587890598,1199
1.64951318583073E+018,23,1.64951318583073E+018,r1000913c5/base_footprint,0,1.64951318583073E+018,v/m1vw10zy74w/map,-10.1363130572,-0.72980982601,0,0,0,-0.99777968063,0.0666011180251,0,68.0143051147,29.2412624359,48.6459655762,95.8480453491,50.9558372498,50.9558372498,68.0143051147,68.0143051147,31.1184692383,0.21545214951,0,0.00416887318715,0.38099744916,0.101046346128,0.0968774706125,-4.52344703674,-0.183003515005,-0.973846435547,-0.0102646080777,-2.06197357178,-0.0421724393964,1.47473526001,0.0452467091382,24.71781539916,94.874198913553,48.89386367802,32.59320449831,1201
1.6495131859308E+018,24,1.6495131859308E+018,r1000913c5/base_footprint,0,1.6495131859308E+018,v/m1vw10zy74w/map,-10.1319016266,-0.728483163576,0,0,0,-0.991564284552,0.129615853975,0,68.032913208,28.1544685364,48.6459655762,95.5962982178,50.6480407715,50.6480407715,68.032913208,68.032913208,26.5530147552,0.161778748035,0,0.00445460900664,0.374390155077,0.0838121920824,0.0793575868011,-3.49144935608,-0.141566172242,-0.711463928223,-0.00749818375334,-1.75652694702,-0.0359270311892,5.97457313538,0.183677107096,24.66301918032,94.884834289577,48.89151382448,32.52758789058,1199
1.64951318603121E+018,25,1.64951318603121E+018,r1000913c5/base_footprint,0,1.64951318603121E+018,v/m1vw10zy74w/map,-10.1319016266,-0.728483163576,0,0,0,-0.991564284552,0.129615853975,0,67.8712387085,33.2748031616,48.6459655762,95.5962982178,50.580997467,50.580997467,67.8712387085,67.8712387085,28.7391586304,0.140148088336,0,0.00485258176923,0.366626620293,0.0677126199007,0.0628600344062,-8.61178398132,-0.349178016186,-0.711463928223,-0.00749818375334,-1.68948364258,-0.0345557630062,3.78842926025,0.116468191147,24.66301918028,94.884834289577,48.89151382442,32.52758789065,1199
1.64951318613118E+018,26,1.64951318613118E+018,r1000913c5/base_footprint,0,1.64951318613118E+018,v/m1vw10zy74w/map,-10.1341192563,-0.728576147654,0,0,0,-0.981339207723,0.192284579166,0,68.0491790771,32.6513214111,48.5569229126,95.7601089478,50.4323196411,50.4323196411,68.0491790771,68.0491790771,24.5202255249,0.271574407816,0,0.00478171696886,0.355288088322,0.0522712431848,0.0474895238876,-7.98830223083,-0.323897987604,-0.875274658203,-0.00922460015863,-1.54080581665,-0.0315147899091,8.00736236572,0.246171414852,24.66301918027,94.884834289597,48.89151382445,32.52758789062,1199
1.64951318623049E+018,27,1.64951318623049E+018,r1000913c5/base_footprint,0,1.64951318623049E+018,v/m1vw10zy74w/map,-10.1445896502,-0.731420413348,0,0,0,-0.968024503357,0.250855657502,0,67.9756317139,35.5946769714,48.5616035461,95.8222122192,50.5139045715,50.5139045715,67.9756317139,67.9756317139,26.9487266541,0.158985972404,0,0.0045639150776,0.346159815788,0.0419357828796,0.037371866405,-10.8768615723,-0.440041393042,-0.948013305664,-0.00999231915921,-1.62004089355,-0.0331338271499,5.64447784424,0.173179596663,24.7178153991,94.874198913536,48.89386367795,32.59320449834,1201
1.64951318633103E+018,28,1.64951318633103E+018,r1000913c5/base_footprint,0,1.64951318633104E+018,v/m1vw10zy74w/map,-10.139095073,-0.733255034985,0,0,0,-0.951246247824,0.308432449656,0,67.6825180054,36.5213699341,48.3913726807,95.4859313965,50.2747421265,50.2747421265,67.6825180054,67.6825180054,28.4313011169,0.098334133625,0,0.00438472954556,0.33814099431,0.0388883426785,0.0345036126673,-11.8035545349,-0.47753226757,-0.61173248291,-0.00644782744348,-1.38087844849,-0.0282423663884,4.16190338135,0.127692371607,24.7178153992,94.87419891359,48.89386367801,32.59320449825,1201
1.64951318643057E+018,29,1.64951318643057E+018,r1000913c5/base_footprint,0,1.64951318643057E+018,v/m1vw10zy74w/map,-10.1416549024,-0.748255576249,0,0,0,-0.936126357935,0.351663819548,0,67.8441238403,35.1211090088,48.2086219788,95.4551696777,50.050945282,50.050945282,67.8441238403,67.8441238403,22.9945526123,0.240934178233,0,0.00469065271318,0.318274855614,0.0338680744171,0.0291774235666,-10.4032936096,-0.420882403851,-0.58097076416,-0.00612359074876,-1.157081604,-0.0236651692539,9.59865188599,0.294498562813,24.7178153992,94.87419891354,48.893863678,32.59320449829,1201
1.64951318653053E+018,30,1.64951318653053E+018,r1000913c5/base_footprint,0,1.64951318653053E+018,v/m1vw10zy74w/map,-10.1416549024,-0.748255576249,0,0,0,-0.936126357935,0.351663819548,0,67.6580963135,37.3121528625,47.904006958,95.4551696777,49.7925682068,49.7925682068,67.6580963135,67.6580963135,23.5525512695,0.27145293355,0,0.00439980905503,0.285241097212,0.0251594241709,0.0207596141845,-12.5943374634,-0.509524703026,-0.58097076416,-0.00612359074876,-0.898704528809,-0.018380722031,9.04065322876,0.277378469706,24.7178153991,94.87419891354,48.893863677991,32.59320449826,1201
1.64951318663059E+018,31,1.64951318663059E+018,r1000913c5/base_footprint,0,1.64951318663059E+018,v/m1vw10zy74w/map,-10.1408746618,-0.752019451086,0,0,0,-0.911840831842,0.410543904333,0,67.4142532349,35.674987793,47.5074996948,95.100151062,49.5226631165,49.5226631165,67.4142532349,67.4142532349,23.7487258911,0.20912887156,0,0.0046497634612,0.227390706539,0.00311982468702,0.00152993865777,-10.9571723938,-0.443290472031,-0.225952148438,-0.00238159741275,-0.628799438477,-0.0128604983911,8.84447860718,0.271359592676,24.7178153992,94.874198913562,48.893863678023,32.59320449828,1201
1.64951318673047E+018,32,1.64951318673047E+018,r1000913c5/base_footprint,0,1.64951318673047E+018,v/m1vw10zy74w/map,-10.134541485,-0.744580851004,0,0,0,-0.885315982528,0.464989904277,0,66.979675293,33.4685592651,46.6951179504,95.0130081177,49.2221183777,49.2221183777,66.979675293,66.979675293,28.0114879608,0.234140381217,0,0.00437639979646,0.205893710256,0.00189271220006,0.00626911222935,-8.80554008484,-0.357034146786,-0.128173828125,-0.00135083578061,-0.330604553223,-0.00676200259477,4.51609992981,0.138839066029,24.66301918026,94.884834289575,48.891513824477,32.52758789061,1199
1.64951318683109E+018,33,1.64951318683109E+018,r1000913c5/base_footprint,0,1.64951318683109E+018,v/m1vw10zy74w/map,-10.1309451136,-0.74629682399,0,0,0,-0.859597972248,0.510970964054,0,66.7472991943,33.1358451843,46.0903968811,95.2095108032,49.0466690063,49.0466690063,66.7472991943,66.7472991943,31.006816864,0.218313887715,0,0.00435258075595,0.189575880766,0.00523560168222,0.00958818290383,-8.47282600403,-0.343543738127,-0.324676513672,-0.00342179555446,-0.155155181885,-0.00317345838994,1.52077102661,0.0467532686889,24.66301918027,94.884834289528,48.891513824415,32.52758789061,1199
1.64951318693369E+018,34,1.64951318693369E+018,r1000913c5/base_footprint,0,1.64951318693369E+018,v/m1vw10zy74w/map,-10.1239145543,-0.747894119208,0,0,0,-0.85770176326,0.514147532621,0,66.614654541,37.3677520752,45.4483909607,95.3405990601,48.8866081238,48.8866081238,66.614654541,66.614654541,32.1377601624,0.172136113048,0,0.00448270142078,0.179524734616,0.00805591512471,0.0125386165455,-12.7047328949,-0.515132904053,-0.455764770508,-0.00480334693566,0.00490570068359,0.000100338489574,0.389827728271,0.0119845261797,24.6630191803,94.884834289592,48.8915138244836,32.527587890671,1199
1.64951318703052E+018,35,1.64951318703052E+018,r1000913c5/base_footprint,0,1.64951318703052E+018,v/m1vw10zy74w/map,-10.1204928263,-0.746025369666,0,0,0,-0.823572256024,0.567211370749,0,66.7623672485,34.4537811279,44.8686790466,95.1261138916,48.7765197754,48.7765197754,66.7623672485,66.7623672485,27.5178585052,0.299502581358,0,0.00447960523888,0.152864232659,0.0299141202122,0.0343937240541,-9.79076194763,-0.396981477737,-0.241279602051,-0.00254286802374,0.114994049072,0.00235202466138,5.00972938538,0.154014781117,24.66301918027,94.884834289549,48.891513824472,32.52758789058,1199
1.64951318713074E+018,36,1.64951318713074E+018,r1000913c5/base_footprint,0,1.64951318713074E+018,v/m1vw10zy74w/map,-10.1196327387,-0.75223691968,0,0,0,-0.788413979271,0.615145021349,0,66.4730834961,30.2832241058,44.2945861816,95.0547485352,48.6662750244,48.6662750244,66.4730834961,66.4730834961,31.2773113251,0.264563709497,0,0.00436012400314,0.143946319818,0.0406461656094,0.0450062900782,-5.62020492554,-0.227879837155,-0.169914245605,-0.0017907419242,0.225238800049,0.00460691004992,1.25027656555,0.0384374186397,24.66301918026,94.884834289595,48.891513824449,32.52758789065,1199
1.64951318723086E+018,37,1.64951318723086E+018,r1000913c5/base_footprint,0,1.64951318723086E+018,v/m1vw10zy74w/map,-10.1162534333,-0.728191721008,0,0,0,-0.787956138406,0.615731373205,0,66.5548553467,25.6055355072,44.2945861816,95.4800796509,48.5180282593,48.5180282593,66.5548553467,66.5548553467,29.7355728149,0.438437521458,0,0.00422585802153,0.132950544357,0.0566386803985,0.0608645379543,-0.942516326904,-0.0382157713175,-0.595245361328,-0.00627334555611,0.373485565186,0.00763906724751,2.79201507568,0.0858352929354,24.663019180296,94.884834289572,48.891513824486,32.52758789058,1199
1.64951318863052E+018,38,1.64951318863052E+018,r1000913c5/base_footprint,0,1.64951318863052E+018,v/m1vw10zy74w/map,-10.1167345765,-0.731443461027,0,0,0,-0.718916662095,0.695096276038,0,66.5358734131,32.1597251892,43.7333297729,95.7067947388,48.5012626648,48.5012626648,66.5358734131,66.5358734131,30.7123775482,0.358046174049,0,0.00196027895436,0.0165933631361,0.265874803066,0.263914525509,-7.49670600891,-0.303965449333,-0.821960449219,-0.00866271648556,0.390251159668,0.00798198115081,1.81521034241,0.0558052547276,24.66301918029,94.884834289581,48.891513824468,32.52758789061,1199
1.64951318873101E+018,39,1.64951318873101E+018,r1000913c5/base_footprint,0,1.64951318873101E+018,v/m1vw10zy74w/map,-10.1167345765,-0.731443461027,0,0,0,-0.718916662095,0.695096276038,0,66.4897537231,24.6064624786,42.9839477539,95.7067947388,48.1433906555,48.1433906555,66.4897537231,66.4897537231,27.6774635315,0.46325263381,0,0.00410483591259,0.0752395391464,0.249377027154,0.245272189379,0.0565567016602,0.00229317834601,-0.821960449219,-0.00866271648556,0.748123168945,0.0153016978875,4.85012435913,0.149108022451,24.6630191802602,94.884834289581,48.891513824445,32.52758789063,1199
1.64951318883207E+018,40,1.64951318883207E+018,r1000913c5/base_footprint,0,1.64951318883207E+018,v/m1vw10zy74w/map,-10.1167345765,-0.731443461027,0,0,0,-0.718916662095,0.695096276038,0,66.2812347412,21.0201568604,42.9839477539,95.7067947388,47.7940864563,47.7940864563,66.2812347412,66.2812347412,27.6583080292,0.406521707773,0,0.00329802744091,0.113981209695,0.222133502364,0.218835473061,3.64286231995,0.147705450654,-0.821960449219,-0.00866271648556,1.09742736816,0.0224461723119,4.86927986145,0.149696931243,24.66301918035,94.884834289581,48.89151382446,32.52758789065,1199
1.64951318893079E+018,41,1.64951318893079E+018,r1000913c5/base_footprint,0,1.64951318893079E+018,v/m1vw10zy74w/map,-10.1167345765,-0.731443461027,0,0,0,-0.718916662095,0.695096276038,0,65.654006958,21.5686283112,42.9839477539,95.7067947388,47.4242019653,47.4242019653,65.654006958,65.654006958,34.9536590576,0.363362282515,0,0.00355701963417,0.117821447551,0.207977980375,0.204420953989,3.09439086914,0.125466838479,-0.821960449219,-0.00866271648556,1.46731185913,0.0300115849823,-2.42607116699,-0.0745850279927,24.66301918034,94.884834289581,48.89151382443,32.52758789061,1199
1.64951318903075E+018,42,1.64951318903075E+018,r1000913c5/base_footprint,0,1.64951318903075E+018,v/m1vw10zy74w/map,-10.1205897393,-0.865537274991,0,0,0,-0.717248284231,0.696817694069,0,65.9011154175,24.2546329498,42.9839477539,95.5537490845,47.2673988342,47.2673988342,65.9011154175,65.9011154175,28.2613601685,0.384413897991,0,0.00353273749352,0.114742308855,0.203608483076,0.200075745583,0.68691444397,0.0275409705937,-0.624740600586,-0.0065811346285,1.44918060303,0.0297471750528,3.97301864624,0.123254075646,24.94154739377,94.929008483914,48.71657943723,32.23437881474,1214
1.64951318913082E+018,43,1.64951318913082E+018,r1000913c5/base_footprint,0,1.64951318913082E+018,v/m1vw10zy74w/map,-10.1205897393,-0.865537274991,0,0,0,-0.717248284231,0.696817694069,0,65.813911438,26.7791023254,42.9839477539,95.5537490845,47.1210784912,47.1210784912,65.813911438,65.813911438,28.2507286072,0.274068444967,0,0.00361138745211,0.104761838913,0.188111066818,0.184499680996,-1.83755493164,-0.0736744552851,-0.624740600586,-0.0065811346285,1.59550094604,0.0327506773174,3.98365020752,0.123583897948,24.94154739376,94.929008483914,48.71657943724,32.23437881472,1214
1.6495131892316E+018,44,1.6495131892316E+018,r1000913c5/base_footprint,0,1.64951318923161E+018,v/m1vw10zy74w/map,-10.1205776824,-0.998036203582,0,0,0,-0.718255357796,0.695779592254,0,65.6856918335,31.0924377441,42.9839477539,95.5326309204,46.9246826172,46.9246826172,65.6856918335,65.6856918335,28.3615455627,0.303036153316,0,0.00359422969632,0.096873767674,0.168988257647,0.165394037962,-5.66813278198,-0.222941502929,-0.526443481445,-0.00554114952683,1.78360748291,0.0366181507707,3.7251625061,0.116096749902,25.42430496212,95.006187438955,48.70829010011,32.0867080688,1141
1.64951318933201E+018,45,1.64951318933201E+018,r1000913c5/base_footprint,0,1.64951318933201E+018,v/m1vw10zy74w/map,-10.1205776824,-0.998036203582,0,0,0,-0.718255357796,0.695779592254,0,65.8145599365,37.0915031433,42.9791526794,95.5326309204,46.9162445068,46.9162445068,65.8145599365,65.8145599365,25.9508666992,0.305950641632,0,0.00358622195199,0.0913154631853,0.161936163902,0.158349946141,-11.6671981812,-0.458899408579,-0.526443481445,-0.00554114952683,1.79204559326,0.0367913879454,6.13584136963,0.191226884723,25.4243049621,95.006187438955,48.70829010006,32.08670806883,1141
1.64951318943068E+018,46,1.64951318943068E+018,r1000913c5/base_footprint,0,1.64951318943068E+018,v/m1vw10zy74w/map,-10.1192394938,-1.13428940811,0,0,0,-0.71660342235,0.697480849254,0,65.6935272217,39.5194702148,43.1187477112,95.4463195801,46.9189834595,46.9189834595,65.6935272217,65.6935272217,27.8482570648,0.276982069016,0,0.00386003311723,0.0856683030725,0.155429303646,0.151569262147,-13.1567935944,-0.499068945646,-0.289855957031,-0.00304609839804,1.4216003418,0.0294080097228,3.71063613892,0.117578148842,26.3626766204,95.156463623069,48.3405838013,31.55889320372,936
1.64951318953074E+018,47,1.64951318953074E+018,r1000913c5/base_footprint,0,1.64951318953074E+018,v/m1vw10zy74w/map,-10.1192394938,-1.13428940811,0,0,0,-0.71660342235,0.697480849254,0,65.939491272,42.4280357361,43.6200027466,95.4463195801,47.0164489746,47.0164489746,65.939491272,65.939491272,24.4734954834,0.238189414144,0,0.00373362796381,0.0764215514064,0.133011609316,0.129277989268,-16.0653591156,-0.609397888184,-0.289855957031,-0.00304609839804,1.32413482666,0.0273917838931,7.08539772034,0.224513500929,26.3626766205,95.156463623069,48.34058380126,31.55889320374,936
1.64951318963068E+018,48,1.64951318963068E+018,r1000913c5/base_footprint,0,1.64951318963068E+018,v/m1vw10zy74w/map,-10.1161265874,-1.26536639211,0,0,0,-0.718183087035,0.695854189824,0,66.1902008057,39.0905303955,43.6200027466,95.6549682617,47.1545181274,47.1545181274,66.1902008057,66.1902008057,22.2030391693,0.244467407465,0,0.00381027394906,0.0720493048429,0.121162362397,0.117352090776,-8.42003059387,-0.274531900883,0.196472167969,0.0020497571677,-0.116352081299,-0.00247356761247,6.04923629761,0.214115008712,30.67049980163,95.851440429669,47.038166046101,28.25227546691,326
1.64951318973069E+018,49,1.64951318973069E+018,r1000913c5/base_footprint,0,1.64951318973069E+018,v/m1vw10zy74w/map,-10.1161265874,-1.26536639211,0,0,0,-0.718183087035,0.695854189824,0,66.3043823242,43.2624130249,44.0426216125,95.6549682617,47.2950973511,47.2950973511,66.3043823242,66.3043823242,21.6660022736,0.237764000893,0,0.00350598408841,0.0647396594286,0.095995426178,0.0924894362688,-12.5919132233,-0.410554558039,0.196472167969,0.0020497571677,-0.256931304932,-0.00546218780801,6.58627319336,0.233123630285,30.6704998016,95.851440429669,47.038166046168,28.25227546696,326
1.64951318983083E+018,50,1.64951318983083E+018,r1000913c5/base_footprint,0,1.64951318983083E+018,v/m1vw10zy74w/map,-10.1190803723,-1.39650198424,0,0,0,-0.714252776546,0.699887827581,0,66.4709320068,43.697479248,44.0426216125,95.3280715942,47.435585022,47.435585022,66.4709320068,66.4709320068,19.0085964203,0.288241058588,0,0.00303526036441,0.0567650236189,0.0861542150378,0.0831189528108,-12.5493087769,-0.402890712023,0.50325012207,0.00525141600519,-0.488063812256,-0.0103959441185,9.02373695374,0.321904599667,31.1481704711,95.83132171627,46.947521209744,28.03233337404,322
1.64951319453058E+018,51,1.64951319453058E+018,r1000913c5/base_footprint,0,1.64951319453058E+018,v/m1vw10zy74w/map,-10.1412781732,-2.47978224397,0,0,0,-0.708027451954,0.706184910118,0,66.4516448975,44.0559425354,44.2732696533,95.2289276123,47.5913276672,47.5913276672,66.4516448975,66.4516448975,20.6808376312,0.270454615355,0,0.00134384958073,0.0821546241641,0.0452215671539,0.0465654172003,-20.408203125,-0.863008618355,0.742446899414,0.00773612875491,-1.26128387451,-0.027223886922,6.42156410217,0.236937090755,23.6477394104,95.971374511714,46.33004379269,27.10240173337,158
1.64951319463062E+018,52,1.64951319463062E+018,r1000913c5/base_footprint,0,1.64951319463062E+018,v/m1vw10zy74w/map,-10.1412781732,-2.47978224397,0,0,0,-0.708027451954,0.706184910118,0,64.7428283691,5.55095291138,44.1707344055,95.2289276123,46.7498016357,46.7498016357,64.7428283691,64.7428283691,42.3510780334,1.3330206871,0,0.00150254857726,0.132092922926,0.0428856126964,0.0443881638348,18.096786499,0.765264987946,0.742446899414,0.00773612875491,-0.419757843018,-0.00906016491354,-15.2486763,-0.562631905079,23.64773941038,95.971374511714,46.330043792682,27.1024017334,158
1.64951319473067E+018,53,1.64951319473067E+018,r1000913c5/base_footprint,0,1.64951319473067E+018,v/m1vw10zy74w/map,-10.1412781732,-2.47978224397,0,0,0,-0.708027451954,0.706184910118,0,64.1559066772,4.56602239609,44.1707344055,95.2289276123,45.9433517456,45.9433517456,64.1559066772,64.1559066772,44.2060775757,1.42760193348,0,0.00120028795209,0.169528380036,0.0411024391651,0.0423027276993,19.0817165375,0.806915044785,0.742446899414,0.00773612875491,0.386692047119,0.00834646448493,-17.1036758423,-0.631076037884,23.64773893359,95.971374511714,46.330043792719,27.1024017334,158
1.64951319483097E+018,54,1.64951319483097E+018,r1000913c5/base_footprint,0,1.64951319483098E+018,v/m1vw10zy74w/map,-10.1412781732,-2.47978224397,0,0,0,-0.708027451954,0.706184910118,0,64.1611480713,11.764705658,44.1707344055,95.2289276123,45.5295715332,45.5295715332,64.1611480713,64.1611480713,39.6429023743,1.36747479439,0,0.0018037057016,0.194884225726,0.0430443659425,0.0448480695486,11.8830337524,0.502501904964,0.742446899414,0.00773612875491,0.800472259521,0.0172776058316,-12.5405006409,-0.462708085775,23.6477394104,95.971374511714,46.330043792721,27.1024017334,158
1.64951319493148E+018,55,1.64951319493148E+018,r1000913c5/base_footprint,0,1.64951319493148E+018,v/m1vw10zy74w/map,-10.1412781732,-2.47978224397,0,0,0,-0.708027451954,0.706184910118,0,64.3017730713,18.5520362854,44.1707344055,95.2289276123,45.3234672546,45.3234672546,64.3017730713,64.3017730713,34.8856430054,1.30373561382,0,0.00221536657773,0.191778063774,0.0578208081424,0.060036174953,5.095703125,0.215483725071,0.742446899414,0.00773612875491,1.00657653809,0.0217262152582,-7.78324127197,-0.287179023027,23.6477394104,95.971374511714,46.33004379269,27.10240173343,158
1.64951319503107E+018,56,1.64951319503107E+018,r1000913c5/base_footprint,0,1.64951319503107E+018,v/m1vw10zy74w/map,-10.1389805964,-2.33884405425,0,0,0,-0.715753605031,0.698352902825,0,64.4223937988,20.2786369324,44.1707344055,95.3256072998,45.3687553406,45.3687553406,64.4223937988,64.4223937988,33.5516319275,1.25882148743,0,0.00177570234518,0.184918671846,0.0597018897533,0.0614775940776,5.11693954468,0.201489403844,0.681495666504,0.00709838792682,0.987007141113,0.0212920047343,-6.64697647095,-0.247056737542,25.39557647708,96.007102966304,46.355762481713,26.90465545655,193
1.64951319513076E+018,57,1.64951319513076E+018,r1000913c5/base_footprint,0,1.64951319513076E+018,v/m1vw10zy74w/map,-10.1389805964,-2.33884405425,0,0,0,-0.715753605031,0.698352902825,0,64.2233276367,22.6213970184,44.1707344055,95.3256072998,45.2969779968,45.2969779968,64.2233276367,64.2233276367,36.3596725464,1.24753010273,0,0.00176606304012,0.180364787579,0.0602773427963,0.0620434060693,2.77417945862,0.109238691628,0.681495666504,0.00709838792682,1.05878448486,0.0228404067457,-9.45501708984,-0.351426810026,25.39557647702,96.007102966304,46.35576248166,26.90465545656,193
1.64951319523068E+018,58,1.64951319523068E+018,r1000913c5/base_footprint,0,1.64951319523068E+018,v/m1vw10zy74w/map,-10.1374877662,-2.1898842504,0,0,0,-0.716743942673,0.697336447235,0,64.4644470215,23.732252121,44.1707344055,95.4211807251,45.4907302856,45.4907302856,64.4644470215,64.4644470215,34.4561080933,1.23515748978,0,0.00102772889659,0.159746989608,0.0597487986088,0.060776527971,2.61817741394,0.0993599519134,0.55061340332,0.00573724182323,1.0122795105,0.0217680428177,-7.35796356201,-0.271530151367,26.35042953494,95.97179412842,46.5030097961,27.09814453129,234
1.64951319533077E+018,59,1.64951319533077E+018,r1000913c5/base_footprint,0,1.64951319533077E+018,v/m1vw10zy74w/map,-10.1374877662,-2.1898842504,0,0,0,-0.716743942673,0.697336447235,0,64.8354415894,19.9679870605,44.1813545227,95.4211807251,45.5675048828,45.5675048828,64.8354415894,64.8354415894,28.6073970795,1.32962226868,0,0.00087689049542,0.131793916225,0.0481350943446,0.0490119867027,6.38244247437,0.242213979363,0.55061340332,0.00573724182323,0.93550491333,0.0201170835644,-1.50925254822,-0.0556957907975,26.35042953487,95.97179412842,46.50300979613,27.09814453128,234
1.64951319543055E+018,60,1.64951319543055E+018,r1000913c5/base_footprint,0,1.64951319543055E+018,v/m1vw10zy74w/map,-10.1355194539,-2.05509995285,0,0,0,-0.71615771959,0.697938479145,0,64.9070205688,19.1676673889,44.1813545227,95.3578033447,45.5991897583,45.5991897583,64.9070205688,64.9070205688,27.4329147339,1.38309144974,0,0.00109407445416,0.117704950273,0.0406041108072,0.0416981838644,8.49528884888,0.307099819183,0.585670471191,0.00610432820395,0.98743057251,0.0211955830455,-0.167230606079,-0.00613337289542,27.66295623778,95.943473815891,46.58662033081,27.265684127821,285
1.64951319553064E+018,61,1.64951319553064E+018,r1000913c5/base_footprint,0,1.64951319553064E+018,v/m1vw10zy74w/map,-10.1355194539,-2.05509995285,0,0,0,-0.71615771959,0.697938479145,0,65.0508575439,17.2413787842,43.9671325684,95.3578033447,45.6323738098,45.6323738098,65.0508575439,65.0508575439,25.2022781372,1.24589514732,0,0.000505365838762,0.106721051037,0.0350126065314,0.0355179719627,10.4215774536,0.376734048128,0.585670471191,0.00610432820395,0.954246520996,0.0204832740128,2.0634059906,0.0756777599454,27.6629562378,95.943473815891,46.586620330796,27.2656841278,285
1.64951319563182E+018,62,1.64951319563182E+018,r1000913c5/base_footprint,0,1.64951319563182E+018,v/m1vw10zy74w/map,-10.1355194539,-2.05509995285,0,0,0,-0.71615771959,0.697938479145,0,65.136505127,16.1966152191,43.9671325684,95.3578033447,45.7677688599,45.7677688599,65.136505127,65.136505127,25.1229457855,1.27751684189,0,0.000496254302561,0.098145082593,0.0310932975262,0.0315895527601,11.4663410187,0.41450163722,0.585670471191,0.00610432820395,0.818851470947,0.0175769664347,2.14273834229,0.0785873681307,27.6629562378,95.943473815891,46.586620330847,27.26568412779,285
1.64951319573302E+018,63,1.64951319573302E+018,r1000913c5/base_footprint,0,1.64951319573302E+018,v/m1vw10zy74w/map,-10.1325618686,-1.93245548523,0,0,0,-0.714764110098,0.699365617481,0,65.0689239502,18.6140213013,43.7152709961,95.1839828491,45.9855117798,45.9855117798,65.0689239502,65.0689239502,28.0652618408,1.21490514278,0,2.77238177659E-05,0.0822946950793,0.0238720607013,0.0238997843117,10.0827655792,0.351355224848,0.725189208984,0.00756120821461,0.604167938232,0.0129678491503,-0.787336349487,-0.0288634989411,28.6967868805,95.909172058084,46.589679718032,27.277925491313,310
1.64951319583165E+018,64,1.64951319583165E+018,r1000913c5/base_footprint,0,1.64951319583165E+018,v/m1vw10zy74w/map,-10.1276932606,-1.78999415704,0,0,0,-0.715724923244,0.698382298062,0,64.963104248,24.0196075439,43.375087738,94.9222793579,46.1779327393,46.1779327393,64.963104248,64.963104248,31.1060333252,0.893968939781,0,0.000165607285453,0.0729699507356,0.0205607973039,0.0203951913863,6.77435302734,0.219989657402,0.981384277344,0.0102330213413,0.589012145996,0.0125946253538,-3.58443641663,-0.130240857601,30.79396057124,95.903663635244,46.766944885296,27.52159690857,311
1.64951319603078E+018,65,1.64951319603078E+018,r1000913c5/base_footprint,0,1.64951319603078E+018,v/m1vw10zy74w/map,-10.1284020784,-1.79750592133,0,0,0,-0.715837805476,0.698266593968,0,65.1080856323,26.3647899628,42.9760818481,95.0543060303,46.3723716736,46.3723716736,65.1080856323,65.1080856323,31.0716094971,0.901016533375,0,0.000314015371259,0.0577773936093,0.0207092054188,0.0203951913863,4.42917060852,0.143832445145,0.84935760498,0.00885636266321,0.39457321167,0.0084370104596,-3.5500125885,-0.128990069032,30.79396057132,95.90366363528,46.76694488527,27.5215969086,311
1.64951319613056E+018,66,1.64951319613056E+018,r1000913c5/base_footprint,0,1.64951319613057E+018,v/m1vw10zy74w/map,-10.1245514852,-1.679254758,0,0,0,-0.716256546945,0.697837057599,0,64.8692779541,31.9327735901,42.9760818481,94.8796386719,46.7051315308,46.7051315308,64.8692779541,64.8692779541,38.3350830078,0.799022316933,0,0.000322849402437,0.0500673018396,0.0207180399448,0.0203951913863,-0.258260726929,-0.00815358199179,0.99479675293,0.0103760380298,0.20743560791,0.00442174915224,-10.8226203918,-0.393371552229,31.674512863171,95.87443542483,46.91256713871,27.512462616,316
1.64951319623082E+018,67,1.64951319623082E+018,r1000913c5/base_footprint,0,1.64951319623082E+018,v/m1vw10zy74w/map,-10.1245514852,-1.679254758,0,0,0,-0.716256546945,0.697837057599,0,65.2820892334,32.6513214111,42.6468467712,94.8796386719,46.9657783508,46.9657783508,65.2820892334,65.2820892334,33.7194290161,0.64065104723,0,0.000345708045643,0.043869882822,0.020740898326,0.0203951913863,-0.976808547974,-0.0308389440179,0.99479675293,0.0103760380298,-0.0532112121582,-0.00113426346797,-6.20696640015,-0.225605621934,31.674512863126,95.87443542483,46.9125671386418,27.51246261595,316
1.64951319633073E+018,68,1.64951319633073E+018,r1000913c5/base_footprint,0,1.64951319633073E+018,v/m1vw10zy74w/map,-10.1234850919,-1.5658128427,0,0,0,-0.715892063563,0.698210966204,0,65.0811080933,31.8885440826,42.2150764465,94.8202819824,47.1052932739,47.1052932739,65.0811080933,65.0811080933,38.6302947998,0.807611227036,0,0.00038200977724,0.0375413447618,0.02077720128,0.0203951913863,-0.0674724578857,-0.00212037027813,1.04753112793,0.0109268277884,-0.208187103271,-0.00443923147395,-11.0255775452,-0.399409174919,31.8210716247143,95.86781311033,46.897106170629,27.6047172546,325
1.64951319643147E+018,69,1.64951319643147E+018,r1000913c5/base_footprint,0,1.64951319643147E+018,v/m1vw10zy74w/map,-10.1234850919,-1.5658128427,0,0,0,-0.715892063563,0.698210966204,0,65.4237518311,35.5119819641,42.2443771362,94.8202819824,47.2999458313,47.2999458313,65.4237518311,65.4237518311,34.5648803711,0.613520622253,0,0.000454912427813,0.0344567485154,0.0214354917407,0.0209805779159,-3.69091033936,-0.115989506245,1.04753112793,0.0109268277884,-0.402839660645,-0.00858986191452,-6.96016311646,-0.252136737108,31.82107162474,95.86781311033,46.897106170655,27.60471725464,325
1.6495131965308E+018,70,1.6495131965308E+018,r1000913c5/base_footprint,0,1.6495131965308E+018,v/m1vw10zy74w/map,-10.1234850919,-1.5658128427,0,0,0,-0.715892063563,0.698210966204,0,65.6546554565,35.3390197754,42.2443771362,94.8202819824,47.5065956116,47.5065956116,65.6546554565,65.6546554565,32.6405029297,0.744616270065,0,0.000472922052722,0.0267224796116,0.0221777092665,0.0217047873884,-3.51794815063,-0.110554046929,1.04753112793,0.0109268277884,-0.609489440918,-0.0129963122308,-5.03578567505,-0.18242482841,31.82107162477,95.86781311033,46.897106170682,27.60471725465,325
1.6495131966307E+018,71,1.6495131966307E+018,r1000913c5/base_footprint,0,1.6495131966307E+018,v/m1vw10zy74w/map,-10.1226135041,-1.43799102733,0,0,0,-0.718663150991,0.695358379116,0,65.4150238037,34.9376106262,42.2535171509,94.7800064087,47.6544189453,47.6544189453,65.4150238037,65.4150238037,38.4052619934,0.713094949722,0,0.000460732990177,0.0223460234702,0.0227338820696,0.0222731493413,-3.617811203,-0.115511953831,1.06980895996,0.011161304079,-0.722023010254,-0.0153843201697,-10.5832920074,-0.380393326283,31.3197994232,95.84981536866,46.932395935046,27.821969986,318
1.64951319673063E+018,72,1.64951319673063E+018,r1000913c5/base_footprint,0,1.64951319673063E+018,v/m1vw10zy74w/map,-10.1226135041,-1.43799102733,0,0,0,-0.718663150991,0.695358379116,0,65.3764572144,29.2348518372,42.4971084595,94.7800064087,47.7378501892,47.7378501892,65.3764572144,65.3764572144,40.0005950928,0.658261716366,0,0.000531339610461,0.0164308138192,0.0228044893593,0.0222731493413,2.08494758606,0.0665696337819,1.06980895996,0.011161304079,-0.80545425415,-0.0171620100737,-12.1786251068,-0.437734097242,31.31979942326,95.84981536866,46.93239593505,27.821969986,318
1.64951319683065E+018,73,1.64951319683065E+018,r1000913c5/base_footprint,0,1.64951319683065E+018,v/m1vw10zy74w/map,-10.1226135041,-1.43799102733,0,0,0,-0.718663150991,0.695358379116,0,65.539642334,29.2348518372,42.4971084595,94.7800064087,47.7738380432,47.7738380432,65.539642334,65.539642334,37.4518737793,0.455265551805,0,0.000556207902264,0.0103401821107,0.0228293575346,0.0222731493413,2.08494758606,0.0665696337819,1.06980895996,0.011161304079,-0.841442108154,-0.0179288126528,-9.62990379333,-0.346125870943,31.31979942326,95.84981536866,46.932395935046,27.82196998597,318
1.6495131970306E+018,74,1.6495131970306E+018,r1000913c5/base_footprint,0,1.6495131970306E+018,v/m1vw10zy74w/map,-10.1154620613,-1.30657350127,0,0,0,-0.717575051408,0.696481188258,0,65.7002944946,27.1290607452,43.0394515991,94.9442749023,47.8016777039,47.8016777039,65.7002944946,65.7002944946,35.4522590637,0.586198270321,0,0.000571842945646,0.00338438432664,0.022844992578,0.0222731493413,3.5414390564,0.115467272699,0.907165527344,0.00946428719908,-0.763511657715,-0.0162317473441,-7.1999835968,-0.254846155643,30.6704998016,95.851440429644,47.038166046185,28.2522754669,326
1.64951319713079E+018,75,1.64951319713079E+018,r1000913c5/base_footprint,0,1.64951319713079E+018,v/m1vw10zy74w/map,-10.1084267049,-1.16713003825,0,0,0,-0.716186866651,0.697908569969,0,65.738067627,24.1830062866,43.9185066223,94.9618911743,47.7029914856,47.7029914856,65.738067627,65.738067627,33.7698707581,0.515501022339,0,0.000206816272112,0.0713781937957,0.0233320724219,0.0231252573431,3.14183044434,0.114980757236,0.272010803223,0.00285623921081,0.463848114014,0.00963003002107,-2.9548034668,-0.0958882719278,27.32483673094,95.233901977523,48.166839599614,30.8150672913,752
1.64951319723106E+018,76,1.64951319723106E+018,r1000913c5/base_footprint,0,1.64951319723106E+018,v/m1vw10zy74w/map,-10.1084267049,-1.16713003825,0,0,0,-0.716186866651,0.697908569969,0,65.6146697998,23.3115463257,45.0099563599,94.9618911743,47.5260276794,47.5260276794,65.6146697998,65.6146697998,34.0798454285,0.575884521008,0,2.21128775593E-05,0.114696398377,0.0240881573409,0.0240660440177,4.01329040527,0.146873354912,0.272010803223,0.00285623921081,0.640811920166,0.0133040063083,-3.26477813721,-0.105947457254,27.32483673097,95.233901977523,48.166839599566,30.81506729129,752
1.64951319733312E+018,77,1.64951319733312E+018,r1000913c5/base_footprint,0,1.64951319733312E+018,v/m1vw10zy74w/map,-10.1084267049,-1.16713003825,0,0,0,-0.716186866651,0.697908569969,0,65.440536499,28.3887462616,45.0099563599,94.9618911743,47.4719734192,47.4719734192,65.440536499,65.440536499,36.6305046082,0.623817205429,0,0.000198854075279,0.142595291138,0.0230823792517,0.0228835251182,-1.06390953064,-0.038935624063,0.272010803223,0.00285623921081,0.69486618042,0.0144262360409,-5.81543731689,-0.188720583916,27.32483673096,95.233901977523,48.16683959962,30.81506729131,752
1.6495131974306E+018,78,1.6495131974306E+018,r1000913c5/base_footprint,0,1.6495131974306E+018,v/m1vw10zy74w/map,-10.1044563518,-1.02464297905,0,0,0,-0.715241155776,0.698877735434,0,65.024055481,27.3356399536,46.2266960144,94.8877182007,47.328453064,47.328453064,65.024055481,65.024055481,42.3100738525,0.492813646793,0,0.000635250413325,0.152478709817,0.0146955130622,0.0140602625906,-1.68096160889,-0.0655226185918,0.127975463867,0.00134688767139,1.27067565918,0.0261460579932,-10.3516921997,-0.32391166687,25.65467834471,95.015693664567,48.59912872318,31.9583816528,1089
1.64951319753058E+018,79,1.64951319753058E+018,r1000913c5/base_footprint,0,1.64951319753058E+018,v/m1vw10zy74w/map,-10.1042553517,-1.02327013917,0,0,0,-0.715503910245,0.698608727704,0,65.1606063843,26.4705886841,46.9504241943,95.1579055786,47.2514915466,47.2514915466,65.1606063843,65.1606063843,39.9936141968,0.500312805176,0,0.00082081859,0.157966226339,0.00184381136205,0.00102299277205,-0.815910339355,-0.0318035706878,-0.142211914062,-0.00149672024418,1.34763717651,0.0277296565473,-8.03523254395,-0.25142800808,25.654678344745,95.015693664538,48.59912872311,31.95838165285,1089
1.64951319763074E+018,80,1.64951319763074E+018,r1000913c5/base_footprint,0,1.64951319763074E+018,v/m1vw10zy74w/map,-10.098778391,-0.89136870376,0,0,0,-0.713939592091,0.700207297052,0,65.1186294556,29.0780143738,46.9504241943,95.2547302246,47.1915893555,47.1915893555,65.1186294556,65.1186294556,40.4509048462,0.354583054781,0,0.000628196634352,0.155736595392,0.000484231015434,0.00111242767889,-4.13646697998,-0.165846452117,-0.325721740723,-0.00343121401966,1.52499008179,0.0313033089042,-8.21652603149,-0.254899471998,24.94154739382,94.929008483877,48.71657943729,32.23437881471,1214
1.64951319773067E+018,81,1.64951319773067E+018,r1000913c5/base_footprint,0,1.64951319773067E+018,v/m1vw10zy74w/map,-10.098778391,-0.89136870376,0,0,0,-0.713939592091,0.700207297052,0,65.5667037964,26.0504207611,47.7181892395,95.2547302246,47.2210006714,47.2210006714,65.5667037964,65.5667037964,32.7031173706,0.574224710464,0,0.000137431314215,0.153780817986,0.000102212034108,3.52192837454E-05,-1.10887336731,-0.0444588847458,-0.325721740723,-0.00343121401966,1.49557876587,0.0306995846331,-0.468738555908,-0.0145415728912,24.94154739379,94.929008483877,48.71657943727,32.234378814692,1214
1.64951319783073E+018,82,1.64951319783073E+018,r1000913c5/base_footprint,0,1.64951319783073E+018,v/m1vw10zy74w/map,-10.098778391,-0.89136870376,0,0,0,-0.713939592091,0.700207297052,0,65.350227356,27.731092453,47.7181892395,95.2547302246,47.1731872559,47.1731872559,65.350227356,65.350227356,36.0834083557,0.427033901215,0,8.07984324638E-05,0.152705356479,0.00068780197762,0.00060700357426,-2.7895450592,-0.111843302846,-0.325721740723,-0.00343121401966,1.5433921814,0.0316810458899,-3.84902954102,-0.119407594204,24.9415473938,94.929008483877,48.7165794373,32.23437881468,1214
1.64951319793084E+018,83,1.64951319793084E+018,r1000913c5/base_footprint,0,1.64951319793084E+018,v/m1vw10zy74w/map,-10.0935665762,-0.746315625845,0,0,0,-0.715482680854,0.698630469846,0,65.5478591919,30.4059658051,48.1043243408,95.3544311523,47.3143196106,47.3143196106,65.5478591919,65.5478591919,34.4090957642,0.426372200251,0,0.000349536159774,0.152609974146,0.000438638002379,8.91018280527E-05,-5.74294662476,-0.232856586576,-0.469596862793,-0.00494912452996,1.57719421387,0.0322590582073,-1.88150787354,-0.0578434504569,24.66301918034,94.884834289507,48.89151382447,32.52758789066,1199
1.64951319803118E+018,84,1.64951319803118E+018,r1000913c5/base_footprint,0,1.64951319803118E+018,v/m1vw10zy74w/map,-10.0935665762,-0.746315625845,0,0,0,-0.715482680854,0.698630469846,0,65.9127044678,29.4117641449,48.2241287231,95.3544311523,47.4271736145,47.4271736145,65.9127044678,65.9127044678,29.0606975555,0.335256993771,0,3.02919179376E-05,0.151961863041,0.000718236318789,0.000687944411766,-4.7487449646,-0.192545160651,-0.469596862793,-0.00494912452996,1.46434020996,0.0299508050084,3.46689033508,0.106583073735,24.6630191803,94.884834289507,48.89151382446,32.52758789058,1199
1.64951319813144E+018,85,1.64951319813144E+018,r1000913c5/base_footprint,0,1.64951319813144E+018,v/m1vw10zy74w/map,-10.0900312898,-0.613155423116,0,0,0,-0.715567694676,0.698543394741,0,66.1034698486,35.3769683838,48.2826576233,95.4474411011,47.6534690857,47.6534690857,66.1034698486,66.1034698486,28.4057388306,0.287388503551,0,3.71468559024E-05,0.151645839214,0.00130388210528,0.00126673525665,-10.9361686707,-0.447455435991,-0.580978393555,-0.00612417049706,1.26511383057,0.025861620903,4.27691650391,0.130861967802,24.4407997131,94.866462707545,48.91858291627,32.68265533451,1156
1.6495131982308E+018,86,1.6495131982308E+018,r1000913c5/base_footprint,0,1.6495131982308E+018,v/m1vw10zy74w/map,-10.0900312898,-0.613155423116,0,0,0,-0.715567694676,0.698543394741,0,66.3891830444,31.3009872437,48.2826576233,95.4474411011,47.8143997192,47.8143997192,66.3891830444,66.3891830444,25.0009918213,0.286679267883,0,1.63234690262E-05,0.151742830873,0.00206733541563,0.00208365893923,-6.86018753052,-0.28068587184,-0.580978393555,-0.00612417049706,1.10418319702,0.022571856156,7.68166351318,0.235037922859,24.44079971318,94.866462707545,48.91858291622,32.68265533448,1156
1.64951319933072E+018,87,1.64951319933072E+018,r1000913c5/base_footprint,0,1.64951319933073E+018,v/m1vw10zy74w/map,-10.0895274224,-0.487481063342,0,0,0,-0.715199723221,0.698920135569,0,66.1353149414,34.7359390259,48.3010864258,95.460723877,47.9840545654,47.9840545654,66.1353149414,66.1353149414,31.4506893158,0.422019302845,0,0.000527077179868,0.205340817571,0.0044405227527,0.00496760010719,-10.2426376343,-0.418181180954,-0.599113464355,-0.00631565786898,0.989574432373,0.0202062707394,1.23431587219,0.037763979286,24.4933013916,94.861610412645,48.973628997773,32.68500518799,1025
1.64951319943034E+018,88,1.64951319943034E+018,r1000913c5/base_footprint,0,1.64951319943034E+018,v/m1vw10zy74w/map,-10.0895274224,-0.487481063342,0,0,0,-0.715199723221,0.698920135569,0,66.3397598267,31.372549057,48.3010864258,95.460723877,48.0144386292,48.0144386292,66.3397598267,66.3397598267,28.0988426208,0.245683968067,0,0.000310396950226,0.202631682158,0.0344242304564,0.0347346290946,-6.87924766541,-0.280862420797,-0.599113464355,-0.00631565786898,0.959190368652,0.0195858553052,4.58616256714,0.140313968062,24.49330139159,94.861610412645,48.973628997852,32.68500518794,1025
1.64951319953062E+018,89,1.64951319953062E+018,r1000913c5/base_footprint,0,1.64951319953062E+018,v/m1vw10zy74w/map,-10.0895274224,-0.487481063342,0,0,0,-0.715199723221,0.698920135569,0,66.2457504272,31.372549057,48.3010864258,95.460723877,47.9364776611,47.9364776611,66.2457504272,66.2457504272,28.9490509033,0.289434492588,0,0.000526476011146,0.2006406039,0.0549949519336,0.0544684752822,-6.87924766541,-0.280862420797,-0.599113464355,-0.00631565786898,1.03715133667,0.0211777519435,3.73595428467,0.114301778376,24.49330139159,94.861610412645,48.97362899777,32.68500518797,1025
1.6495131996311E+018,90,1.6495131996311E+018,r1000913c5/base_footprint,0,1.6495131996311E+018,v/m1vw10zy74w/map,-10.0895274224,-0.487481063342,0,0,0,-0.715199723221,0.698920135569,0,65.8546600342,28.2006912231,48.3010864258,95.460723877,47.8862113953,47.8862113953,65.8546600342,65.8546600342,35.4458312988,0.368840843439,0,0.000937217555474,0.199795603752,0.060045208782,0.0591079890728,-3.70738983154,-0.151363417506,-0.599113464355,-0.00631565786898,1.08741760254,0.0222041457891,-2.76082611084,-0.084467664361,24.49330139156,94.861610412645,48.97362899784,32.68500518796,1025
1.64951319973184E+018,91,1.64951319973184E+018,r1000913c5/base_footprint,0,1.64951319973184E+018,v/m1vw10zy74w/map,-10.0895274224,-0.487481063342,0,0,0,-0.715199723221,0.698920135569,0,66.0289459229,26.8907566071,48.3010864258,95.460723877,47.8147354126,47.8147354126,66.0289459229,66.0289459229,31.5367622375,0.40167376399,0,0.00179519294761,0.198313847184,0.06989826262,0.0681030675769,-2.39745521545,-0.0978820770979,-0.599113464355,-0.00631565786898,1.15889358521,0.0236636251211,1.14824295044,0.035130571574,24.49330139165,94.861610412645,48.97362899781,32.68500518794,1025
1.64951319983058E+018,92,1.64951319983058E+018,r1000913c5/base_footprint,0,1.64951319983058E+018,v/m1vw10zy74w/map,-10.082738628,-0.50085176198,0,0,0,-0.678486227231,0.734613122302,0,65.7392272949,23.2373809814,48.3010864258,94.5179595947,47.6999282837,47.6999282837,65.7392272949,65.7392272949,32.1177940369,0.320797413588,0,0.00243666488677,0.194154143333,0.0851551070809,0.0827184394002,1.09076118469,0.0448353663087,0.367950439453,0.00387781951576,1.28189849854,0.0261709000915,0.635883331299,0.0194141045213,24.32814216609,94.885910034153,48.98182678224,32.753677368199,1028
1.64951319993052E+018,93,1.64951319993052E+018,r1000913c5/base_footprint,0,1.64951319993053E+018,v/m1vw10zy74w/map,-10.0725504983,-0.549805481014,0,0,0,-0.641765931416,0.766900573265,0,65.5180892944,18.5520362854,48.3010864258,94.7506027222,47.2851791382,47.2851791382,65.5180892944,65.5180892944,32.4564437866,0.315581917763,0,0.00250536180101,0.189901396632,0.111070685089,0.108565323055,5.67828559875,0.234346270561,0.112182617188,0.00118257768918,1.6806602478,0.0343231186271,0.376350402832,0.0114626372233,24.23032188415,94.862785339388,48.965839386,32.832794189432,1075
1.64951320003065E+018,94,1.64951320003065E+018,r1000913c5/base_footprint,0,1.64951320003065E+018,v/m1vw10zy74w/map,-10.072442089,-0.558261413225,0,0,0,-0.636361880096,0.771390664683,0,65.3677597046,18.8640975952,48.3010864258,95.0423049927,46.8745918274,46.8745918274,65.3677597046,65.3677597046,31.778181076,0.356084048748,0,0.00331060495228,0.186185225844,0.131554365158,0.128243759274,5.36622428894,0.221467316151,-0.17951965332,-0.00189241394401,2.09124755859,0.0427082963288,1.0546131134,0.0321207232773,24.23032188414,94.86278533938,48.96583938599,32.8327941894,1075
1.64951320013068E+018,95,1.64951320013068E+018,r1000913c5/base_footprint,0,1.64951320013068E+018,v/m1vw10zy74w/map,-10.062084056,-0.612295053509,0,0,0,-0.587582804699,0.809164042468,0,64.7607727051,16.7667064667,48.359336853,95.1244354248,46.4660453796,46.4660453796,64.7607727051,64.7607727051,38.5873832703,0.197616457939,0,0.00453396141529,0.162588357925,0.124144926667,0.119610965252,7.5730304718,0.311138540506,-0.261222839355,-0.0027536789421,2.52931594849,0.0516235791147,-5.80693054199,-0.177146136761,24.3397369385,94.863212585445,48.99536132809,32.78045272831,1158
1.64951320023076E+018,96,1.64951320023076E+018,r1000913c5/base_footprint,0,1.64951320023076E+018,v/m1vw10zy74w/map,-10.042199721,-0.649665507051,0,0,0,-0.531974680324,0.846760260933,0,64.889503479,12.8226833344,48.2655563354,95.5518341064,46.2302322388,46.2302322388,64.889503479,64.889503479,35.2619819641,0.185463443398,0,0.00512152770534,0.125519648194,0.0799439847469,0.0748224556446,11.5170536041,0.473179042339,-0.688621520996,-0.00725909974426,2.76512908936,0.0564365498722,-2.48152923584,-0.0757014900446,24.3397369385,94.863212585404,48.99536132816,32.78045272826,1158
1.64951320033066E+018,97,1.64951320033066E+018,r1000913c5/base_footprint,0,1.64951320033066E+018,v/m1vw10zy74w/map,-10.0290286528,-0.679070028352,0,0,0,-0.472489846514,0.88133611349,0,64.7002258301,13.2674970627,48.0567359924,95.605430603,45.9152374268,45.9152374268,64.7002258301,64.7002258301,35.4600982666,0.0210336893797,0,0.00521304924041,0.085567034781,0.0243509989232,0.0191379506141,10.7734804153,0.448129892349,-0.736747741699,-0.0077659743838,3.02572631836,0.0618240050972,-2.5188331604,-0.0764643698931,24.040977478,94.868682861301,48.94096374516,32.9412651062,1186
1.6495132004311E+018,98,1.6495132004311E+018,r1000913c5/base_footprint,0,1.6495132004311E+018,v/m1vw10zy74w/map,-10.0260738491,-0.683343474873,0,0,0,-0.420351170891,0.907361500798,0,64.2774505615,19.5501728058,47.7953605652,95.4276580811,45.7685661316,45.7685661316,64.2774505615,64.2774505615,40.8460197449,0.230215609074,0,0.00174780096859,0.0623710602522,0.0204826146364,0.0187348145992,4.49080467224,0.186797916889,-0.558975219727,-0.00589209422469,3.17239761353,0.06482090801,-7.90475463867,-0.239965125918,24.04097747804,94.868682861373,48.94096374513,32.94126510623,1186
1.64951320053131E+018,99,1.64951320053131E+018,r1000913c5/base_footprint,0,1.64951320053132E+018,v/m1vw10zy74w/map,-10.0260738491,-0.683343474873,0,0,0,-0.420351170891,0.907361500798,0,64.0185012817,13.3606929779,47.740524292,95.4276580811,45.3862838745,45.3862838745,64.0185012817,64.0185012817,41.3784599304,0.0196408387274,0,0.00199399678968,0.0591804124415,0.0325489491224,0.0305549520999,10.6802845001,0.444253325462,-0.558975219727,-0.00589209422469,3.55467987061,0.0726319923997,-8.43719482422,-0.256128430367,24.040977478,94.868682861373,48.94096374511,32.94126510618,1186
1.64951320063123E+018,100,1.64951320063123E+018,r1000913c5/base_footprint,0,1.64951320063123E+018,v/m1vw10zy74w/map,-10.0199067685,-0.685540899034,0,0,0,-0.364378613465,0.93125089318,0,64.3362121582,18.4807777405,47.5729408264,95.8616943359,45.2366333008,45.2366333008,64.3362121582,64.3362121582,35.605922699,0.300767809153,0,0.00325999665074,0.0476601049304,0.0251519437879,0.0218919478357,5.56019973755,0.231280103326,-0.993011474609,-0.0104672210291,3.70433044434,0.0756897702813,-2.66465759277,-0.0808911770582,24.04097747805,94.868682861291,48.94096374514,32.94126510623,1186
