%time,field.header.seq,field.header.stamp,field.header.frame_id,field.pose.header.seq,field.pose.header.stamp,field.pose.header.frame_id,field.pose.pose.position.x,field.pose.pose.position.y,field.pose.pose.position.z,field.pose.pose.orientation.x,field.pose.pose.orientation.y,field.pose.pose.orientation.z,field.pose.pose.orientation.w,field.label,field.main_output,field.scan_score,field.pose_score,field.cov_score,field.lhood_map_score,field.lhood_robot_score,field.lhood_map_score_all,field.lhood_robot_score_all,field.point_angle_diff,field.average_orientation,field.map_average_orientation,field.sensor_div,field.odom_div_x,field.odom_div_w,field.imu_div_w,field.kdtree_div,field.kdtree_div_p,field.cov_div,field.cov_div_p,field.likelihood_div,field.likelihood_div_p,field.normal_diff_div,field.normal_diff_div_p,field.kdtree_average,field.cov_average,field.likelihood_average,field.normal_diff_average,field.map_update_count
1.64950587945756E+018,0,1.64950587945756E+018,r1000913c5/base_footprint,0,1.64950587945756E+018,v/m1vw10zy74w/map,-7.76026336456,-0.732750890749,0,0,0,-0.999991779834,0.00405465948509,0,66.6964950562,35.4575157166,100,96.2455291748,49.0625,49.0625,66.6964950562,66.6964950562,35.821937561,0.0231626629829,0,0.00165332714096,0.0300590284169,0.00166452734265,1.12001234811E-05,-19.2775115967,-1.19144046307,-2.00101470947,-0.0212321616709,-0.976016998291,-0.0202971175313,1.71826934814,0.0457714423537,16.1800041199,94.24451446533,48.086483001709,37.54020690914,808
1.64950587955811E+018,1,1.64950587955811E+018,r1000913c5/base_footprint,0,1.64950587955811E+018,v/m1vw10zy74w/map,-7.76026336456,-0.732750890749,0,0,0,-0.999991779834,0.00405465948509,0,67.0798034668,25.2100849152,46.9662361145,96.2455291748,49.212677002,49.212677002,67.0798034668,67.0798034668,30.5443286896,0.422155231237,0,0.00133289047517,0.0215483512729,0.000455162982689,0.00178805342875,-9.03008079529,-0.558101296425,-2.00101470947,-0.0212321616709,-1.12619400024,-0.0234201774001,6.9958782196,0.186356946826,16.18000411991,94.24451446533,48.08648300176,37.5402069092,808
1.64950587965835E+018,2,1.64950587965835E+018,r1000913c5/base_footprint,0,1.64950587965835E+018,v/m1vw10zy74w/map,-7.89257868361,-0.749864371504,0,0,0,-0.999998817843,0.00153763223216,0,66.8824081421,26.0504207611,47.5111351013,96.1972503662,49.2621231079,49.2621231079,66.8824081421,66.8824081421,34.4576530457,0.440743118525,0,0.00146061158739,0.0152430078015,0.000635867938399,0.000824743648991,-9.13019561768,-0.539602518082,-1.9753036499,-0.0209643691778,-1.06457138062,-0.0220876652747,3.04504776001,0.0811954289675,16.92022514342,94.2219467163,48.19755172728,37.50270080571,803
1.64950587975802E+018,3,1.64950587975802E+018,r1000913c5/base_footprint,0,1.64950587975802E+018,v/m1vw10zy74w/map,-8.01925101161,-0.731671266204,0,0,0,-0.999999860955,0.000527343006772,0,67.0804824829,26.3647899628,47.9277305603,96.2299194336,49.3819541931,49.3819541931,67.0804824829,67.0804824829,32.3041648865,0.358611047268,0,0.00167199212592,0.0102722644806,0.00398205220699,0.00231006019749,-8.62219047546,-0.4859598279,-1.95742034912,-0.0207634288818,-1.20023727417,-0.0249106381088,5.10820770264,0.136537924409,17.74259948734,94.27249908448,48.18171691893,37.41237258914,824
1.64950588005786E+018,4,1.64950588005786E+018,r1000913c5/base_footprint,0,1.64950588005788E+018,v/m1vw10zy74w/map,-8.18227062542,-0.730527248296,0,0,0,0.999986619345,0.00517311616038,0,67.740562439,24.7404842377,48.0390472412,96.4261169434,49.6283187866,49.6283187866,67.740562439,67.740562439,23.7897777557,0.421011865139,0,0.00122290465515,0.0178612135351,0.00260758609511,0.00383049063385,-6.28637313843,-0.340648919344,-2.04152679443,-0.0216298736632,-1.80344772339,-0.0377094112337,12.7659282684,0.34921848774,18.45411109927,94.38459014897,47.82487106321,36.5557060241,929
1.64950588015736E+018,5,1.64950588015736E+018,r1000913c5/base_footprint,0,1.64950588015736E+018,v/m1vw10zy74w/map,-8.32764459382,-0.747913784077,0,0,0,0.999999999981,6.22119250206E-06,0,67.376914978,26.0249557495,48.2323913574,96.0197067261,49.9124565125,49.9124565125,67.376914978,67.376914978,31.941034317,0.183266237378,0,0.000740269955713,0.00752887036651,0.00691338861361,0.00617311894894,-8.02461242676,-0.445803284645,-1.51176452637,-0.015996163711,-3.15246963501,-0.0674181059003,3.50473594666,0.0988759994507,18.00034332274,94.50794219973,46.75998687749,35.44577026366,1181
1.64950588025739E+018,6,1.64950588025739E+018,r1000913c5/base_footprint,0,1.64950588025739E+018,v/m1vw10zy74w/map,-8.47962916514,-0.749213184185,0,0,0,-0.999996603388,0.00260637914771,0,67.6693344116,15.5815000534,48.1891746521,96.0238800049,50.0242652893,50.0242652893,67.6693344116,67.6693344116,27.9000511169,0.353900790215,0,9.14425399969E-05,0.0256350524724,6.24028962193E-06,8.52022494655E-05,2.59802722931,0.142909497023,-1.48708343506,-0.015730207786,-3.35303497314,-0.0718437209725,7.3007850647,0.207403734326,18.17952728271,94.53679656984,46.67123031616,35.2008361816,1190
1.64950588035718E+018,7,1.64950588035718E+018,r1000913c5/base_footprint,0,1.64950588035718E+018,v/m1vw10zy74w/map,-8.59661421458,-0.730259268052,0,0,0,0.999983600333,0.005727046801,0,67.6254806519,14.5220584869,48.091594696,96.3569564819,50.2523078918,50.2523078918,67.6254806519,67.6254806519,32.3513298035,0.544499158859,0,0.000147258921061,0.0358590073884,0.00369235570543,0.00354509684257,3.65777587891,0.201199620962,-1.79972076416,-0.0190331358463,-3.61339569092,-0.0774759873748,2.50061416626,0.0717496350408,18.17983436581,94.55723571774,46.63891220088,34.85194396976,1176
1.64950588045775E+018,8,1.64950588045775E+018,r1000913c5/base_footprint,0,1.64950588045775E+018,v/m1vw10zy74w/map,-8.74458457735,-0.729036109202,0,0,0,0.999951502766,0.00984845750238,0,67.7686462402,9.92647075653,48.0796852112,96.3672409058,50.5723876953,50.5723876953,67.7686462402,67.7686462402,33.2681808472,0.479191035032,0,0.000497064494994,0.0516609512269,0.0174389239401,0.0169418603182,8.41725063324,0.458862751722,-1.82461547852,-0.0192993953824,-3.80142211914,-0.0812773928046,1.17938232422,0.0342370308936,18.34372138977,94.54262542728,46.77096557616,34.44756317142,1171
1.64950588055752E+018,9,1.64950588055752E+018,r1000913c5/base_footprint,0,1.64950588055752E+018,v/m1vw10zy74w/map,-8.89655369442,-0.723507058194,0,0,0,0.999946835247,0.0103114828732,0,67.8265151978,11.764705658,48.1709213257,96.2426300049,50.8939361572,50.8939361572,67.8265151978,67.8265151978,35.2506637573,-0.0746431052685,0,0.000953806971665,0.0630053877831,0.0140019077808,0.0130481012166,6.63275146484,0.360525459051,-1.66323852539,-0.0175856333226,-3.79056167603,-0.0804732516408,-1.00646591187,-0.0293908454478,18.39745712284,94.57939147951,47.10337448117,34.24419784543,1131
1.64950588065795E+018,10,1.64950588065795E+018,r1000913c5/base_footprint,0,1.64950588065796E+018,v/m1vw10zy74w/map,-9.061982407,-0.715040927794,0,0,0,0.999990506498,0.00435739771795,0,68.1678161621,30.0937767029,47.9198188782,96.4879302979,51.3907775879,51.3907775879,68.1678161621,68.1678161621,35.3562698364,0.0957535505295,0,0.00109305442311,0.0720411911607,0.00894968118519,0.00785662699491,-11.551492691,-0.622981131077,-1.91149139404,-0.0202110745013,-3.61989212036,-0.0757761150599,-0.989852905273,-0.0288029126823,18.5422840119,94.57643890386,47.77088546754,34.366416931127,1024
1.64950588075788E+018,11,1.64950588075788E+018,r1000913c5/base_footprint,0,1.64950588075788E+018,v/m1vw10zy74w/map,-9.23644862105,-0.715003039889,0,0,0,0.999999890325,0.000468347256846,0,68.5127105713,33.613445282,47.9042243958,96.0170593262,51.7274131775,51.7274131775,68.5127105713,68.5127105713,31.0887317657,0.23393510282,0,0.00100881117396,0.0893107652664,0.000569831754547,0.00157864298671,-13.8208789825,-0.698286354542,-1.56044769287,-0.0165202599019,-2.45011901855,-0.0497210547328,3.61719703674,0.104224182665,19.7925662995,94.45661163333,49.27729415895,34.70592880244,828
1.64950588085752E+018,12,1.64950588085752E+018,r1000913c5/base_footprint,0,1.64950588085752E+018,v/m1vw10zy74w/map,-9.33304519144,-0.731526154911,0,0,0,-0.999978347129,0.00658067427535,0,68.5258026123,28.8849868774,47.8177947998,95.4441375732,51.9434776306,51.9434776306,68.5258026123,68.5258026123,31.1239414215,0.196895524859,0,0.00114630698226,0.0981752276421,0.00375853199512,0.00490483921021,-8.90932846069,-0.446009248495,-1.05030822754,-0.0111268740147,-2.37692642212,-0.0479542426765,3.74098014832,0.107299253345,19.97565841671,94.39382934566,49.56655120848,34.86492156982,785
1.649505880958E+018,13,1.649505880958E+018,r1000913c5/base_footprint,0,1.649505880958E+018,v/m1vw10zy74w/map,-9.52989001137,-0.71830094136,0,0,0,-0.999985868422,0.00531629149971,0,68.7588195801,26.1485614777,47.6573677063,95.6493759155,51.6673774719,51.6673774719,68.7588195801,68.7588195801,24.6866416931,0.287964880466,0,0.000938630895689,0.109599336982,0.0137049742043,0.0146436048672,-5.13077545166,-0.244115889072,-1.13658905029,-0.0120257697999,-2.07611465454,-0.0418645255268,10.1562461853,0.291486918926,21.01778602604,94.51278686521,49.59126281736,34.8428878784,851
1.64950588105722E+018,14,1.64950588105722E+018,r1000913c5/base_footprint,0,1.64950588105722E+018,v/m1vw10zy74w/map,-9.54138692061,-0.741110143132,0,0,0,-0.99994950436,0.0100493148725,0,68.4077911377,26.0504207611,47.4501152039,95.8267822266,51.3313560486,51.3313560486,68.4077911377,68.4077911377,28.0147953033,0.328553527594,0,0.000215846448555,0.12086853385,0.00458620209247,0.00480204867199,-4.72400474548,-0.221509546041,-1.30815887451,-0.0138402236626,-1.79021453857,-0.0361359156668,6.71032905579,0.193241328001,21.32641601562,94.51862335209,49.54114151003,34.72512435909,885
1.64950588115809E+018,15,1.64950588115809E+018,r1000913c5/base_footprint,0,1.6495058811581E+018,v/m1vw10zy74w/map,-9.6946513394,-0.735539573516,0,0,0,-0.999994478509,0.00332309361263,0,68.749382019,24.3697471619,47.5103225708,95.9840545654,50.9089317322,50.9089317322,68.749382019,68.749382019,17.8702259064,0.286842793226,0,0.000580458086915,0.132006794214,0.000163446486113,0.000743904558476,-1.56369972229,-0.0685651376843,-1.17848968506,-0.0124305961654,-1.84592437744,-0.0376235470176,15.7065868378,0.467780768871,22.80604743961,94.80556488034,49.06300735476,33.5768127442,1174
1.64950588125763E+018,16,1.64950588125763E+018,r1000913c5/base_footprint,0,1.64950588125763E+018,v/m1vw10zy74w/map,-9.94395138971,-0.740407706946,0,0,0,0.999983736732,0.00570318076042,0,68.0636291504,24.6720275879,47.6414375305,96.2214813232,50.6827888489,50.6827888489,68.0636291504,68.0636291504,28.6261177063,0.309320300817,0,0.000871099473443,0.143544286489,0.00467746239156,0.00380636309274,-0.670160293579,-0.0279211737216,-1.34574890137,-0.0141843324527,-1.80086898804,-0.0368412099779,4.2555847168,0.129421055317,24.001867294321,94.87573242183,48.88191986086,32.8817024231,1193
1.64950588135789E+018,17,1.64950588135789E+018,r1000913c5/base_footprint,0,1.6495058813579E+018,v/m1vw10zy74w/map,-9.97474061334,-0.739182737279,0,0,0,0.999975427923,0.00701024603758,0,67.8688735962,19.5501728058,47.72057724,96.270072937,50.461566925,50.461566925,67.8688735962,67.8688735962,29.917514801,0.42836022377,0,0.00112712616101,0.154602617025,0.00370689830743,0.00257977214642,4.45169448853,0.185472846031,-1.39434051514,-0.0146964928135,-1.57964706421,-0.0323155708611,2.96418762207,0.0901470258832,24.00186729433,94.87573242186,48.88191986079,32.88170242307,1193
1.64950588145811E+018,18,1.64950588145811E+018,r1000913c5/base_footprint,0,1.64950588145813E+018,v/m1vw10zy74w/map,-10.3210715737,-0.729394874996,0,0,0,0.999954037636,0.0095876282957,0,67.6016616821,18.8948307037,47.7826766968,95.4861831665,50.3805618286,50.3805618286,67.6016616821,67.6016616821,31.0304317474,0.288762867451,0,0.00142169906758,0.167743325233,0.000607996771578,0.000813702296,6.75630378723,0.26339200139,-0.51538848877,-0.00542681012303,-0.875778198242,-0.0176907796413,1.62328910828,0.0497122257948,25.65113449093,94.97079467773,49.504783630358,32.65372085568,1269
1.64950588155796E+018,19,1.64950588155796E+018,r1000913c5/base_footprint,0,1.64950588155796E+018,v/m1vw10zy74w/map,-10.4927328146,-0.726268396879,0,0,0,0.999950139184,0.00998594738124,0,67.6614227295,22.7941169739,47.7543907166,94.9182052612,50.4526634216,50.4526634216,67.6614227295,67.6614227295,28.6887207031,0.250379145145,0,0.00160785531625,0.176115110517,0.000483216048451,0.0020910713356,3.02226257324,0.117067635059,-0.0317687988281,-0.000334808632033,-0.760276794434,-0.015299663879,4.29379272461,0.130183920264,25.81637954714,94.8864364623719,49.692386627166,32.98251342771,1151
1.64950588165732E+018,20,1.64950588165732E+018,r1000913c5/base_footprint,0,1.64950588165733E+018,v/m1vw10zy74w/map,-10.608995015,-0.72638451046,0,0,0,0.999928004531,0.0119994064013,0,67.595741272,21.2598419189,47.7564315796,94.726890564,50.5388908386,50.5388908386,67.595741272,67.595741272,30.1134395599,0.226230219007,0,0.00176615524106,0.18671476841,0.000289752730168,0.00205590785481,4.57929039001,0.177223071456,0.113456726074,0.00119629176334,-0.52555847168,-0.0105083677918,3.38178062439,0.100963078439,25.83913230891,94.840347290074,50.01333236692,33.49522018429,1035
1.64950588175749E+018,21,1.64950588175749E+018,r1000913c5/base_footprint,0,1.64950588175749E+018,v/m1vw10zy74w/map,-10.7908631679,-0.721565882666,0,0,0,0.999840883513,0.0178383759157,0,67.6059417725,22.7392444611,47.7540931702,95.0371780396,50.6678390503,50.6678390503,67.6059417725,67.6059417725,32.4395942688,0.199207082391,0,0.00189546693582,0.200943291187,0.00299967615865,0.00110420910642,2.90563774109,0.113302826881,-0.386627197266,-0.00408478546888,-0.512023925781,-0.0102086653933,1.94887161255,0.0566722452641,25.64488220219,94.650550842334,50.155815124519,34.38846588135,915
1.6495058818581E+018,22,1.6495058818581E+018,r1000913c5/base_footprint,0,1.6495058818581E+018,v/m1vw10zy74w/map,-10.9200230465,-0.716583439376,0,0,0,0.999811539899,0.0194135180771,0,67.6660614014,25.6965942383,47.5771789551,95.0478286743,50.6882743835,50.6882743835,67.6660614014,67.6660614014,31.6164474487,0.323715418577,0,0.00204009702429,0.207035958767,0.00386013509706,0.00182003807276,-0.107595443726,-0.00420475378633,-0.372024536133,-0.00392945716158,-0.743270874023,-0.014881785959,2.66909408569,0.07784897089,25.588998794574,94.675804138167,49.945003509477,34.28554153439,964
1.64950588195755E+018,23,1.64950588195755E+018,r1000913c5/base_footprint,0,1.64950588195755E+018,v/m1vw10zy74w/map,-11.2460756951,-0.697076453125,0,0,0,0.999857218648,0.0168979974224,0,67.5355072021,23.9819011688,47.4977264404,94.0785446167,50.816368103,50.816368103,67.5355072021,67.5355072021,31.8603744507,0.387016355991,0,0.00271095265634,0.229039698839,0.00887426827103,0.00616331538185,0.829170227051,0.0334193632007,0.811172485352,0.00854858197272,-3.04640197754,-0.063772328198,0.733528137207,0.0225050728768,24.811071395851,94.889717102052,47.76996612546,32.593902587907,2008
1.64950588205771E+018,24,1.64950588205771E+018,r1000913c5/base_footprint,0,1.64950588205771E+018,v/m1vw10zy74w/map,-11.3789234725,-0.688543553265,0,0,0,0.999912682518,0.0132146637961,0,67.0416488647,18.2757072449,47.4961929321,94.464012146,50.9270973206,50.9270973206,67.0416488647,67.0416488647,43.3333930969,0.407182902098,0,0.00266502168961,0.235511809587,0.00747628835961,0.00481126643717,6.59337043762,0.2651232481,0.441299438477,0.00464989198372,-3.25646972656,-0.0683118700981,-10.9640655518,-0.338717728853,24.86907768252,94.905311584477,47.67062759404,32.3693275451,2024
1.64950588215789E+018,25,1.64950588215789E+018,r1000913c5/base_footprint,0,1.64950588215789E+018,v/m1vw10zy74w/map,-11.5312782067,-0.679513842669,0,0,0,0.999937718961,0.0111605644669,0,67.2449951172,22.5023345947,47.5089073181,94.7080535889,50.9835968018,50.9835968018,67.2449951172,67.2449951172,41.1619415283,0.231371596456,0,0.0022795535624,0.247620329261,0.00530940666795,0.00302985333838,2.69253158569,0.106868259609,0.223701477051,0.00235644518398,-3.33890533447,-0.0700792744756,-8.99182891846,-0.279508769512,25.19486618039,94.931755065951,47.64469146733,32.17011260984,2014
1.64950588225819E+018,26,1.64950588225819E+018,r1000913c5/base_footprint,0,1.64950588225819E+018,v/m1vw10zy74w/map,-11.8450218846,-0.65732871978,0,0,0,0.999964717331,0.00840024362394,0,67.5448303223,24.7058830261,47.6103134155,94.6536560059,50.9484367371,50.9484367371,67.5448303223,67.5448303223,35.1893692017,0.121621862054,0,0.00248373905197,0.262847691774,0.00704978918657,0.00456604966894,-0.00975227355957,-0.000394890754251,0.211212158203,0.00222645280883,-3.19225311279,-0.0668448135257,-3.00761795044,-0.0934572517872,24.6961307525404,94.864868164103,47.75618362431,32.18175125126,1727
1.64950588235761E+018,27,1.64950588235761E+018,r1000913c5/base_footprint,0,1.64950588235762E+018,v/m1vw10zy74w/map,-12.0132259308,-0.667218645121,0,0,0,0.99999007443,0.00445545065245,0,67.6013259888,22.8543872833,47.5962944031,94.8371124268,50.9658851624,50.9658851624,67.6013259888,67.6013259888,35.0213050842,0.0775532200933,0,0.00214821798727,0.272843927145,0.00662215519696,0.0044739372097,1.55925941467,0.0638683512807,-0.164833068848,-0.00174109113868,-3.06489562988,-0.063983976841,-2.36445617676,-0.0724030733109,24.41364669797,94.672279357952,47.90098953252,32.65684890744,1271
1.6495058824574E+018,28,1.6495058824574E+018,r1000913c5/base_footprint,0,1.6495058824574E+018,v/m1vw10zy74w/map,-12.2020802372,-0.664432504995,0,0,0,0.999999280994,0.00119917101245,0,67.8132247925,17.3776378632,47.6395301819,94.7950210571,50.8792228699,50.8792228699,67.8132247925,67.8132247925,30.1196136475,0.13652972877,0,0.0023409279529,0.287307262421,0.000624959648121,0.00171596824657,6.98048591614,0.286577314138,-0.446296691895,-0.00473028840497,-0.452899932861,-0.00898141879588,4.31175231934,0.125227451324,24.35812377934,94.348724365205,50.426322937039,34.43136596684,466
1.64950588255769E+018,29,1.64950588255769E+018,r1000913c5/base_footprint,0,1.64950588255769E+018,v/m1vw10zy74w/map,-12.3724624239,-0.665589836058,0,0,0,0.999998365776,0.0018078840355,0,67.4027786255,16.593503952,47.6722412109,94.5591049194,50.8233909607,50.8233909607,67.4027786255,67.4027786255,36.0553627014,0.430701315403,0,0.00196434604004,0.299778401852,0.00169522804208,0.00365957408212,7.16598320007,0.301605135202,-0.239799499512,-0.00254242215306,-0.749904632568,-0.0149760823697,-1.69920730591,-0.0494586005807,23.75948715207,94.319305419888,50.073486328132,34.35615539549,511
1.64950588265735E+018,30,1.64950588265735E+018,r1000913c5/base_footprint,0,1.64950588265736E+018,v/m1vw10zy74w/map,-12.5517856504,-0.666448120956,0,0,0,0.999997601544,0.00219018394489,0,67.534072876,12.4281291962,47.7024917603,94.3711624146,50.663608551,50.663608551,67.534072876,67.534072876,31.2898674011,0.500190079212,0,0.00187572708819,0.308335840702,0.00321283773519,0.001337110647,11.964012146,0.490486353636,-0.0272445678711,-0.000288779265247,-1.08964538574,-0.0219801943749,2.2583732605,0.0673171877861,24.3921413422,94.3439178467289,49.57396316526,33.5482406616,613
1.64950588285812E+018,31,1.64950588285812E+018,r1000913c5/base_footprint,0,1.64950588285812E+018,v/m1vw10zy74w/map,-12.7360842656,-0.635297020204,0,0,0,0.999979691425,0.00637312623581,0,67.7033538818,14.4385023117,47.6499938965,93.4835510254,50.7692146301,50.7692146301,67.7033538818,67.7033538818,26.1879882812,0.563453733921,0,0.00226064980961,0.315008729696,0.00738237984478,0.00512172980234,12.4136381149,0.462296038866,1.05585479736,0.0111684091389,-2.07810592651,-0.0426793731749,4.10203933716,0.135425403714,26.8521404266,94.53940582276,48.69110870359,30.29002761836,1144
1.64950588295738E+018,32,1.64950588295738E+018,r1000913c5/base_footprint,0,1.64950588295738E+018,v/m1vw10zy74w/map,-12.7360842656,-0.635297020204,0,0,0,0.999979691425,0.00637312623581,0,67.4976730347,24.0389060974,47.6235580444,93.4835510254,50.8970184326,50.8970184326,67.4976730347,67.4976730347,31.2704124451,0.494765818119,0,0.00245117093436,0.319138914347,0.00864398479462,0.00619281409308,2.81323432922,0.104767598212,1.05585479736,0.0111684091389,-2.205909729,-0.0453041605651,-0.98038482666,-0.0323665887117,26.85214042662,94.53940582276,48.6911087036,30.29002761844,1144
1.64950588306228E+018,33,1.64950588306228E+018,r1000913c5/base_footprint,0,1.64950588306228E+018,v/m1vw10zy74w/map,-12.8831302559,-0.633443862113,0,0,0,0.999977757825,0.00666962188149,0,67.8969039917,20.9411773682,47.7257347107,93.0784759521,50.9777183533,50.9777183533,67.8969039917,67.8969039917,23.4976520538,0.62006509304,0,0.00266918633133,0.322505384684,0.0100956559181,0.00742647005245,5.90749359131,0.22002927959,1.45923614502,0.0154354926199,-2.35280609131,-0.0483868457377,6.75703430176,0.223338440061,26.84867095951,94.53771209712,48.62491226199,30.25468635556,1154
1.64950588325764E+018,34,1.64950588325764E+018,r1000913c5/base_footprint,0,1.64950588325764E+018,v/m1vw10zy74w/map,-12.9072917703,-0.632443552872,0,0,0,0.999965384206,0.00832048011474,0,67.8101272583,19.9614276886,47.9996109009,93.6637878418,50.939781189,50.939781189,67.8101272583,67.8101272583,26.7570552826,0.578814983368,0,0.00317575084046,0.3288179636,0.0107119055465,0.00753615470603,7.0671710968,0.261470139027,0.904167175293,0.00956103112549,-2.29610061646,-0.0472024455667,3.36136436462,0.111604936421,27.0285987854,94.567955017093,48.64368057254,30.11841964722,1157
1.64950588335744E+018,35,1.64950588335744E+018,r1000913c5/base_footprint,0,1.64950588335744E+018,v/m1vw10zy74w/map,-13.0941858055,-0.626731004053,0,0,0,0.999970865619,0.00763334217297,0,67.7491989136,23.1499042511,48.1565971375,93.5386123657,50.9732208252,50.9732208252,67.7491989136,67.7491989136,27.7642822266,0.323335111141,0,0.00368883647025,0.365852355957,0.00204599043354,0.00164284615312,3.82880592346,0.141919538379,0.989036560059,0.0104629341513,-2.33087921143,-0.0479187294841,2.13776397705,0.0714922323823,26.97871017456,94.527648925759,48.64234161377,29.90204620365,1136
1.64950588345717E+018,36,1.64950588345717E+018,r1000913c5/base_footprint,0,1.64950588345717E+018,v/m1vw10zy74w/map,-13.4006737938,-0.625717984769,0,0,0,0.999999249438,0.00122520363664,0,67.6185379028,27.3075084686,48.3399734497,93.2974014282,51.0921592712,51.0921592712,67.6185379028,67.6185379028,30.5323028564,-0.0322085693479,0,0.00282103777863,0.440281659365,0.00566827738658,0.00848931539804,0.0483894348145,0.00176888494752,1.1840133667,0.012531706132,-2.32250595093,-0.0476219505072,-0.587524414062,-0.0196202620864,27.3558979034145,94.4814147949,48.76965332027,29.944778442338,983
1.6495058835573E+018,37,1.6495058835573E+018,r1000913c5/base_footprint,0,1.6495058835573E+018,v/m1vw10zy74w/map,-13.589905033,-0.623891915733,0,0,0,0.999998649497,0.00164347308453,0,67.3732223511,23.4815883636,48.3570861816,93.7702331543,51.2894477844,51.2894477844,67.3732223511,67.3732223511,38.7808570862,0.211545303464,0,0.0029668896459,0.523683786392,0.000685440376401,0.00365233002231,3.42746543884,0.127372205257,0.311920166016,0.00331540196203,-1.63041687012,-0.0328322313726,-7.06549072266,-0.2227781564,26.90905380244,94.082153320316,49.65903091428,31.71536636354,523
1.64950588365742E+018,38,1.64950588365742E+018,r1000913c5/base_footprint,0,1.64950588365742E+018,v/m1vw10zy74w/map,-13.7348555889,-0.627153783857,0,0,0,-0.999997428349,0.00226788347581,0,67.5545349121,29.4117641449,48.3414497375,94.0184783936,51.6445045471,51.6445045471,67.5545349121,67.5545349121,40.2455024719,0.230553403497,0,0.00319646345451,0.580375909805,0.00307537103072,0.000121092387417,-5.60933685303,-0.235662385821,0.0887832641602,0.000943426275626,-0.771545410156,-0.0151661206037,-5.58358383179,-0.161086976528,23.80242729187,94.1072616577602,50.872959136944,34.66191864011,333
1.64950588375758E+018,39,1.64950588375758E+018,r1000913c5/base_footprint,0,1.64950588375758E+018,v/m1vw10zy74w/map,-13.7348555889,-0.627153783857,0,0,0,-0.999997428349,0.00226788347581,0,68.1777114868,43.014705658,48.2347984314,94.0184783936,52.0183334351,52.0183334351,68.1777114868,68.1777114868,33.0657348633,0.262483865023,0,0.00344304181635,0.60250556469,0.00279394444078,0.000649097433779,-19.2122783661,-0.807156264782,0.0887832641602,0.000943426275626,-1.1453742981,-0.0225144028664,1.59618377686,0.0460500717163,23.8024272919,94.1072616577602,50.872959137,34.66191864016,333
1.64950588385788E+018,40,1.64950588385788E+018,r1000913c5/base_footprint,0,1.64950588385788E+018,v/m1vw10zy74w/map,-13.8714927665,-0.629527475404,0,0,0,-0.999981468858,0.00608785184798,0,68.4279327393,54.4003639221,48.1169509888,94.4913864136,52.3552589417,52.3552589417,68.4279327393,68.4279327393,33.9029884338,0.144808799028,0,0.00279212417081,0.620263814926,0.00753931002691,0.0047471858561,-31.0062026978,-1.32538211346,-0.413269042969,-0.00439282879233,-1.72895812988,-0.0341513827443,0.593158721924,0.0171949267387,23.3941612243,94.078117370631,50.62630081182,34.496147155724,359
1.64950588395735E+018,41,1.64950588395735E+018,r1000913c5/base_footprint,0,1.64950588395735E+018,v/m1vw10zy74w/map,-13.9954766233,-0.632999467096,0,0,0,-0.999980303867,0.00627629494345,0,68.7958145142,46.115852356,48.0537338257,94.5029983521,52.5357666016,52.5357666016,68.7958145142,68.7958145142,29.2724704742,0.2717474401,0,0.00375994527712,0.624557673931,0.0329840295017,0.0292240846902,-19.4535064697,-0.729624688625,-0.378479003906,-0.00402104575187,-2.27490997314,-0.0452620610595,2.33271026611,0.0738078430295,26.6623458863,94.124519348194,50.26085662846,31.60518074031,506
1.64950588405738E+018,42,1.64950588405738E+018,r1000913c5/base_footprint,0,1.64950588405738E+018,v/m1vw10zy74w/map,-14.127198292,-0.634750644864,0,0,0,-0.999927882729,0.0120095520529,0,68.9636611938,51.6643867493,48.059047699,94.0907058716,52.9504051208,52.9504051208,68.9636611938,68.9636611938,29.2450637817,0.252780616283,0,0.00462245615199,0.624089896679,0.0429618917406,0.0383394360542,-22.7633075714,-0.787628293037,0.0613174438477,0.000651259964798,-2.59534454346,-0.0515408888459,-0.682943344116,-0.0239108074456,28.9010791779,94.1520233154477,50.35506057734,28.562120437584,759
1.64950588415766E+018,43,1.64950588415766E+018,r1000913c5/base_footprint,0,1.64950588415766E+018,v/m1vw10zy74w/map,-14.127198292,-0.634750644864,0,0,0,-0.999927882729,0.0120095520529,0,69.63256073,56.8014717102,48.017036438,94.0907058716,53.4155197144,53.4155197144,69.63256073,69.63256073,22.2280006409,0.231993734837,0,0.00442408537492,0.619917273521,0.0285391584039,0.0241150725633,-27.9003925323,-0.965375483036,0.0613174438477,0.000651259964798,-3.06045913696,-0.0607775896788,6.33411979675,0.22176644206,28.9010791779,94.1520233154477,50.35506057744,28.56212043765,759
1.64950588425756E+018,44,1.64950588425756E+018,r1000913c5/base_footprint,0,1.64950588425756E+018,v/m1vw10zy74w/map,-14.2640669835,-0.635262903062,0,0,0,-0.999020129321,0.0442581202874,0,69.5204696655,51.7562408447,47.9600296021,94.9257888794,53.5552635193,53.5552635193,69.5204696655,69.5204696655,28.7612056732,0.310290426016,0,0.00426110019907,0.612328529358,0.036953009665,0.0326919108629,-22.2499084473,-0.75407230854,-0.714004516602,-0.00757871754467,-2.98042297363,-0.0589309409261,-0.831302642822,-0.029763892293,29.5063323974,94.211784362798,50.57484054567,27.929903030378,805
1.64950588435736E+018,45,1.64950588435736E+018,r1000913c5/base_footprint,0,1.64950588435736E+018,v/m1vw10zy74w/map,-14.3929803118,-0.649113397497,0,0,0,-0.996288058499,0.0860819638016,0,69.8773345947,53.6281661987,47.8140983582,94.6960449219,53.8245544434,53.8245544434,69.8773345947,69.8773345947,24.4189319611,0.181423172355,0,0.00465806759894,0.606665432453,0.0483396090567,0.0436815395951,-23.2341537476,-0.76443195343,-0.453018188477,-0.00480691483244,-3.1103515625,-0.0613309778273,3.23930549622,0.117119014263,30.3940124511,94.243026733423,50.7142028809,27.65823745732,808
1.64950588445763E+018,46,1.64950588445763E+018,r1000913c5/base_footprint,0,1.64950588445763E+018,v/m1vw10zy74w/map,-14.3929803118,-0.649113397497,0,0,0,-0.996288058499,0.0860819638016,0,69.76953125,51.1184768677,47.5250511169,94.6960449219,53.8090019226,53.8090019226,69.76953125,69.76953125,26.1914672852,0.11438255012,0,0.00585077982396,0.610761702061,0.0525736026466,0.0467228218913,-20.7244644165,-0.681860089302,-0.453018188477,-0.00480691483244,-3.09479904175,-0.0610243044794,1.46677017212,0.0530319474638,30.3940124512,94.243026733423,50.71420288085,27.65823745732,808
1.6495058845584E+018,47,1.6495058845584E+018,r1000913c5/base_footprint,0,1.6495058845584E+018,v/m1vw10zy74w/map,-14.4698060568,-0.667838387444,0,0,0,-0.98939581697,0.145244336762,0,69.6593017578,43.7340164185,47.3111801147,94.3366470337,53.7628822327,53.7628822327,69.6593017578,69.6593017578,26.3836841583,-0.0743563100696,0,0.00607350096107,0.638561427593,0.0384223274887,0.0323488265276,-12.9714603424,-0.421663939953,-0.0641403198242,-0.000680371420458,-2.99605560303,-0.0590160116553,1.08716583252,0.039575252682,30.7625560761,94.2725067138758,50.76682662967,27.47084999082,836
1.64950588465809E+018,48,1.64950588465809E+018,r1000913c5/base_footprint,0,1.64950588465809E+018,v/m1vw10zy74w/map,-14.4889778708,-0.673757031966,0,0,0,-0.978678972097,0.205395885,0,69.4764099121,39.4205436707,46.9856987,94.4556884766,53.5336112976,53.5336112976,69.4764099121,69.4764099121,27.6281642914,0.0856029614806,0,0.00598721439019,0.634330868721,0.0381815545261,0.0321943424642,-8.47870063782,-0.274020552635,-0.190895080566,-0.00202509411611,-2.72944641113,-0.0537248551846,-0.208400726318,-0.00760038383305,30.94184303288,94.264793396034,50.80416488647,27.419763565082,829
1.64950588475747E+018,49,1.64950588475747E+018,r1000913c5/base_footprint,0,1.64950588475747E+018,v/m1vw10zy74w/map,-14.4959162466,-0.67260417218,0,0,0,-0.96766047555,0.252256226996,0,69.7015914917,43.3233146667,46.5121688843,94.3432922363,53.3970375061,53.3970375061,69.7015914917,69.7015914917,21.6952514648,0.242686152458,0,0.00676265545189,0.61168807745,0.0296403151006,0.0228776596487,-12.3814716339,-0.400153011084,-0.078498840332,-0.000832748250104,-2.59287261963,-0.0510366149247,5.72451210022,0.208773210645,30.9418430328,94.264793395968,50.80416488647,27.41976356502,829
1.6495058848574E+018,50,1.6495058848574E+018,r1000913c5/base_footprint,0,1.6495058848574E+018,v/m1vw10zy74w/map,-14.5029735752,-0.671177626094,0,0,0,-0.952232793366,0.305373062399,0,69.2589874268,43.3233146667,46.1805267334,94.3592681885,53.0821495056,53.0821495056,69.2589874268,69.2589874268,26.3187675476,0.059328570962,0,0.00661927973852,0.603171765804,0.0230209995061,0.0164017193019,-12.3814716339,-0.400153011084,-0.0944747924805,-0.0010022277711,-2.27798461914,-0.044838540256,1.10099601746,0.0401533730328,30.9418430328,94.2647933960195,50.80416488646,27.41976356506,829
1.64950588495749E+018,51,1.64950588495749E+018,r1000913c5/base_footprint,0,1.64950588495749E+018,v/m1vw10zy74w/map,-14.5043698609,-0.670107685956,0,0,0,-0.935303720406,0.353845941894,0,69.6106414795,41.1764717102,45.8915100098,94.4752502441,52.8194580078,52.8194580078,69.6106414795,69.6106414795,17.5695323944,0.0593824759126,0,0.00636547803879,0.56726616621,0.00138435233384,0.00498112570494,-10.2346286774,-0.330769836903,-0.210456848145,-0.00223261350766,-2.01529312134,-0.0396678708494,9.85023117065,0.359238356352,30.9418430328,94.264793395955,50.80416488646,27.41976356505,829
1.64950588505738E+018,52,1.64950588505738E+018,r1000913c5/base_footprint,0,1.64950588505738E+018,v/m1vw10zy74w/map,-14.5104944693,-0.670215051793,0,0,0,-0.911513504912,0.411270142805,0,69.1742858887,45.6327972412,45.5703849792,94.1691436768,52.6299362183,52.6299362183,69.1742858887,69.1742858887,22.2750148773,0.0507055297494,0,0.00643800897524,0.545824587345,0.00989841856062,0.0163364280015,-14.6909542084,-0.474792480469,0.0956497192383,0.00101469189394,-1.82577133179,-0.035937435925,5.14474868774,0.187629207969,30.9418430328,94.2647933960383,50.80416488651,27.41976356504,829
1.64950588515741E+018,53,1.64950588515741E+018,r1000913c5/base_footprint,0,1.64950588515741E+018,v/m1vw10zy74w/map,-14.507143908,-0.669665064028,0,0,0,-0.885359560318,0.464906925044,0,69.2670898438,49.4485282898,45.433795929,94.0914001465,52.6161613464,52.6161613464,69.2670898438,69.2670898438,20.1758880615,0.0423436760902,0,0.00639740051702,0.526989877224,0.0214018169791,0.0277992170304,-18.506685257,-0.598111927509,0.173393249512,0.00183942751028,-1.81199645996,-0.0356662981212,7.24387550354,0.264184474945,30.9418430328,94.264793396012,50.80416488644,27.41976356504,829
1.64950588525745E+018,54,1.64950588525745E+018,r1000913c5/base_footprint,0,1.64950588525745E+018,v/m1vw10zy74w/map,-14.5060737281,-0.667194248664,0,0,0,-0.859652912261,0.510878528068,0,69.1695556641,50.6641349792,44.9848175049,93.9970779419,52.6222877502,52.6222877502,69.1695556641,69.1695556641,21.6581707001,0.0958031117916,0,0.00593914510682,0.501969814301,0.0389228984714,0.0448620431125,-19.7222919464,-0.637398719788,0.267715454102,0.00284003652632,-1.81812286377,-0.0357868857682,5.76159286499,0.210125550628,30.9418430328,94.264793396002,50.80416488643,27.41976356509,829
1.6495058853576E+018,55,1.6495058853576E+018,r1000913c5/base_footprint,0,1.6495058853576E+018,v/m1vw10zy74w/map,-14.5135069893,-0.665690816239,0,0,0,-0.823102342166,0.56789306592,0,69.0790100098,54.137588501,45.0259437561,93.1371154785,52.6744651794,52.6744651794,69.0790100098,69.0790100098,20.7557029724,0.114144466817,0,0.00519793946296,0.439551264048,0.0591224841774,0.064320422709,-23.1957454681,-0.749656260014,1.12767791748,0.0119628747925,-1.87030029297,-0.0368139185011,6.66406059265,0.243038579822,30.9418430329,94.26479339598,50.80416488643,27.41976356505,829
1.64950588545821E+018,56,1.64950588545821E+018,r1000913c5/base_footprint,0,1.64950588545822E+018,v/m1vw10zy74w/map,-14.5135069893,-0.665690816239,0,0,0,-0.823102342166,0.56789306592,0,69.1784591675,49.5798301697,44.9190139771,93.1371154785,52.6238250732,52.6238250732,69.1784591675,69.1784591675,18.4186611176,0.237517535686,0,0.00505550904199,0.374677151442,0.0698972046375,0.0749527141452,-18.6379871368,-0.602355420589,1.12767791748,0.0119628747925,-1.81966018677,-0.0358171463013,9.00110244751,0.328270614147,30.9418430329,94.26479339598,50.80416488643,27.41976356511,829
1.64950588555795E+018,57,1.64950588555795E+018,r1000913c5/base_footprint,0,1.64950588555795E+018,v/m1vw10zy74w/map,-14.5205014894,-0.664853490733,0,0,0,-0.790786373669,0.612092240777,0,69.0971450806,50.5684623718,44.7874488831,93.1007766724,52.7395935059,52.7395935059,69.0971450806,69.0971450806,21.0018672943,0.158823490143,0,0.00414400640875,0.264778465033,0.085161074996,0.0893050804734,-19.626619339,-0.63430672884,1.16401672363,0.0123483715579,-1.93542861938,-0.0380958653986,6.41789627075,0.234060958028,30.9418430328,94.26479339603,50.80416488652,27.41976356505,829
1.64950588565788E+018,58,1.64950588565788E+018,r1000913c5/base_footprint,0,1.64950588565788E+018,v/m1vw10zy74w/map,-14.5181523347,-0.667584324028,0,0,0,-0.75610119411,0.654454722853,0,69.2543563843,45.9980697632,44.8270072937,93.7739715576,52.8164558411,52.8164558411,69.2543563843,69.2543563843,21.4256019592,0.270454108715,0,0.00397383794188,0.206581875682,0.0913670659065,0.0953409075737,-15.0562267303,-0.486597597599,0.490821838379,0.00520684150979,-2.01229095459,-0.0396087802947,5.99416160583,0.218607336283,30.9418430329,94.264793395979,50.80416488651,27.41976356503,829
1.64950588675742E+018,59,1.64950588675742E+018,r1000913c5/base_footprint,0,1.64950588675742E+018,v/m1vw10zy74w/map,-14.51241793,-0.666194368965,0,0,0,-0.719849810077,0.694129851636,0,69.3027572632,47.5113105774,45.160243988,94.0661392212,52.8332710266,52.8332710266,69.3027572632,69.3027572632,21.7878284454,0.149342998862,0,0.00178376294207,0.0412937887013,0.225400775671,0.223617017269,-16.5694675446,-0.535503566265,0.198654174805,0.00210740580224,-2.02910614014,-0.0399397611618,5.63193511963,0.205396920443,30.9418430328,94.264793396005,50.80416488646,27.41976356503,829
1.64950588685888E+018,60,1.64950588685888E+018,r1000913c5/base_footprint,0,1.64950588685888E+018,v/m1vw10zy74w/map,-14.51241793,-0.666194368965,0,0,0,-0.719849810077,0.694129851636,0,69.2644577026,49.0504875183,45.5725440979,94.0661392212,53.227897644,53.227897644,69.2644577026,69.2644577026,26.7391815186,0.169430062175,0,0.00261962693185,0.0532915182412,0.226174160838,0.2235545367,-18.1086444855,-0.585247755051,0.198654174805,0.00210740580224,-2.42373275757,-0.0477073639631,0.680582046509,0.02482085675,30.9418430328,94.264793396005,50.80416488643,27.419763565109,829
1.64950588695786E+018,61,1.64950588695786E+018,r1000913c5/base_footprint,0,1.64950588695786E+018,v/m1vw10zy74w/map,-14.51241793,-0.666194368965,0,0,0,-0.719849810077,0.694129851636,0,69.4187011719,47.1977767944,46.0276908875,94.0661392212,53.4980201721,53.4980201721,69.4187011719,69.4187011719,26.8801136017,0.175755023956,0,0.00172361428849,0.077667593956,0.231932953,0.230209335685,-16.2559337616,-0.525370597839,0.198654174805,0.00210740580224,-2.69385528564,-0.0530242994428,0.539649963379,0.0196810588241,30.9418430328,94.264793396005,50.80416488646,27.419763565079,829
1.64950588705838E+018,62,1.64950588705838E+018,r1000913c5/base_footprint,0,1.64950588705838E+018,v/m1vw10zy74w/map,-14.51241793,-0.666194368965,0,0,0,-0.719849810077,0.694129851636,0,69.3307266235,45.2804374695,46.43957901,94.0661392212,53.641242981,53.641242981,69.3307266235,69.3307266235,30.0104541779,0.17101213336,0,0.00237143412232,0.0963434576988,0.24016033113,0.237788900733,-14.3385944366,-0.463404655457,0.198654174805,0.00210740580224,-2.83707809448,-0.0558434166014,-2.59069061279,-0.0944826006889,30.9418430329,94.264793396005,50.80416488652,27.41976356511,829
1.64950588715737E+018,63,1.64950588715737E+018,r1000913c5/base_footprint,0,1.64950588715737E+018,v/m1vw10zy74w/map,-14.5206652478,-0.802646334098,0,0,0,-0.724875390451,0.688880010102,0,69.6888275146,41.6324653625,46.9213638306,94.0557403564,53.8461112976,53.8461112976,69.6888275146,69.6888275146,25.7398166656,0.218256860971,0,0.00233771675266,0.0895616561174,0.227980792522,0.225643068552,-9.84139251709,-0.309564650059,0.26522064209,0.00281189498492,-2.85124969482,-0.0559124909341,1.38810348511,0.0511688143015,31.79107284541,94.32096099849,50.99486160278,27.12792015071,864
1.64950588725738E+018,64,1.64950588725738E+018,r1000913c5/base_footprint,0,1.64950588725738E+018,v/m1vw10zy74w/map,-14.5206652478,-0.802646334098,0,0,0,-0.724875390451,0.688880010102,0,69.6958694458,43.4216423035,47.4074172974,94.0557403564,54.0775299072,54.0775299072,69.6958694458,69.6958694458,28.1123828888,0.166147083044,0,0.00245800986886,0.0819691568613,0.218864366412,0.216406360269,-11.630569458,-0.365843892097,0.26522064209,0.00281189498492,-3.08266830444,-0.0604505687952,-0.984462738037,-0.0362896509469,31.7910728455,94.32096099849,50.99486160276,27.127920150763,864
1.64950588735719E+018,65,1.64950588735719E+018,r1000913c5/base_footprint,0,1.64950588735719E+018,v/m1vw10zy74w/map,-14.5206652478,-0.802646334098,0,0,0,-0.724875390451,0.688880010102,0,69.9258728027,42.9864234924,47.7119178772,94.0557403564,54.280544281,54.280544281,69.9258728027,69.9258728027,26.1648635864,0.257211118937,0,0.00244836322963,0.0802567452192,0.215439677238,0.212991312146,-11.195350647,-0.352153897285,0.26522064209,0.00281189498492,-3.28568267822,-0.0644316449761,0.963056564331,0.0355005674064,31.7910728454,94.32096099849,50.99486160278,27.127920150731,864
1.64950598085724E+018,66,1.64950598085724E+018,r1000913c5/base_footprint,0,1.64950598085724E+018,v/m1vw10zy74w/map,-14.5282797725,-0.935104588025,0,0,0,-0.730043319033,0.683400872354,0,69.987739563,43.014705658,47.879573822,93.8028030396,54.4454612732,54.4454612732,69.987739563,69.987739563,25.9217128754,0.200836315751,0,0.00280064484105,0.0741813704371,0.19334295392,0.190542310476,-9.73101425171,-0.292365849018,0.532447814941,0.00564420828596,-3.40035629272,-0.0666147395968,0.908187866211,0.0338498391211,33.28369140629,94.335250854541,51.04510498048,26.829900741611,855
1.64950598095736E+018,67,1.64950598095736E+018,r1000913c5/base_footprint,0,1.64950598095736E+018,v/m1vw10zy74w/map,-14.5282797725,-0.935104588025,0,0,0,-0.730043319033,0.683400872354,0,70.2678909302,41.6396484375,47.9023399353,93.8028030396,54.7040634155,54.7040634155,70.2678909302,70.2678909302,23.6718711853,0.269313693047,0,0.00288777635433,0.0697108730674,0.174133852124,0.171246066689,-8.35595703125,-0.251052588224,0.532447814941,0.00564420828596,-3.65895843506,-0.0716808885336,3.15802955627,0.117705598474,33.28369140625,94.335250854541,51.04510498044,26.82990074157,855
1.64950598105728E+018,68,1.64950598105728E+018,r1000913c5/base_footprint,0,1.64950598105728E+018,v/m1vw10zy74w/map,-14.5282797725,-0.935104588025,0,0,0,-0.730043319033,0.683400872354,0,70.0539016724,48.0164146423,47.8719177246,93.8028030396,54.9328804016,54.9328804016,70.0539016724,70.0539016724,29.9949531555,0.164690166712,0,0.00229499139823,0.0610274076462,0.147478848696,0.145183861256,-14.7327232361,-0.442640900612,0.532447814941,0.00564420828596,-3.88777542114,-0.0761635303497,-3.16505241394,-0.117967352271,33.2836914062,94.335250854541,51.04510498046,26.82990074156,855
1.64950598115731E+018,69,1.64950598115731E+018,r1000913c5/base_footprint,0,1.64950598115731E+018,v/m1vw10zy74w/map,-14.5358676903,-1.07414157695,0,0,0,-0.731525894059,0.68181365953,0,70.7423934937,60.7843132019,47.7431755066,93.5525970459,55.2054672241,55.2054672241,70.7423934937,70.7423934937,19.6453018188,0.214222297072,0,0.00227049132809,0.0579426214099,0.143849641085,0.141579151154,-24.1713981628,-0.660187780857,0.857025146484,0.00907773058861,-3.86367797852,-0.075254060328,5.78756713867,0.227562502027,36.6129150391,94.409622192384,51.34178924558,25.43286895747,741
1.64950598125741E+018,70,1.64950598125741E+018,r1000913c5/base_footprint,0,1.64950598125741E+018,v/m1vw10zy74w/map,-14.5358676903,-1.07414157695,0,0,0,-0.731525894059,0.68181365953,0,70.7295379639,56.8014717102,47.430229187,93.5525970459,55.4622650146,55.4622650146,70.7295379639,70.7295379639,22.650094986,0.19926020503,0,0.0023587779142,0.0516012907028,0.133493632078,0.131134852767,-20.1885566711,-0.551405310631,0.857025146484,0.00907773058861,-4.12047576904,-0.0802557915449,2.78277397156,0.109416440129,36.6129150391,94.409622192384,51.34178924556,25.43286895756,741
1.64950598135809E+018,71,1.64950598135809E+018,r1000913c5/base_footprint,0,1.64950598135809E+018,v/m1vw10zy74w/map,-14.5437972554,-1.20710021738,0,0,0,-0.718767070398,0.695250960814,0,70.9744796753,58.0483360291,47.0245056152,93.5475463867,55.7346420288,55.7346420288,70.9744796753,70.9744796753,21.1646022797,0.254980534315,0,0.00187958800234,0.0456430055201,0.121722057462,0.119842462242,-18.4197921753,-0.464811235666,1.33180999756,0.0140368789434,-2.98638534546,-0.0566158108413,2.78343200684,0.116227991879,39.6285438538,94.87935638426,52.74825668334,23.94803428654,441
1.64950598145809E+018,72,1.64950598145809E+018,r1000913c5/base_footprint,0,1.64950598145809E+018,v/m1vw10zy74w/map,-14.5450812964,-1.21124784791,0,0,0,-0.719360566572,0.694636865752,0,71.1155700684,55.3123588562,46.4412612915,93.7528915405,55.9301681519,55.9301681519,71.1155700684,71.1155700684,21.475933075,0.27449041605,0,0.0017093536444,0.04114414379,0.11316459626,0.111455246806,-14.9816398621,-0.371469706297,1.23873138428,0.0130404280499,-2.76425552368,-0.0519930049777,2.32066726685,0.0975209549069,40.3307189941,94.99162292478,53.16591262822,23.79660034185,413
1.64950598155834E+018,73,1.64950598155834E+018,r1000913c5/base_footprint,0,1.64950598155834E+018,v/m1vw10zy74w/map,-14.5450812964,-1.21124784791,0,0,0,-0.719360566572,0.694636865752,0,71.2276077271,59.2403907776,45.9596328735,93.7528915405,56.1261291504,56.1261291504,71.2276077271,71.2276077271,21.5756244659,0.280604124069,0,0.0014883131953,0.0322346463799,0.103702910244,0.102214597166,-18.9096717834,-0.468865215778,1.23873138428,0.0130404280499,-2.96021652222,-0.0556788444519,2.22097587585,0.0933316424489,40.3307189942,94.99162292478,53.16591262818,23.79660034175,413
1.64950598725829E+018,74,1.64950598725829E+018,r1000913c5/base_footprint,0,1.64950598725829E+018,v/m1vw10zy74w/map,-14.5500453777,-2.32696428829,0,0,0,-0.711116301115,0.703074395984,0,71.6292648315,55.6561088562,45.9132385254,94.8377990723,56.3412094116,56.3412094116,71.6292648315,71.6292648315,20.5744247437,0.304406791925,0,0.000921676284634,0.122970886528,0.00150299794041,0.00242467434146,-10.8431892395,-0.241965696216,0.0126876831055,0.000133765075589,-3.0072479248,-0.0563852339983,-2.23753929138,-0.122023954988,44.8129196167,94.8504867554055,53.3339614868,18.33688545232,233
1.64950598735754E+018,75,1.64950598735754E+018,r1000913c5/base_footprint,0,1.64950598735754E+018,v/m1vw10zy74w/map,-14.5500453777,-2.32696428829,0,0,0,-0.711116301115,0.703074395984,0,71.2203140259,36.2370910645,45.8178215027,94.8377990723,56.1857147217,56.1857147217,71.2203140259,71.2203140259,26.2560768127,0.817225575447,0,0.000779945519753,0.167645424604,0.000544222595636,0.0013241681736,8.57582855225,0.191369563341,0.0126876831055,0.000133765075589,-2.85175323486,-0.0534697435796,-7.91919136047,-0.431872218847,44.81291961675,94.8504867554055,53.33396148684,18.33688545223,233
1.64950598745743E+018,76,1.64950598745743E+018,r1000913c5/base_footprint,0,1.64950598745743E+018,v/m1vw10zy74w/map,-14.5500453777,-2.32696428829,0,0,0,-0.711116301115,0.703074395984,0,71.1925048828,32.6448135376,45.9816665649,94.8377990723,55.9091262817,55.9091262817,71.1925048828,71.1925048828,23.769536972,0.828034877777,0,0.000691088265739,0.217378184199,0.0033429863397,0.00403407448903,12.1681060791,0.271531194448,0.0126876831055,0.000133765075589,-2.57516479492,-0.0482837706804,-5.43265151978,-0.296269029379,44.8129196167,94.8504867554055,53.33396148678,18.33688545222,233
1.64950598755744E+018,77,1.64950598755744E+018,r1000913c5/base_footprint,0,1.64950598755744E+018,v/m1vw10zy74w/map,-14.5500453777,-2.32696428829,0,0,0,-0.711116301115,0.703074395984,0,71.2469177246,44.7415313721,46.2087631226,94.8377990723,55.964427948,55.964427948,71.2469177246,71.2469177246,23.3874397278,0.906329572201,0,0.000759878312238,0.226546317339,0.0046475273557,0.00540740555152,0.0713882446289,0.0015930281952,0.0126876831055,0.000133765075589,-2.63046646118,-0.0493206642568,-5.05055427551,-0.275431424379,44.8129196167289,94.8504867554055,53.33396148682,18.33688545229,233
1.64950598765771E+018,78,1.64950598765771E+018,r1000913c5/base_footprint,0,1.64950598765771E+018,v/m1vw10zy74w/map,-14.5500453777,-2.32696428829,0,0,0,-0.711116301115,0.703074395984,0,71.2480010986,45.0980377197,46.4418144226,94.8377990723,56.0576133728,56.0576133728,71.2480010986,71.2480010986,24.3742637634,0.916893959045,0,0.000467471138109,0.220554798841,0.0096109714359,0.010078442283,-0.285118103027,-0.00636240839958,0.0126876831055,0.000133765075589,-2.72365188599,-0.0510678701103,-6.03737831116,-0.329247742891,44.812919616673,94.8504867554055,53.33396148681,18.33688545224,233
1.6495059877576E+018,79,1.6495059877576E+018,r1000913c5/base_footprint,0,1.6495059877576E+018,v/m1vw10zy74w/map,-14.5534718087,-2.20941015365,0,0,0,-0.712496365364,0.701675800739,0,71.3061294556,44.3197135925,46.6162643433,94.9076309204,56.0808601379,56.0808601379,71.3061294556,71.3061294556,23.8304767609,0.941344380379,0,0.000214216444874,0.20358517766,0.0141869289801,0.0144011462107,0.757228851318,0.0167985856533,-0.0262145996094,-0.000276288017631,-2.57278823853,-0.0480822436512,-5.31674385071,-0.287178367376,45.076942443818,94.8814163207906,53.50807189937,18.51373291019,259
1.64950598785822E+018,80,1.64950598785822E+018,r1000913c5/base_footprint,0,1.64950598785823E+018,v/m1vw10zy74w/map,-14.5534718087,-2.20941015365,0,0,0,-0.712496365364,0.701675800739,0,71.4444961548,41.6187515259,46.7930488586,94.9076309204,56.1554794312,56.1554794312,71.4444961548,71.4444961548,22.1456794739,0.974545240402,0,0.00123210751917,0.188018128276,0.0063341697678,0.00756627740338,3.45819091797,0.0767175108194,-0.0262145996094,-0.000276288017631,-2.64740753174,-0.0494767874479,-3.63194656372,-0.196175813675,45.07694244387,94.8814163207906,53.50807189946,18.51373291018,259
1.64950598795796E+018,81,1.64950598795796E+018,r1000913c5/base_footprint,0,1.64950598795796E+018,v/m1vw10zy74w/map,-14.5510568828,-2.07922654997,0,0,0,-0.713178418337,0.700982555859,0,71.3418273926,39.8496246338,47.0359611511,94.7389068604,56.2617378235,56.2617378235,71.3418273926,71.3418273926,24.5339221954,0.942811489105,0,0.00143348530401,0.16725730896,0.0142044788226,0.0156379640102,4.6291847229,0.104076184332,0.202423095703,0.00213208608329,-2.60426712036,-0.0485350340605,-5.48967933655,-0.288259267807,44.4788093567,94.941329956103,53.65747070314,19.04424285885,313
1.64950598806181E+018,82,1.64950598806181E+018,r1000913c5/base_footprint,0,1.64950598806182E+018,v/m1vw10zy74w/map,-14.5510568828,-2.07922654997,0,0,0,-0.713178418337,0.700982555859,0,71.2422027588,34.9376106262,47.3628425598,94.7389068604,56.2901077271,56.2901077271,71.2422027588,71.2422027588,26.633605957,0.973614931107,0,0.000446509337053,0.152169376612,0.0113479290158,0.0117944385856,9.54119873047,0.214511111379,0.202423095703,0.00213208608329,-2.63263702393,-0.049063757062,-7.58936309814,-0.39851218462,44.47880935667,94.941329956103,53.65747070317,19.04424285886,313
1.64950598815732E+018,83,1.64950598815732E+018,r1000913c5/base_footprint,0,1.64950598815732E+018,v/m1vw10zy74w/map,-14.5510568828,-2.07922654997,0,0,0,-0.713178418337,0.700982555859,0,71.2866516113,34.1527671814,47.7499008179,94.7389068604,56.5237846375,56.5237846375,71.2866516113,71.2866516113,28.3571815491,0.739208340645,0,0.000520990870427,0.143871337175,0.0103290919214,0.0108500830829,10.3260421753,0.232156440616,0.202423095703,0.00213208608329,-2.86631393433,-0.0534187294543,-9.31293869019,-0.489015966654,44.4788093567,94.941329956103,53.65747070317,19.04424285891,313
1.64950598825731E+018,84,1.64950598825731E+018,r1000913c5/base_footprint,0,1.64950598825731E+018,v/m1vw10zy74w/map,-14.5582612529,-1.93615875014,0,0,0,-0.713309781481,0.700848882173,0,71.5346069336,29.2348518372,48.1766929626,94.7280273438,56.6556167603,56.6556167603,71.5346069336,71.5346069336,25.2786064148,0.643168926239,0,0.000833581434563,0.135744199157,0.00985227897763,0.0106858601794,15.0154380798,0.339329719543,0.248474121094,0.00261616427451,-2.97922897339,-0.0555035285652,-5.67908287048,-0.289756178856,44.250289917,94.976501464894,53.67638778691,19.59952354432,387
1.64950598835732E+018,85,1.64950598835732E+018,r1000913c5/base_footprint,0,1.64950598835732E+018,v/m1vw10zy74w/map,-14.5582612529,-1.93615875014,0,0,0,-0.713309781481,0.700848882173,0,71.1261062622,30.4422492981,48.5609283447,94.7280273438,56.8112220764,56.8112220764,71.1261062622,71.1261062622,34.3121833801,0.60176295042,0,0.000778988469392,0.127634033561,0.0098871672526,0.0106661561877,13.8080406189,0.312044084072,0.248474121094,0.00261616427451,-3.13483428955,-0.0584024824202,-14.7126598358,-0.750664174557,44.250289917,94.976501464894,53.67638778685,19.5995235443,387
1.64950598845745E+018,86,1.64950598845745E+018,r1000913c5/base_footprint,0,1.64950598845745E+018,v/m1vw10zy74w/map,-14.5582612529,-1.93615875014,0,0,0,-0.713309781481,0.700848882173,0,71.3442153931,31.660900116,48.9012641907,94.7280273438,56.9609832764,56.9609832764,71.3442153931,71.3442153931,32.0037002563,0.622864425182,0,0.000780662056059,0.122737102211,0.00994053296745,0.0107211954892,12.589389801,0.284504115582,0.248474121094,0.00261616427451,-3.2845954895,-0.0611925572157,-12.404176712,-0.632881522179,44.250289917,94.976501464894,53.6763877869,19.5995235443,387
1.64950598855765E+018,87,1.64950598855765E+018,r1000913c5/base_footprint,0,1.64950598855765E+018,v/m1vw10zy74w/map,-14.5466222715,-1.81292328845,0,0,0,-0.715071473557,0.699051348403,0,71.4599456787,33.391002655,49.0172615051,94.4688110352,57.1465034485,57.1465034485,71.4599456787,71.4599456787,30.9908866882,0.5649766922,0,0.000796461070422,0.109536483884,0.0101782139391,0.0109746754169,11.184135437,0.250905245543,0.545082092285,0.00573686743155,-3.40048599243,-0.0632695406675,-11.0136013031,-0.551306188107,44.575138092,95.013893127485,53.74601745607,19.9772853851,401
1.64950598865795E+018,88,1.64950598865795E+018,r1000913c5/base_footprint,0,1.64950598865796E+018,v/m1vw10zy74w/map,-14.5466222715,-1.81292328845,0,0,0,-0.715071473557,0.699051348403,0,71.657623291,29.7629508972,49.1600379944,94.4688110352,57.2848358154,57.2848358154,71.657623291,71.657623291,28.9267749786,0.607300758362,0,0.000804752460681,0.0995491072536,0.010299234651,0.0111039867625,14.8121871948,0.332297056913,0.545082092285,0.00573686743155,-3.53881835938,-0.0658433586359,-8.94948959351,-0.447983264923,44.575138092,95.013893127485,53.74601745602,19.97728538509,401
1.64950598875851E+018,89,1.64950598875851E+018,r1000913c5/base_footprint,0,1.64950598875851E+018,v/m1vw10zy74w/map,-14.5466222715,-1.81292328845,0,0,0,-0.715071473557,0.699051348403,0,71.5499954224,32.8976020813,49.1855316162,94.4688110352,57.3630218506,57.3630218506,71.5499954224,71.5499954224,31.7084026337,0.560457766056,0,0.000965749204624,0.0920154452324,0.0101382378489,0.0111039867625,11.6775360107,0.261974185705,0.545082092285,0.00573686743155,-3.61700439453,-0.067298091948,-11.7311172485,-0.58722281456,44.575138092,95.013893127485,53.74601745607,19.9772853852,401
1.64950598885756E+018,90,1.64950598885756E+018,r1000913c5/base_footprint,0,1.64950598885756E+018,v/m1vw10zy74w/map,-14.546837705,-1.66608679394,0,0,0,-0.715134047379,0.698987334849,0,71.6504821777,36.2370910645,49.1899909973,94.0637588501,57.4793891907,57.4793891907,71.6504821777,71.6504821777,29.6982040405,0.358463853598,0,0.000967759871855,0.0900480672717,0.0101362271234,0.0111039867625,7.84787368774,0.178017005324,0.993156433105,0.0104480190203,-3.63021469116,-0.0674144923687,-7.82472229004,-0.357726424932,44.08496475224,95.056915283205,53.84917449954,21.87348175046,395
1.64950598895717E+018,91,1.64950598895717E+018,r1000913c5/base_footprint,0,1.64950598895717E+018,v/m1vw10zy74w/map,-14.546837705,-1.66608679394,0,0,0,-0.715134047379,0.698987334849,0,71.8392181396,40.2852058411,49.217666626,94.0637588501,57.5738754272,57.5738754272,71.8392181396,71.8392181396,27.3213920593,0.317704379559,0,0.000977393705398,0.0831440463662,0.0101265935227,0.0111039867625,3.79975891113,0.0861917212605,0.993156433105,0.0104480190203,-3.72470092773,-0.0691691339016,-5.44791030884,-0.249064609408,44.08496475223,95.056915283205,53.84917449947,21.87348175046,395
1.64950598905881E+018,92,1.64950598905881E+018,r1000913c5/base_footprint,0,1.64950598905882E+018,v/m1vw10zy74w/map,-14.5449116593,-1.5427560567,0,0,0,-0.713219429965,0.700940828259,0,71.9126052856,37.1351585388,49.0547561646,93.7420654297,57.6821365356,57.6821365356,71.9126052856,71.9126052856,26.0116500854,0.409323036671,0,0.000975269940682,0.0782555788755,0.0101287169382,0.0111039867625,5.82447052002,0.135580092669,1.30461120605,0.0137260053307,-4.00626373291,-0.0746380761266,-3.11276245117,-0.135935097933,42.95962905882,95.04667663575,53.67587280269,22.89888763423,413
1.64950598915808E+018,93,1.64950598915808E+018,r1000913c5/base_footprint,0,1.64950598915808E+018,v/m1vw10zy74w/map,-14.5440819296,-1.53159401355,0,0,0,-0.714356111986,0.699782355642,0,71.7667922974,43.0438842773,48.8891029358,94.0576477051,57.7250328064,57.7250328064,71.7667922974,71.7667922974,30.2356777191,0.484337687492,0,0.00101818295661,0.071837477386,0.0100858034566,0.0111039867625,-0.0842552185059,-0.00196126499213,0.989028930664,0.0104057183489,-4.04916000366,-0.0754372477531,-7.33679008484,-0.320399403572,42.9596290587941,95.046676635764,53.67587280274,22.89888763426,413
1.64950598935904E+018,94,1.64950598935904E+018,r1000913c5/base_footprint,0,1.64950598935904E+018,v/m1vw10zy74w/map,-14.5440819296,-1.53159401355,0,0,0,-0.714356111986,0.699782355642,0,71.4615478516,42.0814476013,48.6934814453,94.0576477051,57.6917610168,57.6917610168,71.4615478516,71.4615478516,35.3706321716,0.46295812726,0,0.00103181716986,0.0702380388975,0.0100721698254,0.0111039867625,0.87818145752,0.0204420164227,0.989028930664,0.0104057183489,-4.01588821411,-0.0748173817992,-12.4717445374,-0.544644117355,42.95962905882,95.046676635764,53.67587280269,22.8988876342,413
1.64950598945798E+018,95,1.64950598945798E+018,r1000913c5/base_footprint,0,1.64950598945798E+018,v/m1vw10zy74w/map,-14.5440819296,-1.53159401355,0,0,0,-0.714356111986,0.699782355642,0,71.5995635986,42.0955886841,48.5192527771,94.0576477051,57.6139907837,57.6139907837,71.5995635986,71.5995635986,32.0465202332,0.475068569183,0,0.00104605557863,0.0687056854367,0.0100579308346,0.0111039867625,0.864040374756,0.0201128460467,0.989028930664,0.0104057183489,-3.93811798096,-0.0733684971929,-9.14763259888,-0.399479329586,42.959629058856,95.046676635764,53.67587280274,22.89888763432,413
1.64950598965852E+018,96,1.64950598965852E+018,r1000913c5/base_footprint,0,1.64950598965852E+018,v/m1vw10zy74w/map,-14.5440819296,-1.53159401355,0,0,0,-0.714356111986,0.699782355642,0,71.6149215698,39.7869377136,48.3818473816,94.0576477051,57.5872383118,57.5872383118,71.6149215698,71.6149215698,31.4810676575,0.491013675928,0,0.00105281767901,0.0655034705997,0.0100511694327,0.0111039867625,3.17269134521,0.0738528594375,0.989028930664,0.0104057183489,-3.91136550903,-0.0728700831532,-8.58218002319,-0.374785900116,42.95962905881,95.046676635764,53.67587280277,22.89888763431,413
1.64950598975741E+018,97,1.64950598975741E+018,r1000913c5/base_footprint,0,1.64950598975741E+018,v/m1vw10zy74w/map,-14.5440819296,-1.53159401355,0,0,0,-0.714356111986,0.699782355642,0,71.6394577026,39.3382339478,48.2812728882,94.0576477051,57.6121063232,57.6121063232,71.6394577026,71.6394577026,31.3081150055,0.52229899168,0,0.00105934706517,0.0640350133181,0.0100446399301,0.0111039867625,3.62139511108,0.0842976346612,0.989028930664,0.0104057183489,-3.93623352051,-0.0733333900571,-8.40922737122,-0.367233008146,42.95962905888,95.046676635764,53.67587280269,22.89888763428,413
1.64950598985869E+018,98,1.64950598985869E+018,r1000913c5/base_footprint,0,1.64950598985869E+018,v/m1vw10zy74w/map,-14.5462094024,-1.39982967674,0,0,0,-0.713617524313,0.700535530143,0,71.3819046021,36.1605110168,48.3057556152,93.6315536499,57.5299682617,57.5299682617,71.3819046021,71.3819046021,33.5229721069,0.507004201412,0,0.00107247626875,0.0625808686018,0.0100315101445,0.0111039867625,5.29616165161,0.127751722932,1.39506530762,0.0146807841957,-4.12791442871,-0.077298797667,-10.0884552002,-0.430495560169,41.45667266841,95.02661895752,53.40205383299,23.4345169067,408
1.64950599005773E+018,99,1.64950599005773E+018,r1000913c5/base_footprint,0,1.64950599005773E+018,v/m1vw10zy74w/map,-14.5461660673,-1.38136060412,0,0,0,-0.713379445997,0.700777971992,0,71.6388015747,37.4416427612,48.337272644,93.7192840576,57.5095100403,57.5095100403,71.6388015747,71.6388015747,28.99376297,0.417322546244,0,0.00108629069291,0.0582843236625,0.0100176958367,0.0111039867625,4.01502990723,0.0968488231301,1.3073348999,0.0137575650588,-4.10745620728,-0.0769156962633,-5.55924606323,-0.237224698067,41.45667266843,95.0266189575,53.40205383302,23.43451690677,408
1.64950599015754E+018,100,1.64950599015754E+018,r1000913c5/base_footprint,0,1.64950599015754E+018,v/m1vw10zy74w/map,-14.5461660673,-1.38136060412,0,0,0,-0.713379445997,0.700777971992,0,71.5656661987,42.5660018921,48.3850288391,93.7192840576,57.6459617615,57.6459617615,71.5656661987,71.5656661987,31.783744812,0.428497493267,0,0.00108878023457,0.0565261468291,0.0100152064115,0.0111039867625,-1.10932922363,-0.0267587620765,1.3073348999,0.0137575650588,-4.24390792847,-0.079470872879,-8.34922790527,-0.356279075146,41.45667266847,95.0266189575,53.40205383303,23.43451690673,408
