%time,field.header.seq,field.header.stamp,field.header.frame_id,field.pose.header.seq,field.pose.header.stamp,field.pose.header.frame_id,field.pose.pose.position.x,field.pose.pose.position.y,field.pose.pose.position.z,field.pose.pose.orientation.x,field.pose.pose.orientation.y,field.pose.pose.orientation.z,field.pose.pose.orientation.w,field.label,field.main_output,field.scan_score,field.pose_score,field.cov_score,field.lhood_map_score,field.lhood_robot_score,field.lhood_map_score_all,field.lhood_robot_score_all,field.point_angle_diff,field.average_orientation,field.map_average_orientation,field.sensor_div,field.odom_div_x,field.odom_div_w,field.imu_div_w,field.kdtree_div,field.kdtree_div_p,field.cov_div,field.cov_div_p,field.likelihood_div,field.likelihood_div_p,field.normal_diff_div,field.normal_diff_div_p,field.kdtree_average,field.cov_average,field.likelihood_average,field.normal_diff_average,field.map_update_count
1.64951548052748E+018,0,1.64951548052748E+018,r1000913c5/base_footprint,0,1.64951548052748E+018,v/m1vw10zy74w/map,-8.67163693797,-1.30197061249,0,0,0,-0.715649846641,0.698459230738,0,63.4653053284,23.9819011688,100,95.6017608643,43.6846160889,43.6846160889,63.4653053284,63.4653053284,33.5846786499,0.0504624024034,0,0.0149209164083,0.0725703909993,0.131701111794,0.11678019166,-7.74440574646,-0.476945817471,-0.448425292969,-0.00471265986562,-2.2419090271,-0.0540965870023,2.49457168579,0.0691414475441,16.23749542234,95.153335571331,41.4427070618,36.07925033569,321
1.64951548062802E+018,1,1.64951548062802E+018,r1000913c5/base_footprint,0,1.64951548062802E+018,v/m1vw10zy74w/map,-8.67163693797,-1.30197061249,0,0,0,-0.715649846641,0.698459230738,0,64.0628662109,20.4401187897,45.0633468628,95.6017608643,43.6873779297,43.6873779297,64.0628662109,64.0628662109,22.8583927155,0.256230264902,0,0.0148857943714,0.0680241659284,0.124887354672,0.110001564026,-4.20262336731,-0.258822143078,-0.448425292969,-0.00471265986562,-2.24467086792,-0.0541632287204,13.2208576202,0.366439372301,16.23749542239,95.153335571331,41.44270706178,36.0792503357,321
1.64951548412701E+018,2,1.64951548412701E+018,r1000913c5/base_footprint,0,1.64951548412701E+018,v/m1vw10zy74w/map,-8.66515024177,-2.17880891232,0,0,0,-0.707678883269,0.706534215856,0,64.1873397827,18.7473545074,45.6118659973,96.8174972534,43.5805091858,43.5805091858,64.1873397827,64.1873397827,23.8403167725,0.339204996824,0,1.85164535651E-05,0.014617651701,0.0137067157775,0.0137252323329,-6.42662811279,-0.521611154079,-1.41338348389,-0.0148147018626,-3.08853149414,-0.0762751474977,5.33416175842,0.182836577296,12.32072639461,95.40411376951,40.49197769166,29.17447853092,219
1.64951548682686E+018,3,1.64951548682686E+018,r1000913c5/base_footprint,0,1.64951548682686E+018,v/m1vw10zy74w/map,-8.65987248054,-2.41611579503,0,0,0,-0.709895180984,0.704307342015,0,64.0412139893,19.7012138367,45.181640625,96.9136886597,43.4280128479,43.4280128479,64.0412139893,64.0412139893,25.1700134277,1.56767070293,0,0.00147796608508,0.089372895658,0.0157277174294,0.0172056835145,-8.62944126129,-0.779409170151,-1.5625,-0.0163867902011,-3.16911697388,-0.0787184238434,1.4571685791,0.0547248497605,11.07177257541,95.3511886597,40.25889587402,26.6271820068,155
1.64951548692729E+018,4,1.64951548692729E+018,r1000913c5/base_footprint,0,1.64951548692729E+018,v/m1vw10zy74w/map,-8.65987248054,-2.41611579503,0,0,0,-0.709895180984,0.704307342015,0,63.901096344,10.4477615356,44.0690460205,96.9136886597,42.9665565491,42.9665565491,63.901096344,63.901096344,22.7083835602,1.42601013184,0,0.00147253775503,0.100374870002,0.0157674327493,0.0172399692237,0.624011039734,0.0563605353236,-1.5625,-0.0163867902011,-2.70766067505,-0.0672562047839,3.91879844666,0.147172853351,11.071772575334,95.3511886597,40.25889587405,26.62718200686,155
1.64951548702709E+018,5,1.64951548702709E+018,r1000913c5/base_footprint,0,1.64951548702709E+018,v/m1vw10zy74w/map,-8.65987248054,-2.41611579503,0,0,0,-0.709895180984,0.704307342015,0,63.4084091187,11.3257246017,43.7989044189,96.9136886597,42.588558197,42.588558197,63.4084091187,63.4084091187,27.4943141937,1.42897343636,0,0.00146797369234,0.111765012145,0.0158075578511,0.0172755327076,-0.253952026367,-0.0229368899018,-1.5625,-0.0163867902011,-2.329662323,-0.0578670203686,-0.86713218689,-0.0325656756759,11.071772575333,95.3511886597,40.258895874,26.62718200681,155
1.64951548712741E+018,6,1.64951548712741E+018,r1000913c5/base_footprint,0,1.64951548712741E+018,v/m1vw10zy74w/map,-8.65987248054,-2.41611579503,0,0,0,-0.709895180984,0.704307342015,0,63.1221618652,15.3297681808,43.9141845703,96.9136886597,42.2827301025,42.2827301025,63.1221618652,63.1221618652,29.343832016,1.46873557568,0,0.00144184799865,0.133100941777,0.0159030780196,0.0173449255526,-4.25799560547,-0.384581208229,-1.5625,-0.0163867902011,-2.02383422852,-0.050270486623,-2.71665000916,-0.102025441825,11.07177257533,95.3511886597,40.25889587398,26.62718200684,155
1.64951548722704E+018,7,1.64951548722704E+018,r1000913c5/base_footprint,0,1.64951548722704E+018,v/m1vw10zy74w/map,-8.65987248054,-2.41611579503,0,0,0,-0.709895180984,0.704307342015,0,63.0215950012,10.6590003967,44.1692123413,96.9136886597,41.9409255981,41.9409255981,63.0215950012,63.0215950012,27.4625854492,1.43348836899,0,0.00140122731682,0.14306101203,0.0159776955843,0.0173789225519,0.41277217865,0.0372814908624,-1.5625,-0.0163867902011,-1.68202972412,-0.0417803227901,-0.835403442383,-0.0313740856946,11.07177257535,95.3511886597,40.25889587398,26.627182006817,155
1.6495154873271E+018,8,1.6495154873271E+018,r1000913c5/base_footprint,0,1.6495154873271E+018,v/m1vw10zy74w/map,-8.65987248054,-2.41611579503,0,0,0,-0.709895180984,0.704307342015,0,63.0368385315,10.4477615356,44.4674568176,96.9136886597,41.6610107422,41.6610107422,63.0368385315,63.0368385315,24.1651325226,1.41506111622,0,0.00147634907626,0.159990891814,0.0162207819521,0.0176971312612,0.624011039734,0.0563605353236,-1.5625,-0.0163867902011,-1.40211486816,-0.0348274558783,2.46204948425,0.0924637615681,11.071772575334,95.3511886597,40.25889587404,26.62718200685,155
1.64951548742712E+018,9,1.64951548742712E+018,r1000913c5/base_footprint,0,1.64951548742712E+018,v/m1vw10zy74w/map,-8.65987248054,-2.41611579503,0,0,0,-0.709895180984,0.704307342015,0,62.4634170532,15.7155399323,44.7689857483,96.9136886597,41.4792404175,41.4792404175,62.4634170532,62.4634170532,32.5235710144,1.44607627392,0,0.00155868532602,0.172911226749,0.0177491139621,0.0193077996373,-4.64376735687,-0.419424027205,-1.5625,-0.0163867902011,-1.22034454346,-0.0303124189377,-5.89638900757,-0.221442475915,11.07177257543,95.3511886597,40.25889587404,26.62718200683,155
1.64951548752728E+018,10,1.64951548752728E+018,r1000913c5/base_footprint,0,1.64951548752728E+018,v/m1vw10zy74w/map,-8.65987248054,-2.41611579503,0,0,0,-0.709895180984,0.704307342015,0,62.5365867615,13.3126935959,45.0572967529,96.9136886597,41.2252998352,41.2252998352,62.5365867615,62.5365867615,28.463973999,1.42667198181,0,0.00214772322215,0.178593859076,0.0194877777249,0.0216355025768,-2.24092102051,-0.202399477363,-1.5625,-0.0163867902011,-0.966403961182,-0.0240047313273,-1.83679199219,-0.0689818412066,11.07177257539,95.3511886597,40.258895874018,26.62718200681,155
1.6495154877272E+018,11,1.6495154877272E+018,r1000913c5/base_footprint,0,1.6495154877272E+018,v/m1vw10zy74w/map,-8.65987248054,-2.41611579503,0,0,0,-0.709895180984,0.704307342015,0,62.229675293,13.9596138,45.3261604309,96.9136886597,41.0311279297,41.0311279297,62.229675293,62.229675293,31.8913269043,1.67637634277,0,0.00273159728386,0.186082392931,0.0274863988161,0.0302179958671,-2.88784122467,-0.260829180479,-1.5625,-0.0163867902011,-0.772232055664,-0.0191816501319,-5.26414489746,-0.197698161006,11.07177257533,95.3511886597,40.258895874036,26.62718200684,155
1.64951548782741E+018,12,1.64951548782741E+018,r1000913c5/base_footprint,0,1.64951548782741E+018,v/m1vw10zy74w/map,-8.65987248054,-2.41611579503,0,0,0,-0.709895180984,0.704307342015,0,62.2196159363,12.6297578812,45.5739746094,96.9136886597,40.9787521362,40.9787521362,62.2196159363,62.2196159363,31.506696701,1.50169539452,0,0.00327505497262,0.187959954143,0.0423627011478,0.0456377565861,-1.55798530579,-0.14071688056,-1.5625,-0.0163867902011,-0.719856262207,-0.0178806763142,-4.87951469421,-0.183253139257,11.07177257541,95.3511886597,40.258895873993,26.62718200679,155
1.64951548792732E+018,13,1.64951548792732E+018,r1000913c5/base_footprint,0,1.64951548792732E+018,v/m1vw10zy74w/map,-8.65987248054,-2.41611579503,0,0,0,-0.709895180984,0.704307342015,0,62.1845016479,12.6050424576,45.8012046814,96.9136886597,41.0751609802,41.0751609802,62.1845016479,62.1845016479,33.1799850464,1.57393920422,0,0.00313332024962,0.187027558684,0.0462179854512,0.0493513047695,-1.5332698822,-0.138484582305,-1.5625,-0.0163867902011,-0.816265106201,-0.0202753972262,-6.55280303955,-0.246094495058,11.0717725754,95.3511886597,40.258895873999,26.62718200685,155
1.64951548802753E+018,14,1.64951548802753E+018,r1000913c5/base_footprint,0,1.64951548802753E+018,v/m1vw10zy74w/map,-8.65987248054,-2.41611579503,0,0,0,-0.709895180984,0.704307342015,0,62.1826133728,12.3904876709,46.0092048645,96.9136886597,40.9747390747,40.9747390747,62.1826133728,62.1826133728,32.1294250488,1.54912352562,0,0.00296322256327,0.185615494847,0.04875414446,0.0517173670232,-1.31871509552,-0.119106046855,-1.5625,-0.0163867902011,-0.715843200684,-0.0177809949964,-5.50224304199,-0.206640079618,11.07177257538,95.3511886597,40.258895874016,26.62718200681,155
1.64951548822712E+018,15,1.64951548822712E+018,r1000913c5/base_footprint,0,1.64951548822712E+018,v/m1vw10zy74w/map,-8.65505321272,-2.28675541807,0,0,0,-0.722228864414,0.691654153033,0,62.0520248413,11.9763011932,46.1996307373,96.523765564,40.8657531738,40.8657531738,62.0520248413,62.0520248413,31.8992652893,1.51627981663,0,0.00188495218754,0.169494509697,0.0567271634936,0.0586121156812,-0.148962974548,-0.0125948013738,-1.12273406982,-0.0117685738951,-0.435935974121,-0.0107825361192,-3.77239990234,-0.134120881557,11.827338218652,95.40103149418,40.429817199679,28.12686538696,194
1.64951548832715E+018,16,1.64951548832715E+018,r1000913c5/base_footprint,0,1.64951548832715E+018,v/m1vw10zy74w/map,-8.65187035227,-2.17299588011,0,0,0,-0.723413626294,0.690414893591,0,62.1144104004,5.88235282898,46.3741874695,96.7881469727,40.771320343,40.771320343,62.1144104004,62.1144104004,30.7081928253,1.50037920475,0,0.00218365807086,0.160819202662,0.0569861903787,0.0591698475182,6.43837356567,0.522564470768,-1.38403320312,-0.0145070599392,-0.279342651367,-0.00689871609211,-1.53371429443,-0.0525704100728,12.32072639465,95.40411376958,40.491977691633,29.17447853087,219
1.64951548842707E+018,17,1.64951548842707E+018,r1000913c5/base_footprint,0,1.64951548842707E+018,v/m1vw10zy74w/map,-8.65187035227,-2.17299588011,0,0,0,-0.723413626294,0.690414893591,0,62.4155158997,5.88235282898,46.5424995422,96.7881469727,40.7327613831,40.7327613831,62.4155158997,62.4155158997,24.871881485,1.51789605618,0,0.000378915923648,0.139085039496,0.0594688616693,0.059847779572,6.43837356567,0.522564470768,-1.38403320312,-0.0145070599392,-0.240783691406,-0.00594645412639,4.3025970459,0.147478118539,12.32072639465,95.40411376958,40.491977691694,29.1744785309,219
1.64951548852722E+018,18,1.64951548852722E+018,r1000913c5/base_footprint,0,1.64951548852722E+018,v/m1vw10zy74w/map,-8.64875144223,-2.03037328557,0,0,0,-0.723884546544,0.6899211283,0,62.1372718811,7.07587385178,46.6963996887,96.6822967529,40.7225265503,40.7225265503,62.1372718811,62.1372718811,29.3886394501,1.43081665039,0,0.000836200779304,0.121684595942,0.051166523248,0.0520027242601,5.68448400497,0.445479989052,-1.33881378174,-0.0140420058742,-0.0967330932617,-0.00238107587211,1.45517349243,0.0471787825227,12.76035785675,95.34348297116,40.6257934570383,30.84381294253,278
1.6495154886271E+018,19,1.6495154886271E+018,r1000913c5/base_footprint,0,1.6495154886271E+018,v/m1vw10zy74w/map,-8.64875144223,-2.03037328557,0,0,0,-0.723884546544,0.6899211283,0,62.012298584,6.22335910797,46.8277931213,96.6822967529,40.7872314453,40.7872314453,62.012298584,62.012298584,32.3370018005,1.25841748714,0,0.0010499820346,0.100045353174,0.0486672334373,0.0497172139585,6.53699874878,0.512289583683,-1.33881378174,-0.0140420058742,-0.161437988281,-0.00397378066555,-1.49318885803,-0.0484112910926,12.76035785675,95.34348297116,40.625793457019,30.84381294247,278
1.64951548872693E+018,20,1.64951548872693E+018,r1000913c5/base_footprint,0,1.64951548872693E+018,v/m1vw10zy74w/map,-8.64483687905,-1.90235790766,0,0,0,-0.727141580236,0.686487525227,0,61.8521499634,6.23617887497,48.1574935913,96.4946060181,40.9724159241,40.9724159241,61.8521499634,61.8521499634,36.543964386,1.13120472431,0,0.00088028475875,0.0842181891203,0.0451863147318,0.0460666008294,7.26865625381,0.538226187229,-1.22156524658,-0.0128217302263,-0.257942199707,-0.00633539306,-4.63984298706,-0.145430833101,13.50483512878,95.27304077152,40.714473724393,31.90412139894,302
1.64951548882726E+018,21,1.64951548882726E+018,r1000913c5/base_footprint,0,1.64951548882726E+018,v/m1vw10zy74w/map,-8.64678795016,-1.90358282275,0,0,0,-0.72713112586,0.686498598546,0,62.1419258118,7.12074279785,48.6473464966,96.5651931763,41.1270561218,41.1270561218,62.1419258118,62.1419258118,33.2522354126,1.04917109013,0,0.000859487219714,0.0759519338608,0.0437192395329,0.0445787273347,6.38409233093,0.472726404667,-1.29215240479,-0.0135626234114,-0.412582397461,-0.0101335560903,-1.34811401367,-0.042255166918,13.50483512878,95.27304077151,40.714473724339,31.90412139893,302
1.64951548892705E+018,22,1.64951548892705E+018,r1000913c5/base_footprint,0,1.64951548892705E+018,v/m1vw10zy74w/map,-8.64678795016,-1.90358282275,0,0,0,-0.72713112586,0.686498598546,0,61.8612976074,13.4948101044,49.1372032166,96.5651931763,41.4525871277,41.4525871277,61.8612976074,61.8612976074,41.8192596436,0.82969468832,0,0.000499312998727,0.0617908388376,0.041222423315,0.0417217388749,0.0100250244141,0.000742328527849,-1.29215240479,-0.0135626234114,-0.73811340332,-0.018129017204,-9.91513824463,-0.310779243708,13.5048351288141,95.27304077151,40.71447372438,31.90412139897,302
1.64951548902713E+018,23,1.64951548902713E+018,r1000913c5/base_footprint,0,1.64951548902713E+018,v/m1vw10zy74w/map,-8.63893234935,-1.76827634958,0,0,0,-0.727708481729,0.685886554482,0,62.0090026855,19.8635978699,48.5654945374,96.2186508179,41.6645736694,41.6645736694,62.0090026855,62.0090026855,40.202495575,0.799691140652,0,0.000227916112635,0.0488490276039,0.0408240184188,0.0410519354045,-5.8394908905,-0.416389495134,-0.945327758789,-0.00992227159441,-0.848384857178,-0.0207854993641,-6.78446960449,-0.203018262982,14.0241069794,95.273323059111,40.816188812222,33.41802597051,305
1.64951548912709E+018,24,1.64951548912709E+018,r1000913c5/base_footprint,0,1.64951548912709E+018,v/m1vw10zy74w/map,-8.63161590147,-1.64326466583,0,0,0,-0.728396250865,0.685156114856,0,62.19140625,24.6720275879,48.0832138062,96.0423660278,41.9664611816,41.9664611816,62.19140625,62.19140625,39.5449943542,0.540406703949,0,0.000222154965741,0.0419040322304,0.0408297814429,0.0410519354045,-9.71679210663,-0.649725139141,-0.796836853027,-0.00836613401771,-0.974788665771,-0.0237801633775,-4.56628417969,-0.130544677377,14.95523548127,95.245529174773,40.991672515829,34.97871017451,315
1.64951548922688E+018,25,1.64951548922688E+018,r1000913c5/base_footprint,0,1.64951548922688E+018,v/m1vw10zy74w/map,-8.63161590147,-1.64326466583,0,0,0,-0.728396250865,0.685156114856,0,62.5614280701,21.2924613953,47.6297264099,96.0423660278,42.1402359009,42.1402359009,62.5614280701,62.5614280701,34.7613258362,0.357596814632,0,0.000222339163884,0.0323866531253,0.0408295951784,0.0410519354045,-6.337225914,-0.423746317625,-0.796836853027,-0.00836613401771,-1.14856338501,-0.0280194319785,0.217384338379,0.00621476164088,14.9552354813,95.245529174773,40.99167251589,34.978710174579,315
1.64951548932767E+018,26,1.64951548932767E+018,r1000913c5/base_footprint,0,1.64951548932767E+018,v/m1vw10zy74w/map,-8.62779035673,-1.52029366061,0,0,0,-0.728909355959,0.68461021815,0,62.4871902466,19.3747425079,47.2680206299,95.9258804321,42.2325057983,42.2325057983,62.4871902466,62.4871902466,36.6748313904,0.567554116249,0,0.000506096926983,0.0278576929122,0.0411053970456,0.0416114963591,-3.9121837616,-0.253010123968,-0.718170166016,-0.00754319317639,-1.13047027588,-0.0275039970875,-0.78923034668,-0.0219929534942,15.4625587463,95.207710266084,41.10203552242,35.88560104372,310
1.64951548942755E+018,27,1.64951548942755E+018,r1000913c5/base_footprint,0,1.64951548942755E+018,v/m1vw10zy74w/map,-8.62779035673,-1.52029366061,0,0,0,-0.728909355959,0.68461021815,0,62.1214523315,19.117647171,46.8736610413,95.9258804321,42.2002296448,42.2002296448,62.1214523315,62.1214523315,42.9095039368,0.422323673964,0,0.000539497414138,0.0219738315791,0.0410719960928,0.0416114963591,-3.65508842468,-0.236383154988,-0.718170166016,-0.00754319317639,-1.09819412231,-0.0267187282443,-7.02390289307,-0.195730403066,15.46255874632,95.207710266084,41.10203552249,35.88560104373,310
1.64951548952706E+018,28,1.64951548952706E+018,r1000913c5/base_footprint,0,1.64951548952706E+018,v/m1vw10zy74w/map,-8.61831969083,-1.39729679115,0,0,0,-0.728974964299,0.684540357777,0,62.2665634155,18.6140213013,46.5041809082,95.725769043,42.216506958,42.216506958,62.2665634155,62.2665634155,39.7528610229,0.398404121399,0,0.000538842519745,0.0160027109087,0.0410726517439,0.0416114963591,-2.89094352722,-0.183866262436,-0.567680358887,-0.00596565520391,-1.00401306152,-0.0243618618697,-3.4175491333,-0.0940558612347,15.72307777408,95.158088684113,41.21249389648,36.3353118896,322
1.64951548962709E+018,29,1.64951548962709E+018,r1000913c5/base_footprint,0,1.64951548962709E+018,v/m1vw10zy74w/map,-8.61670801163,-1.40403717028,0,0,0,-0.7269748534,0.686664082739,0,62.4141120911,15.6186609268,46.1348495483,95.7560806274,42.0865821838,42.0865821838,62.4141120911,62.4141120911,35.8029670715,0.397625893354,0,0.000693321286235,0.00830063503236,0.0409181751311,0.0416114963591,0.104416847229,0.00664099305868,-0.597991943359,-0.00628419453278,-0.874088287354,-0.0212093032897,0.532344818115,0.014650894329,15.723077774029,95.158088684041,41.212493896446,36.335311889615,322
1.64951548972682E+018,30,1.64951548972682E+018,r1000913c5/base_footprint,0,1.64951548972682E+018,v/m1vw10zy74w/map,-8.60591347035,-1.27344855559,0,0,0,-0.72665361761,0.687004017466,0,61.8715019226,18.5520362854,45.8738670349,95.4951400757,42.0051956177,42.0051956177,61.8715019226,61.8715019226,43.7515907288,0.487658113241,0,0.000732591026463,0.000679663848132,0.0408789031208,0.0416114963591,-2.3968963623,-0.148367419839,-0.34455871582,-0.00362119404599,-0.596691131592,-0.014409868978,-7.61795806885,-0.210827350616,16.1551399231,95.15058135988,41.408504486108,36.13363265995,320
1.64951548982707E+018,31,1.64951548982707E+018,r1000913c5/base_footprint,0,1.64951548982707E+018,v/m1vw10zy74w/map,-8.60561718503,-1.26647941762,0,0,0,-0.726903355044,0.686739770528,0,62.5263328552,18.7473545074,45.8888282776,95.3963775635,42.0190658569,42.0190658569,62.5263328552,62.5263328552,31.7588500977,0.345413893461,0,0.000502888287883,0.0144647313282,0.0405805706978,0.041083458811,-2.59221458435,-0.160457581282,-0.245796203613,-0.00258323387243,-0.61056137085,-0.0147448303178,4.37478256226,0.12107231468,16.15513992305,95.150581359887,41.40850448605,36.13363265996,320
1.6495154899271E+018,32,1.6495154899271E+018,r1000913c5/base_footprint,0,1.6495154899271E+018,v/m1vw10zy74w/map,-8.5986549404,-1.12956294141,0,0,0,-0.728859778261,0.684663000047,0,61.8151779175,19.3277301788,45.9816703796,95.3204193115,41.9835853577,41.9835853577,61.8151779175,61.8151779175,43.9030532837,0.456121504307,0,0.000630085298326,0.0686752125621,0.0404533743858,0.041083458811,-1.28520965576,-0.0712322667241,-0.573867797852,-0.00605687266216,3.55723571777,0.0781109258533,-9.08742904663,-0.261015832424,18.04252052304,94.746551513648,45.54082107547,34.81562423707,957
1.64951549002775E+018,33,1.64951549002775E+018,r1000913c5/base_footprint,0,1.64951549002776E+018,v/m1vw10zy74w/map,-8.5986549404,-1.12956294141,0,0,0,-0.728859778261,0.684663000047,0,62.5314292908,22.1328811646,46.1465187073,95.3204193115,42.0931434631,42.0931434631,62.5314292908,62.5314292908,32.1937103271,0.412684351206,0,0.000599694729317,0.112905807793,0.0392810329795,0.0398807264864,-4.09036064148,-0.226706713438,-0.573867797852,-0.00605687266216,3.4476776123,0.0757052153349,2.62191390991,0.0753085389733,18.04252052312,94.746551513648,45.5408210754,34.81562423701,957
1.64951549012722E+018,34,1.64951549012722E+018,r1000913c5/base_footprint,0,1.64951549012722E+018,v/m1vw10zy74w/map,-8.5986549404,-1.12956294141,0,0,0,-0.728859778261,0.684663000047,0,62.5490951538,18.3494300842,46.3905563354,95.3204193115,42.0584526062,42.0584526062,62.5490951538,62.5490951538,31.5010910034,0.31142064929,0,0.000545007816982,0.136530771852,0.0331255272031,0.0325805209577,-0.306909561157,-0.0170103479177,-0.573867797852,-0.00605687266216,3.48236846924,0.0764669701457,3.31453323364,0.095202460885,18.042520523043,94.746551513648,45.54082107544,34.81562423704,957
1.64951549022767E+018,35,1.64951549022767E+018,r1000913c5/base_footprint,0,1.64951549022767E+018,v/m1vw10zy74w/map,-8.59147007333,-1.0030251384,0,0,0,-0.730591636855,0.682814660181,0,62.6719055176,20.4152240753,46.7137794495,95.0472412109,42.2202568054,42.2202568054,62.6719055176,62.6719055176,30.0545539856,0.0646819248796,0,0.00142674415838,0.149165838957,0.0184221956879,0.0169954523444,-2.27386474609,-0.12534147501,-0.424514770508,-0.00448639318347,3.85430908203,0.0836537256837,4.83935165405,0.138687595725,18.14135932921,94.622726440392,46.07456588743,34.89390563965,1142
1.64951549032703E+018,36,1.64951549032703E+018,r1000913c5/base_footprint,0,1.64951549032703E+018,v/m1vw10zy74w/map,-8.59147007333,-1.0030251384,0,0,0,-0.730591636855,0.682814660181,0,62.9893569946,23.0103797913,47.0092468262,95.0472412109,42.436466217,42.436466217,62.9893569946,62.9893569946,26.6754341125,0.383517861366,0,0.000948020489886,0.154611602426,0.000183203344932,0.000764817115851,-4.86902046204,-0.268393367529,-0.424514770508,-0.00448639318347,3.63809967041,0.0789611265063,8.2184715271,0.235527426004,18.14135932926,94.622726440392,46.07456588741,34.8939056396,1142
1.64951549042714E+018,37,1.64951549042714E+018,r1000913c5/base_footprint,0,1.64951549042714E+018,v/m1vw10zy74w/map,-8.58342149521,-0.863785306852,0,0,0,-0.727842131574,0.685744727654,0,62.9505348206,19.5501728058,47.3871002197,95.3438262939,42.596496582,42.596496582,62.9505348206,62.9505348206,30.1703281403,0.161037266254,0,0.000413030036725,0.153691262007,0.00161889870651,0.00203192862682,-1.33194541931,-0.0731105953455,-0.736030578613,-0.00777980918065,3.7213973999,0.0803446993232,4.7253742218,0.135414212942,18.21822738649,94.607795715287,46.3178939819,34.8957023621,1182
1.64951549052707E+018,38,1.64951549052707E+018,r1000913c5/base_footprint,0,1.64951549052707E+018,v/m1vw10zy74w/map,-8.58342149521,-0.863785306852,0,0,0,-0.727842131574,0.685744727654,0,63.6198692322,20.1373977661,47.7291107178,95.3438262939,42.7149467468,42.7149467468,63.6198692322,63.6198692322,19.4015903473,0.275537669659,0,0.00041154952487,0.150968179107,0.0013560600346,0.00176760961767,-1.91917037964,-0.105343416333,-0.736030578613,-0.00777980918065,3.60294723511,0.0777873694897,15.4941120148,0.44401204586,18.21822738646,94.607795715287,46.31789398191,34.8957023621,1182
1.64951549062698E+018,39,1.64951549062698E+018,r1000913c5/base_footprint,0,1.64951549062698E+018,v/m1vw10zy74w/map,-8.57291074636,-0.749279814257,0,0,0,-0.727265577736,0.68635616078,0,63.3743629456,21.2802772522,47.7343711853,94.985168457,42.8662490845,42.8662490845,63.3743629456,63.3743629456,24.1635475159,0.447581797838,0,0.000360952166375,0.149872422218,0.00140665739309,0.00176760961767,-3.10779571533,-0.171016588807,-0.429878234863,-0.0045463158749,3.74431991577,0.0803319960833,10.7295532227,0.307497829199,18.17248153687,94.555290222137,46.61056900027,34.8931007386,1171
1.64951549082714E+018,40,1.64951549082714E+018,r1000913c5/base_footprint,0,1.64951549082714E+018,v/m1vw10zy74w/map,-8.57988939549,-0.731036286993,0,0,0,-0.727386896518,0.686227588176,0,63.2710342407,19.8257083893,48.0086975098,94.8815689087,43.0055503845,43.0055503845,63.2710342407,63.2710342407,27.1549968719,0.236764192581,0,0.000374100549379,0.150002360344,0.0013935090974,0.00176760961767,-1.65322685242,-0.0909741967916,-0.326278686523,-0.00345066562295,3.60501861572,0.0773433744907,7.73810386658,0.221766009927,18.17248153688,94.555290222177,46.61056900022,34.89310073848,1171
1.64951549092732E+018,41,1.64951549092732E+018,r1000913c5/base_footprint,0,1.64951549092732E+018,v/m1vw10zy74w/map,-8.57988939549,-0.731036286993,0,0,0,-0.727386896518,0.686227588176,0,63.4703712463,21.8548736572,48.2632293701,94.8815689087,43.1531677246,43.1531677246,63.4703712463,63.4703712463,25.161151886,0.0913667753339,0,0.000379091216018,0.150113865733,0.00138851837255,0.00176760961767,-3.68239212036,-0.202635616064,-0.326278686523,-0.00345066562295,3.45740127563,0.0741763338447,9.73194885254,0.27890753746,18.17248153684,94.555290222177,46.61056900023,34.89310073854,1171
1.6495154911272E+018,42,1.6495154911272E+018,r1000913c5/base_footprint,0,1.6495154911272E+018,v/m1vw10zy74w/map,-8.57988939549,-0.731036286993,0,0,0,-0.727386896518,0.686227588176,0,63.5410690308,23.0103797913,48.5785179138,94.8815689087,43.2981452942,43.2981452942,63.5410690308,63.5410690308,25.4543476105,0.229393839836,0,0.000420679833042,0.150131717324,0.00134692981374,0.00176760961767,-4.83789825439,-0.266221106052,-0.326278686523,-0.00345066562295,3.31242370605,0.0710659325123,9.43875312805,0.27050486207,18.17248153691,94.555290222177,46.61056900025,34.89310073855,1171
1.6495154912271E+018,43,1.6495154912271E+018,r1000913c5/base_footprint,0,1.6495154912271E+018,v/m1vw10zy74w/map,-8.5717318692,-0.61784049876,0,0,0,-0.727833506667,0.685753881924,0,63.4961471558,24.9786872864,48.6527938843,95.405960083,43.4929695129,43.4929695129,63.4961471558,63.4961471558,30.2549190521,0.040237609297,0,0.000677571049891,0.150168478489,0.00162336637732,0.00230093742721,-6.83107185364,-0.376417040825,-0.869102478027,-0.00919326581061,3.25638580322,0.0696562752128,4.62880134583,0.132692307234,18.14761543276,94.536857604973,46.74935531612,34.88372039793,1118
1.649515491327E+018,44,1.649515491327E+018,r1000913c5/base_footprint,0,1.649515491327E+018,v/m1vw10zy74w/map,-8.56318258487,-0.492686558358,0,0,0,-0.728854932529,0.684668158547,0,64.1673736572,22.1453285217,48.7330322266,95.8683853149,43.6002883911,43.6002883911,64.1673736572,64.1673736572,20.9965419769,0.208715856075,0,0.000777930195909,0.149642154574,0.00152300717309,0.00230093742721,-3.92169952393,-0.215198606253,-1.34327697754,-0.0142107950523,3.11043930054,0.0665894001722,13.729681015,0.395369261503,18.22362899777,94.52510833736,46.71072769164,34.7262229919,1005
1.64951549222713E+018,45,1.64951549222713E+018,r1000913c5/base_footprint,0,1.64951549222713E+018,v/m1vw10zy74w/map,-8.55714991952,-0.372738850947,0,0,0,-0.72887315794,0.684648756396,0,64.409942627,25.2898235321,48.7658042908,95.8938598633,43.7161750793,43.7161750793,64.409942627,64.409942627,17.9735965729,0.199028536677,0,0.00172997382469,0.217163518071,0.0375197157264,0.0357897430658,-6.91438102722,-0.376283794641,-1.35500335693,-0.0143327666447,2.98340988159,0.0638851448894,16.5971431732,0.480092227459,18.37544250488,94.53885650637,46.69958496089,34.5707397461,874
1.64951549232711E+018,46,1.64951549232711E+018,r1000913c5/base_footprint,0,1.64951549232711E+018,v/m1vw10zy74w/map,-8.55714991952,-0.372738850947,0,0,0,-0.72887315794,0.684648756396,0,63.8958396912,24.7404842377,48.7105712891,95.8938598633,43.7099990845,43.7099990845,63.8958396912,63.8958396912,27.1607952118,0.0579300783575,0,0.00241031963378,0.215089157224,0.0705377161503,0.0681274011731,-6.36504173279,-0.346388489008,-1.35500335693,-0.0143327666447,2.98958587646,0.0640174001455,7.4099445343,0.214341506362,18.37544250491,94.53885650637,46.69958496096,34.5707397461,874
1.64951549242701E+018,47,1.64951549242701E+018,r1000913c5/base_footprint,0,1.64951549242701E+018,v/m1vw10zy74w/map,-8.55857868473,-0.468065564861,0,0,0,-0.692361425554,0.721550868897,0,64.0523757935,25.6965942383,48.6374702454,95.8648605347,43.6630592346,43.6630592346,64.0523757935,64.0523757935,23.7318401337,0.296350359917,0,0.00280116288923,0.213329046965,0.0797402784228,0.0769391208887,-7.47296524048,-0.410070091486,-1.33975219727,-0.0141735058278,3.04766845703,0.0652455762029,10.9943828583,0.316601753235,18.22362899782,94.52510833743,46.71072769163,34.726222992,1005
1.64951549252726E+018,48,1.64951549252726E+018,r1000913c5/base_footprint,0,1.64951549252726E+018,v/m1vw10zy74w/map,-8.55857868473,-0.468065564861,0,0,0,-0.692361425554,0.721550868897,0,63.8066596985,25.0544662476,48.5694999695,95.8648605347,43.4730491638,43.4730491638,63.8066596985,63.8066596985,26.1025695801,0.147907882929,0,0.00353070511483,0.206801176071,0.109331011772,0.105800308287,-6.83083724976,-0.374834090471,-1.33975219727,-0.0141735058278,3.23767852783,0.0693133845925,8.62365341187,0.248332604766,18.22362899784,94.52510833743,46.71072769163,34.72622299197,1005
1.6495154926275E+018,49,1.6495154926275E+018,r1000913c5/base_footprint,0,1.6495154926275E+018,v/m1vw10zy74w/map,-8.551659505,-0.534356109141,0,0,0,-0.654827795782,0.755778114178,0,63.3684196472,20.9961357117,48.5078964233,95.6410217285,43.2987365723,43.2987365723,63.3684196472,63.3684196472,31.3025016785,0.058729339391,0,0.0040593361482,0.201422154903,0.13234692812,0.128287598491,-2.79056549072,-0.153280854225,-1.11184692383,-0.011761944741,3.47587585449,0.0743111595511,3.44769668579,0.0992137268186,18.20557022098,94.52917480467,46.77461242679,34.75019836429,1055
1.64951549272712E+018,50,1.64951549272712E+018,r1000913c5/base_footprint,0,1.64951549272712E+018,v/m1vw10zy74w/map,-8.5391427242,-0.592121312682,0,0,0,-0.605693985945,0.795697678387,0,63.4152755737,20.38920784,48.2059326172,95.8968200684,43.157585144,43.157585144,63.4152755737,63.4152755737,29.855506897,0.110140159726,0,0.00525963492692,0.177498027682,0.128659188747,0.123399563134,-2.17989349365,-0.119713097811,-1.35449981689,-0.0143269151449,3.60748672485,0.077140621841,4.97397994995,0.142809450626,18.20931434635,94.54232025151,46.76507186885,34.82948684695,1092
1.64951549282726E+018,51,1.64951549282726E+018,r1000913c5/base_footprint,0,1.64951549282726E+018,v/m1vw10zy74w/map,-8.52607475274,-0.639963421139,0,0,0,-0.556946761816,0.830548195172,0,62.9693527222,23.0103797913,47.9311485291,96.0245056152,43.2219734192,43.2219734192,62.9693527222,62.9693527222,39.0371551514,-0.163421735168,0,0.00627754069865,0.138571366668,0.0861065611243,0.0798290148377,-4.72637557983,-0.258497834206,-1.48137664795,-0.0156687926501,3.54108810425,0.0757240429521,-4.0591468811,-0.116048544645,18.28400421147,94.54312896725,46.76306152345,34.9780082703,1131
1.64951549292725E+018,52,1.64951549292725E+018,r1000913c5/base_footprint,0,1.64951549292725E+018,v/m1vw10zy74w/map,-8.50748718164,-0.680138768228,0,0,0,-0.498348351473,0.866976885842,0,62.9104347229,21.5686283112,47.6994972229,95.841506958,43.0562973022,43.0562973022,62.9104347229,62.9104347229,37.6496047974,0.086104683578,0,0.00665701879188,0.095866240561,0.0292832162231,0.0226261969656,-3.30569267273,-0.181005552411,-1.29103088379,-0.0136544089764,3.67736816406,0.0786877721548,-2.67892837524,-0.0766049921513,18.26293563847,94.55047607421,46.73366546626,34.97067642216,1151
1.64951549302703E+018,53,1.64951549302703E+018,r1000913c5/base_footprint,0,1.64951549302703E+018,v/m1vw10zy74w/map,-8.4979558898,-0.689272015138,0,0,0,-0.445598411071,0.895232961888,0,63.0947761536,22.7136116028,47.281452179,95.7856674194,43.1586952209,43.1586952209,63.0947761536,63.0947761536,35.236366272,0.261734873056,0,0.00463785789907,0.0754018947482,0.00674181757495,0.00210395944305,-4.45067596436,-0.243699923158,-1.23519134521,-0.0130638303235,3.57497024536,0.0764966830611,-0.265689849854,-0.00759750371799,18.26293563844,94.55047607419,46.73366546626,34.970676422146,1151
1.64951549312722E+018,54,1.64951549312722E+018,r1000913c5/base_footprint,0,1.64951549312722E+018,v/m1vw10zy74w/map,-8.49578159728,-0.699333291833,0,0,0,-0.389879835679,0.920865741426,0,63.5346832275,24.8120307922,46.7888183594,95.9746932983,43.3247833252,43.3247833252,63.5346832275,63.5346832275,29.7922439575,0.377363860607,0,0.00347741087899,0.0689387023449,0.0246499963105,0.0211725868285,-6.54909515381,-0.358600348234,-1.42421722412,-0.0150630362332,3.40888214111,0.0729427486658,5.1784324646,0.148079276085,18.26293563839,94.55047607418,46.73366546631,34.9706764221,1151
1.64951549322701E+018,55,1.64951549322701E+018,r1000913c5/base_footprint,0,1.64951549322701E+018,v/m1vw10zy74w/map,-8.49121588464,-0.697610758464,0,0,0,-0.334778381142,0.942296893511,0,63.013633728,19.2273921967,46.4174461365,95.8902740479,43.275138855,43.275138855,63.013633728,63.013633728,38.3310890198,0.313063979149,0,0.00457764370367,0.0639913529158,0.0248266197741,0.0202489774674,-0.964456558228,-0.0528095029294,-1.33979797363,-0.0141701875255,3.45852661133,0.0740050375462,-3.36041259766,-0.0960922986269,18.262935638472,94.55047607427,46.73366546633,34.97067642214,1151
1.64951549362718E+018,56,1.64951549362718E+018,r1000913c5/base_footprint,0,1.64951549362718E+018,v/m1vw10zy74w/map,-8.48604730327,-0.705627267897,0,0,0,-0.235530404966,0.971866980783,0,63.0500907898,20.0367641449,46.028049469,96.1085281372,43.4124679565,43.4124679565,63.0500907898,63.0500907898,39.9437026978,0.389219999313,0,0.00175999163184,0.0278420224786,0.061723805964,0.0634837970138,-1.77382850647,-0.0971272364259,-1.55805206299,-0.0164785217494,3.32119750977,0.0710664913058,-4.97302627563,-0.142205610871,18.26293563843,94.55047607421,46.73366546627,34.97067642217,1151
1.64951549372704E+018,57,1.64951549372704E+018,r1000913c5/base_footprint,0,1.64951549372704E+018,v/m1vw10zy74w/map,-8.48604730327,-0.705627267897,0,0,0,-0.235530404966,0.971866980783,0,63.6322669983,24.0389060974,45.5669174194,96.1085281372,43.7019309998,43.7019309998,63.6322669983,63.6322669983,32.5907707214,0.0608564503491,0,0.00233145290986,0.0208201240748,0.0531631410122,0.055494595319,-5.77597045898,-0.316267371178,-1.55805206299,-0.0164785217494,3.03173446655,0.0648726001382,2.37990570068,0.0680543258786,18.26293563842,94.55047607421,46.73366546635,34.97067642208,1151
1.64951549382723E+018,58,1.64951549382723E+018,r1000913c5/base_footprint,0,1.64951549382723E+018,v/m1vw10zy74w/map,-8.42656791141,-0.723979157849,0,0,0,-0.18221345869,0.983258997148,0,63.3329658508,22.2011394501,45.1242752075,95.7721710205,43.8018989563,43.8018989563,63.3329658508,63.3329658508,37.8469085693,0.111768506467,0,0.00296874181367,0.0130163589492,0.051588229835,0.0545569695532,-4.04618644714,-0.222869560122,-1.26412963867,-0.0133758950979,2.87763595581,0.0616466291249,-2.63925170898,-0.0749624371529,18.15495300296,94.50804138183,46.67953491211,35.20765686032,1196
1.64951549392744E+018,59,1.64951549392744E+018,r1000913c5/base_footprint,0,1.64951549392744E+018,v/m1vw10zy74w/map,-8.42656791141,-0.723979157849,0,0,0,-0.18221345869,0.983258997148,0,63.8297805786,23.5294113159,44.7494354248,95.7721710205,44.1583747864,44.1583747864,63.8297805786,63.8297805786,32.754234314,-0.039707493037,0,0.00308847217821,0.0125985359773,0.0569552630186,0.060043733567,-5.37445831299,-0.296032607555,-1.26412963867,-0.0133758950979,2.52116012573,0.0540099665523,2.45342254639,0.0696843490005,18.15495300291,94.50804138183,46.67953491213,35.20765686039,1196
1.64951549402734E+018,60,1.64951549402734E+018,r1000913c5/base_footprint,0,1.64951549402734E+018,v/m1vw10zy74w/map,-8.35897747917,-0.741795266552,0,0,0,-0.127837223141,0.991795162511,0,64.3404693604,28.6403083801,44.6625671387,95.5792541504,44.5408973694,44.5408973694,64.3404693604,64.3404693604,26.9984836578,0.145095989108,0,0.00433517340571,0.0198654122651,0.0874821469188,0.0918173193932,-10.4493637085,-0.574426651001,-1.07011413574,-0.0113228643313,2.18046569824,0.0466695651412,8.28901481628,0.234899476171,18.1909446716,94.50914001466,46.72136306764,35.28749847408,1180
1.64951549412759E+018,61,1.64951549412759E+018,r1000913c5/base_footprint,0,1.64951549412759E+018,v/m1vw10zy74w/map,-8.29010277111,-0.754682403892,0,0,0,-0.0750792219824,0.997177572164,0,64.9496231079,31.5332698822,44.6407814026,95.8311157227,45.283531189,45.283531189,64.9496231079,64.9496231079,24.9609127045,0.0665261596441,0,0.00401044636965,0.0302244219929,0.12565587461,0.12966632843,-13.5329265594,-0.751814901829,-1.32317352295,-0.0140006598085,1.47645568848,0.0315751954913,10.4848575592,0.295799970627,18.0003433228,94.50794219975,46.75998687748,35.4457702637,1181
1.64951549422792E+018,62,1.64951549422792E+018,r1000913c5/base_footprint,0,1.64951549422792E+018,v/m1vw10zy74w/map,-8.28437866044,-0.753193110761,0,0,0,-0.0707473796221,0.997494264784,0,65.1346817017,32.2033882141,44.744228363,95.6350326538,45.7187385559,45.7187385559,65.1346817017,65.1346817017,25.6242771149,0.277121692896,0,0.00279346527532,0.0366140343249,0.169847846031,0.172641307116,-14.1270008087,-0.781516849995,-1.16142272949,-0.0122936209664,1.33255386353,0.0283213015646,10.1014385223,0.282749801874,18.0763874054,94.47360992431,47.05129241943,35.7257156372,1103
1.64951549432716E+018,63,1.64951549432716E+018,r1000913c5/base_footprint,0,1.64951549432716E+018,v/m1vw10zy74w/map,-8.14996696835,-0.772493735606,0,0,0,-0.016012471041,0.999871792167,0,65.3449020386,31.5332698822,45.0081787109,95.7267913818,46.3329277039,46.3329277039,65.3449020386,65.3449020386,28.8038539886,0.23839995265,0,0.00153105589561,0.0395712479949,0.182718575001,0.184249639511,-13.0140781403,-0.702734649181,-1.34106445312,-0.0142083391547,1.53927230835,0.0321537815034,7.79142570496,0.212907940149,18.5191917419,94.38572692868,47.87220001225,36.59527969356,919
1.64951549442708E+018,64,1.64951549442708E+018,r1000913c5/base_footprint,0,1.64951549442708E+018,v/m1vw10zy74w/map,-8.14996696835,-0.772493735606,0,0,0,-0.016012471041,0.999871792167,0,65.1318359375,30.392156601,45.2214698792,95.7267913818,46.9213027954,46.9213027954,65.1318359375,65.1318359375,38.9934463501,0.199414774776,0,0.000738884380553,0.0462507158518,0.214828491211,0.215567365289,-11.872964859,-0.641116797924,-1.34106445312,-0.0142083391547,0.950897216797,0.0198632441461,-2.39816665649,-0.0655321329832,18.519191742,94.38572692868,47.872200012197,36.59527969361,919
1.64951549452712E+018,65,1.64951549452712E+018,r1000913c5/base_footprint,0,1.64951549452713E+018,v/m1vw10zy74w/map,-8.02526780527,-0.764653542658,0,0,0,0.00230067865151,0.999997353435,0,65.5230941772,23.1891098022,45.5395393372,95.7318496704,47.2366104126,47.2366104126,65.5230941772,65.5230941772,35.3744316101,0.190251618624,0,0.000345156498952,0.0496829971671,0.24429449439,0.243949338794,-5.49004364014,-0.310188323259,-1.46070861816,-0.0154947591946,0.931842803955,0.0193454995751,2.08965301514,0.0557775013149,17.69906616206,94.27114105224,48.168453216555,37.46408462524,815
1.64951549462711E+018,66,1.64951549462711E+018,r1000913c5/base_footprint,0,1.64951549462711E+018,v/m1vw10zy74w/map,-7.89223593545,-0.754636116313,0,0,0,0.0148580311888,0.999889613362,0,65.2783660889,20.9257469177,46.0621871948,95.5803527832,47.6719665527,47.6719665527,65.2783660889,65.2783660889,43.9359664917,0.160432249308,0,0.00133917096537,0.0528646297753,0.281329244375,0.279990077019,-4.00552177429,-0.236729815602,-1.35840606689,-0.0144170876592,0.525585174561,0.0109048103914,-6.43326568604,-0.171541392803,16.92022514341,94.22194671631,48.197551727261,37.50270080566,803
1.64951549472705E+018,67,1.64951549472705E+018,r1000913c5/base_footprint,0,1.64951549472705E+018,v/m1vw10zy74w/map,-7.89223593545,-0.754636116313,0,0,0,0.0148580311888,0.999889613362,0,65.7362670898,19.6556663513,46.5307388306,95.5803527832,48.0291595459,48.0291595459,65.7362670898,65.7362670898,39.5513153076,0.121191136539,0,0.00232281233184,0.0569811575115,0.309076368809,0.306753546,-2.73544120789,-0.161666944623,-1.35840606689,-0.0144170876592,0.168392181396,0.00349379121326,-2.04861450195,-0.0546257868409,16.92022514341,94.22194671631,48.197551727296,37.50270080565,803
1.64951549482699E+018,68,1.64951549482699E+018,r1000913c5/base_footprint,0,1.64951549482699E+018,v/m1vw10zy74w/map,-7.75501143803,-0.748398006596,0,0,0,0.0203319562095,0.999793284413,0,66.5805435181,13.4662132263,46.7404708862,95.6072235107,48.3915328979,48.3915328979,66.5805435181,66.5805435181,28.3647956848,0.0998031944036,0,0.00436057336628,0.0201851390302,0.275089234114,0.270728677511,2.71379089355,0.167724981904,-1.36270904541,-0.0144592933357,-0.30504989624,-0.00634377636015,9.17541122437,0.244415581226,16.18000411985,94.24451446529,48.08648300166,37.54020690917,808
1.64951549492742E+018,69,1.64951549492742E+018,r1000913c5/base_footprint,0,1.64951549492742E+018,v/m1vw10zy74w/map,-7.75501143803,-0.748398006596,0,0,0,0.0203319562095,0.999793284413,0,66.8829040527,15.1398267746,47.2143554688,95.6072235107,48.7523803711,48.7523803711,66.8829040527,66.8829040527,26.8194923401,0.0636738836765,0,0.0054307593964,0.0184307042509,0.215026825666,0.209596067667,1.04017734528,0.0642878264189,-1.36270904541,-0.0144592933357,-0.665897369385,-0.0138479117304,10.7207145691,0.285579532385,16.18000411988,94.24451446529,48.086483001715,37.5402069092,808
1.64951549502711E+018,70,1.64951549502711E+018,r1000913c5/base_footprint,0,1.64951549502711E+018,v/m1vw10zy74w/map,-7.62306982051,-0.744992486765,0,0,0,0.0163420219965,0.999866460242,0,66.8721237183,17.6470584869,47.479637146,95.9987182617,49.0971412659,49.0971412659,66.8721237183,66.8721237183,32.1463508606,0.121355086565,0,0.004783465527,0.0321201346815,0.18149766326,0.176714196801,-1.74559020996,-0.109775409102,-1.53710174561,-0.0162722356617,-2.33335876465,-0.0498967058957,4.20967483521,0.115790292621,15.90146827694,94.46161651609,46.76378250125,36.35602569581,1103
1.64951549512794E+018,71,1.64951549512794E+018,r1000913c5/base_footprint,0,1.64951549512795E+018,v/m1vw10zy74w/map,-7.46717674364,-0.735791041589,0,0,0,0.0105873475458,0.999943952465,0,67.2371520996,14.1755065918,47.766998291,96.117980957,49.4185752869,49.4185752869,67.2371520996,67.2371520996,29.4765605927,0.0806185528636,0,0.00201958767138,0.0333778597414,0.183432117105,0.181412518024,1.73947811127,0.10929813236,-1.60836029053,-0.0170179530978,-2.96399688721,-0.0638041943312,6.55393028259,0.181899562478,15.91498470307,94.50962066647,46.45457839969,36.03049087529,1202
1.64951549522717E+018,72,1.64951549522717E+018,r1000913c5/base_footprint,0,1.64951549522717E+018,v/m1vw10zy74w/map,-7.30907036008,-0.727956980989,0,0,0,0.00774508072756,0.999970006412,0,67.1563873291,22.2332992554,48.0578231812,95.7218170166,49.7970581055,49.7970581055,67.1563873291,67.1563873291,33.5918312073,0.209960520267,0,0.00335995852947,0.0201263464987,0.195817217231,0.192457258701,-6.31603336334,-0.396803915501,-1.20486450195,-0.0127476025373,-3.45669174194,-0.0745935365558,2.30822372437,0.0642958283424,15.91726589206,94.51695251465,46.34036636356,35.90005493167,1231
1.64951549532727E+018,73,1.64951549532727E+018,r1000913c5/base_footprint,0,1.64951549532727E+018,v/m1vw10zy74w/map,-7.18799246957,-0.72824904761,0,0,0,0.00726382601018,0.999973618068,0,67.5475997925,30.2093715668,48.2243537903,95.7018890381,50.2537918091,50.2537918091,67.5475997925,67.5475997925,31.4109687805,0.534559369087,0,0.00390388374217,0.0140942409635,0.176668331027,0.17276443541,-14.1752357483,-0.884066104889,-1.18427276611,-0.0125296516344,-3.99621200562,-0.0863904282451,4.35893630981,0.121860437095,16.0341358185,94.51761627199,46.25757980348,35.76990509031,1235
1.64951549542718E+018,74,1.64951549542718E+018,r1000913c5/base_footprint,0,1.64951549542718E+018,v/m1vw10zy74w/map,-7.04587806651,-0.729209420666,0,0,0,0.00465183777482,0.999989180144,0,68.0979766846,25.5907497406,48.3432884216,95.4631195068,50.6600379944,50.6600379944,68.0979766846,68.0979766846,25.0320930481,0.660989105701,0,0.00230918289162,0.000377294432838,0.100693449378,0.0983842611313,-9.35860061646,-0.576547205448,-0.939277648926,-0.00993693899363,-4.3805809021,-0.0946549773216,10.6608085632,0.298681467772,16.23214912414,94.523841857874,46.2794570923,35.6929016113,1249
1.64951549552695E+018,75,1.64951549552695E+018,r1000913c5/base_footprint,0,1.64951549552695E+018,v/m1vw10zy74w/map,-6.8887935941,-0.730587710994,0,0,0,0.00200099272451,0.999997998012,0,68.207824707,24.9492893219,48.4574623108,95.3907928467,51.0155830383,51.0155830383,68.207824707,68.207824707,26.6342792511,0.710759818554,0,0.000508712080773,0.0165694542229,0.0983356535435,0.0978269428015,-8.34509468079,-0.502589523792,-0.903755187988,-0.00956485886127,-4.64418411255,-0.100151911378,9.24018287659,0.257569938898,16.60419464111,94.487037658712,46.37139892575,35.87446212769,1261
1.64951549562693E+018,76,1.64951549562693E+018,r1000913c5/base_footprint,0,1.64951549562693E+018,v/m1vw10zy74w/map,-6.78150533626,-0.736916396644,0,0,0,-0.000346707952839,0.999999939897,0,68.2730331421,29.2123622894,48.4716796875,95.4462432861,51.2979240417,51.2979240417,68.2730331421,68.2730331421,28.7094421387,0.460952669382,0,0.000521806883626,0.0368958115578,0.114015348256,0.113493539393,-12.5650844574,-0.754783153534,-1.02807617188,-0.0108885420486,-4.64114761353,-0.0994742438197,7.56318664551,0.208509474993,16.647277832,94.41816711422,46.65677642817,36.27262878421,1156
1.64951549572721E+018,77,1.64951549572721E+018,r1000913c5/base_footprint,0,1.64951549572721E+018,v/m1vw10zy74w/map,-6.6373678184,-0.740890100278,0,0,0,-0.0010377696708,0.999999461517,0,68.1034164429,20.239282608,48.3268165588,95.0916519165,51.4799957275,51.4799957275,68.1034164429,68.1034164429,32.4524726868,0.274454116821,0,0.00114511174615,0.0480717681348,0.116608932614,0.115463815629,-3.47004127502,-0.206928938627,-0.824340820312,-0.00874471571296,-4.02723693848,-0.0848683416843,4.66078186035,0.125582680106,16.76924133298,94.267311096188,47.45275878902,37.11325454715,923
1.64951549582707E+018,78,1.64951549582707E+018,r1000913c5/base_footprint,0,1.64951549582707E+018,v/m1vw10zy74w/map,-6.52282037688,-0.739920037773,0,0,0,-0.00158366104407,0.999998746008,0,67.7406387329,21.5686283112,48.2181777954,94.8037109375,51.6241035461,51.6241035461,67.7406387329,67.7406387329,39.5021705627,0.309392482042,0,0.00141127232928,0.0602398067713,0.116787873209,0.115376606584,-5.39230728149,-0.333345711231,-0.610130310059,-0.00647740857676,-4.00146865845,-0.0840245112777,-2.15961456299,-0.057832531631,16.17632102971,94.193580627441,47.62263488765,37.34255599971,856
1.64951549592699E+018,79,1.64951549592699E+018,r1000913c5/base_footprint,0,1.64951549592699E+018,v/m1vw10zy74w/map,-6.48626232293,-0.737449508682,0,0,0,2.78609488717E-05,0.999999999612,0,67.7321395874,15.3766765594,48.1359214783,94.9249420166,51.6450233459,51.6450233459,67.7321395874,67.7321395874,40.3174743652,-0.00633828574792,0,0.00132568180561,0.0629768371582,0.116577610373,0.115251928568,0.799644470215,0.0494330227375,-0.73136138916,-0.00776445027441,-4.02238845825,-0.0844637975097,-2.97491836548,-0.0796656310558,16.176321029615,94.19358062744,47.62263488765,37.34255599972,856
1.64951549602731E+018,80,1.64951549602731E+018,r1000913c5/base_footprint,0,1.64951549602731E+018,v/m1vw10zy74w/map,-6.48626232293,-0.737449508682,0,0,0,2.78609488717E-05,0.999999999612,0,68.1464996338,19.8782958984,48.0662078857,94.9249420166,51.7081069946,51.7081069946,68.1464996338,68.1464996338,33.5403060913,0.249426543713,0,0.00128498207778,0.071104221046,0.11539517343,0.114110186696,-3.70197486877,-0.228851467371,-0.73136138916,-0.00776445027441,-4.08547210693,-0.0857884511352,3.80224990845,0.10182082653,16.17632102963,94.19358062744,47.62263488767,37.34255599975,856
1.64951549612677E+018,81,1.64951549612677E+018,r1000913c5/base_footprint,0,1.64951549612677E+018,v/m1vw10zy74w/map,-6.328329642,-0.739569884699,0,0,0,0.00201215228015,0.99999797562,0,67.9766082764,16.8356990814,48.0279273987,94.783454895,51.7028160095,51.7028160095,67.9766082764,67.9766082764,36.0318756104,-0.117955766618,0,0.0016929989215,0.0773484110832,0.114981867373,0.113288871944,-1.59903717041,-0.104946687818,-0.678428649902,-0.00720927119255,-4.04454803467,-0.0848656147718,1.7121887207,0.04536312446,15.23666191099,94.105026245098,47.65826797483,37.7440643311,826
1.64951549622704E+018,82,1.64951549622704E+018,r1000913c5/base_footprint,0,1.64951549622704E+018,v/m1vw10zy74w/map,-6.16021693434,-0.73801693798,0,0,0,0.00170874130684,0.999998540101,0,68.3081512451,18.9322795868,48.0493888855,94.8321380615,51.7501792908,51.7501792908,68.3081512451,68.3081512451,30.7509422302,0.156653538346,0,0.00219376804307,0.0893071517348,0.111331433058,0.109137661755,-4.5818529129,-0.319283396006,-0.745132446289,-0.00791961047798,-4.0810546875,-0.0856121182442,6.86339187622,0.182467460632,14.3504266739,94.087005615211,47.6691246033,37.61433410642,801
1.64951549632723E+018,83,1.64951549632723E+018,r1000913c5/base_footprint,0,1.64951549632723E+018,v/m1vw10zy74w/map,-6.00708546314,-0.735962199856,0,0,0,0.00293769769145,0.999995684957,0,68.2931900024,14.2572278976,48.0940513611,94.7228546143,51.5980453491,51.5980453491,68.2931900024,68.2931900024,28.9836978912,0.127143085003,0,0.00283802906051,0.101475805044,0.0934307724237,0.0905927419662,-0.74612903595,-0.055223416537,-0.675506591797,-0.0071826223284,-4.04064559937,-0.0849635526538,8.15430641174,0.219567701221,13.51109886165,94.047348022503,47.55739974973,37.13800430294,782
1.64951549642712E+018,84,1.64951549642712E+018,r1000913c5/base_footprint,0,1.64951549642712E+018,v/m1vw10zy74w/map,-5.84701432974,-0.72903920898,0,0,0,0.00523271988236,0.999986309228,0,68.5941848755,13.3126935959,48.266834259,95.0535049438,51.4671859741,51.4671859741,68.5941848755,68.5941848755,23.3428573608,0.23845410347,0,0.00285728438757,0.113071627915,0.0711557045579,0.0682984143496,-0.276962280273,-0.0212463941425,-1.00820159912,-0.0107203824446,-3.9393157959,-0.0828843340278,13.1248397827,0.359903156757,13.035731315627,94.04530334468,47.5278701782,36.4676971435,763
1.64951549652724E+018,85,1.64951549652724E+018,r1000913c5/base_footprint,0,1.64951549652724E+018,v/m1vw10zy74w/map,-5.68863189431,-0.727057753707,0,0,0,0.00251465694679,0.999996838245,0,68.0166854858,12.7789049149,48.4693717957,94.7958374023,51.4032249451,51.4032249451,68.0166854858,68.0166854858,32.1195297241,0.389363229275,0,0.00295472098514,0.12414149195,0.0537242665887,0.0507695451379,-0.236744880676,-0.0188759248704,-0.754737854004,-0.00802561733872,-3.87361526489,-0.0814989954233,3.91217041016,0.108575791121,12.542160034224,94.041099548296,47.52960968021,36.03170013426,766
1.64951549662803E+018,86,1.64951549662803E+018,r1000913c5/base_footprint,0,1.64951549662803E+018,v/m1vw10zy74w/map,-5.54165766183,-0.72427842095,0,0,0,-0.00222248737333,0.999997530272,0,67.9090499878,8.38105106354,48.5466575623,94.212638855,51.3036117554,51.3036117554,67.9090499878,67.9090499878,30.881608963,0.386668145657,0,0.00231290981174,0.14243914187,0.0356930978596,0.0333801880479,4.01869487762,0.324094951153,-0.20085144043,-0.00213644956239,-3.76096725464,-0.0791072398424,4.9488735199,0.138119086623,12.39974594116,94.01178741457,47.54264450076,35.8304824829,762
1.64951549672713E+018,87,1.64951549672713E+018,r1000913c5/base_footprint,0,1.64951549672713E+018,v/m1vw10zy74w/map,-5.42457168809,-0.725985912447,0,0,0,-0.00347139869238,0.999993974677,0,67.8368606567,5.01888847351,48.5809020996,93.9561538696,51.2989387512,51.2989387512,67.8368606567,67.8368606567,31.2072029114,0.265471488237,0,0.00176014623139,0.152247935534,0.0315818712115,0.0298217274249,7.18049240112,0.588594794273,0.0702438354492,0.000747065059841,-3.63334274292,-0.0762256830931,4.81827545166,0.13374632597,12.19938087463,94.0263977050492,47.66559600828,36.02547836306,748
1.64951549682694E+018,88,1.64951549682694E+018,r1000913c5/base_footprint,0,1.64951549682694E+018,v/m1vw10zy74w/map,-5.2649761311,-0.723792114767,0,0,0,-0.00397809037968,0.999992087367,0,67.7577209473,15.5080213547,48.7256278992,94.162651062,51.5217704773,51.5217704773,67.7577209473,67.7577209473,35.7816200256,0.525928556919,0,0.00179905432742,0.169131726027,0.0235938280821,0.0217947736382,-3.9069070816,-0.336769998074,-0.189399719238,-0.00201546424069,-3.95065307617,-0.0830473080277,0.753807067871,0.0206322222948,11.6011142731,93.973251342762,47.57111740113,36.535427093471,737
1.64951549692698E+018,89,1.64951549692698E+018,r1000913c5/base_footprint,0,1.64951549692698E+018,v/m1vw10zy74w/map,-4.95096820632,-0.725322859245,0,0,0,-0.00208745922946,0.999997821255,0,68.2398681641,16.5409755707,48.7396621704,94.6226425171,51.6054916382,51.6054916382,68.2398681641,68.2398681641,29.6632118225,0.204859644175,0,0.00178449053783,0.180992975831,0.0186397470534,0.016855256632,-6.12492752075,-0.588027954102,-0.777297973633,-0.00828275457025,-4.10084915161,-0.0863252282143,7.6392326355,0.204791739583,10.41604804995,93.845344543467,47.50464248659,37.302444458,746
1.64951549702744E+018,90,1.64951549702744E+018,r1000913c5/base_footprint,0,1.64951549702744E+018,v/m1vw10zy74w/map,-4.81111878417,-0.724424675849,0,0,0,-0.00128447472559,0.999999175062,0,67.9819030762,6.4856710434,48.8459396362,95.0165176392,51.3987884521,51.3987884521,67.9819030762,67.9819030762,33.4920768738,0.610398828983,0,0.00152671546675,0.191031873226,0.01689559035,0.0153688751161,3.53337001801,0.352665483952,-0.965087890625,-0.0102612785995,-6.17036056519,-0.136426597834,1.22016143799,0.0351507551968,10.01904106141,94.051429748575,45.22842788691,34.71223831179,1040
1.64951549712689E+018,91,1.64951549712689E+018,r1000913c5/base_footprint,0,1.64951549712689E+018,v/m1vw10zy74w/map,-4.66869925818,-0.725854237907,0,0,0,-0.00197517586979,0.999998049338,0,68.3054885864,5.68789482117,48.8124694824,94.869102478,51.0894889832,51.0894889832,68.3054885864,68.3054885864,23.7964687347,0.22666195035,0,0.00152602500748,0.20782995224,0.0125336078927,0.0110075827688,3.92579555511,0.408354699612,-0.868370056152,-0.00923790689558,-7.0318031311,-0.159604460001,9.58407783508,0.28711566329,9.61369037628,94.000732421848,44.0576858521,33.38054656978,1250
1.6495154972275E+018,92,1.6495154972275E+018,r1000913c5/base_footprint,0,1.6495154972275E+018,v/m1vw10zy74w/map,-4.36868561827,-0.735352496404,0,0,0,-0.00272381356081,0.999996290413,0,66.8328781128,4.35198450089,48.75806427,94.3908996582,50.687046051,50.687046051,66.8328781128,66.8328781128,44.2354812622,0.72989565134,0,0.00147729401942,0.216341838241,0.0145248100162,0.013047516346,5.14337778091,0.541672646999,-0.398124694824,-0.00423569465056,-7.13837432861,-0.163917154074,-11.8176460266,-0.364541500807,9.4953622818,93.992774963376,43.54867172239,32.4178352356,1390
1.649515497827E+018,93,1.649515497827E+018,r1000913c5/base_footprint,0,1.649515497827E+018,v/m1vw10zy74w/map,-3.06755204674,-0.825311275409,0,0,0,-0.107737196199,0.994179408636,0,65.9286956787,9.71272182465,48.6298370361,94.8059387207,48.8138504028,48.8138504028,65.9286956787,65.9286956787,41.7744979858,0.389486521482,0,0.00308069912717,0.299714148045,0.0351303741336,0.0320496745408,-1.52352046967,-0.186040177941,-0.944114685059,-0.010058558546,-2.77346801758,-0.0602398999035,-6.55504989624,-0.186120182276,8.18920135498,93.861824035641,46.04038238522,35.21944808956,780
1.64951549792702E+018,94,1.64951549792702E+018,r1000913c5/base_footprint,0,1.64951549792702E+018,v/m1vw10zy74w/map,-2.89734629731,-0.867726843877,0,0,0,-0.123572720052,0.992335519297,0,65.8021392822,9.57705402374,48.5884857178,94.8977127075,48.5266799927,48.5266799927,65.8021392822,65.8021392822,41.2814750671,0.585628390312,0,0.00247702863999,0.309163570404,0.0286450441927,0.0261680148542,-0.589426040649,-0.0655819326639,-1.08563995361,-0.0115724969655,-2.41524887085,-0.0523785278201,-6.75598144531,-0.195680946112,8.987627983091,93.81207275389,46.11143112185,34.52549362179,769
1.64951549802705E+018,95,1.64951549802705E+018,r1000913c5/base_footprint,0,1.64951549802705E+018,v/m1vw10zy74w/map,-2.54589336164,-0.95777137099,0,0,0,-0.14448120207,0.989507545322,0,65.0542526245,8.25688076019,48.4119758606,94.8003387451,48.3400650024,48.3400650024,65.0542526245,65.0542526245,52.3773612976,1.95344519615,0,0.00151741411537,0.319741398096,0.0184559486806,0.0169385336339,1.91917896271,0.188597455621,-1.05167388916,-0.0112180141732,-2.10975646973,-0.0456357859075,-19.3307189941,-0.58495259285,10.1760597229,93.74866485594,46.23030853267,33.0466423035,739
1.64951549812726E+018,96,1.64951549812726E+018,r1000913c5/base_footprint,0,1.64951549812727E+018,v/m1vw10zy74w/map,-2.37326826934,-1.01001593664,0,0,0,-0.150230407543,0.988651012567,0,65.6869277954,13.3126935959,48.1670265198,94.778175354,48.2850074768,48.2850074768,65.6869277954,65.6869277954,40.3147926331,1.78014075756,0,0.0013029925758,0.339623630047,0.0069953519851,0.00569235952571,-2.83451080322,-0.270515501499,-0.958587646484,-0.0102173509076,-1.78285598755,-0.0383392162621,-7.47100448608,-0.227470844984,10.47818279268,93.819587707516,46.50215148925,32.84378814702,738
1.64951549822719E+018,97,1.64951549822719E+018,r1000913c5/base_footprint,0,1.64951549822719E+018,v/m1vw10zy74w/map,-2.19807429484,-1.06332450178,0,0,0,-0.15366917292,0.988122353403,0,66.2359542847,14.3529415131,47.9174499512,94.8338851929,48.452507019,48.452507019,66.2359542847,66.2359542847,32.4419403076,1.67685329914,0,0.000872059026733,0.351007133722,0.0014378791675,0.000565820198972,-3.9692440033,-0.382257282734,-1.03959655762,-0.0110837938264,-1.89445877075,-0.04069025442,0.346797943115,0.0105767399073,10.3836975098,93.79428863528,46.55804824825,32.788738250715,729
1.64951549832734E+018,98,1.64951549832734E+018,r1000913c5/base_footprint,0,1.64951549832734E+018,v/m1vw10zy74w/map,-2.01906311881,-1.11944900282,0,0,0,-0.158303367794,0.98739052241,0,66.065322876,14.4385023117,47.7044334412,94.5225448608,48.6403121948,48.6403121948,66.065322876,66.065322876,36.420715332,1.68812024593,0,0.00108164863195,0.362199515104,0.00056437618332,0.000517272390425,-3.66886043549,-0.340666890144,-0.963417053223,-0.0102974139154,-2.06143951416,-0.0442569628358,-3.80598831177,-0.116695389152,10.76964187621,93.559127807577,46.57887268064,32.61472702023,751
1.64951549842686E+018,99,1.64951549842686E+018,r1000913c5/base_footprint,0,1.64951549842686E+018,v/m1vw10zy74w/map,-1.5527889531,-1.28506168755,0,0,0,-0.161583235239,0.986859087251,0,66.647857666,8.49673175812,47.4226722717,94.6094512939,48.8420944214,48.8420944214,66.647857666,66.647857666,28.4271888733,1.79437577724,0,0.000906123605091,0.373755604029,0.0060299881734,0.00693611195311,1.7422952652,0.170162186027,-1.04663085938,-0.0111863967031,-1.8081817627,-0.0384442135692,5.55584716797,0.163488835096,10.23902702332,93.56282043452,47.0339126587,33.98303604127,691
1.64951549852778E+018,100,1.64951549852778E+018,r1000913c5/base_footprint,0,1.64951549852778E+018,v/m1vw10zy74w/map,-1.49061803834,-1.31860474494,0,0,0,-0.164223218787,0.98642320249,0,66.7387771606,16.8356990814,47.0590019226,94.1626586914,49.1277122498,49.1277122498,66.7387771606,66.7387771606,28.2668704987,1.59728360176,0,0.000289406918455,0.390804499388,0.00155221857131,0.00126281171106,-6.42647647858,-0.61738294363,-0.613861083984,-0.00656193448231,-2.06689071655,-0.0439195632935,5.7460193634,0.168936520815,10.40922260282,93.548797607416,47.06082153325,34.0128898621,681
1.6495154986272E+018,101,1.6495154986272E+018,r1000913c5/base_footprint,0,1.6495154986272E+018,v/m1vw10zy74w/map,-1.30157637307,-1.38341155125,0,0,0,-0.163690133917,0.986511804318,0,66.51121521,18.4726524353,46.8267211914,93.8591003418,49.2552909851,49.2552909851,66.51121521,66.51121521,32.6480522156,1.7806879282,0,0.000467268080683,0.396279513836,0.0140546401963,0.0135873723775,-7.77500247955,-0.726795375347,-0.287445068359,-0.00307192467153,-2.04345321655,-0.0432826466858,1.36030960083,0.039999268949,10.69764995575,93.571655273441,47.21183776855,34.00836181643,686
