%time,field.header.seq,field.header.stamp,field.header.frame_id,field.pose.header.seq,field.pose.header.stamp,field.pose.header.frame_id,field.pose.pose.position.x,field.pose.pose.position.y,field.pose.pose.position.z,field.pose.pose.orientation.x,field.pose.pose.orientation.y,field.pose.pose.orientation.z,field.pose.pose.orientation.w,field.label,field.main_output,field.scan_score,field.pose_score,field.cov_score,field.lhood_map_score,field.lhood_robot_score,field.lhood_map_score_all,field.lhood_robot_score_all,field.point_angle_diff,field.average_orientation,field.map_average_orientation,field.sensor_div,field.odom_div_x,field.odom_div_w,field.imu_div_w,field.kdtree_div,field.kdtree_div_p,field.cov_div,field.cov_div_p,field.likelihood_div,field.likelihood_div_p,field.normal_diff_div,field.normal_diff_div_p,field.kdtree_average,field.cov_average,field.likelihood_average,field.normal_diff_average,field.map_update_count
1.64950193450449E+018,0,1.64950193450449E+018,r1000913c5/base_footprint,0,1.6495019345045E+018,v/m1vw10zy74w/map,-8.69643014371,-0.868163471359,0,0,0,-0.696325531352,0.717726099837,0,63.3850326538,7.07587385178,100,96.4634552002,43.1449279785,43.1449279785,63.3850326538,63.3850326538,32.3030700684,0.0440118163824,0,0.00198656576686,0.110862500966,0.238014861941,0.236028298736,11.0621471405,0.609887182713,-1.87770080566,-0.0198518354446,3.21331787109,0.0693149119616,2.35036849976,0.0678249746561,18.13802099228,94.58575439454,46.35824584959,34.65343856816,1181
1.64950193460409E+018,1,1.64950193460409E+018,r1000913c5/base_footprint,0,1.64950193460409E+018,v/m1vw10zy74w/map,-8.6920123317,-0.975852627769,0,0,0,-0.687872124604,0.725831895271,0,62.9830474854,14.086687088,39.9676094055,96.477973938,42.7653045654,42.7653045654,62.9830474854,62.9830474854,35.4911231995,0.174280270934,0,0.00282715517096,0.10607726872,0.23432764411,0.2315004915,3.82646942139,0.213612243533,-1.88117980957,-0.0198862962425,3.36368179321,0.0729190483689,-0.727527618408,-0.0209278594702,17.91315650939,94.59679412843,46.12898635861,34.763595581092,1131
1.64950193470413E+018,2,1.64950193470413E+018,r1000913c5/base_footprint,0,1.64950193470413E+018,v/m1vw10zy74w/map,-8.6920123317,-0.975852627769,0,0,0,-0.687872124604,0.725831895271,0,62.9516944885,16.6342029572,42.1778945923,96.477973938,42.4364547729,42.4364547729,62.9516944885,62.9516944885,32.5039367676,0.163292557001,0,0.00301615637727,0.0985870137811,0.218369856477,0.215353697538,1.27895355225,0.0713974386454,-1.88117980957,-0.0198862962425,3.69253158569,0.0800479650497,2.25965881348,0.0650007203221,17.91315650945,94.59679412843,46.12898635859,34.76359558108,1131
1.64950193480399E+018,3,1.64950193480399E+018,r1000913c5/base_footprint,0,1.64950193480399E+018,v/m1vw10zy74w/map,-8.68593355476,-1.07068996778,0,0,0,-0.695726375632,0.718306905333,0,62.7357940674,16.4086685181,51.2344894409,96.3516616821,42.1730728149,42.1730728149,62.7357940674,62.7357940674,33.0908737183,0.208871409297,0,0.00308071519248,0.0955316051841,0.212307065725,0.209226340055,1.57863998413,0.0877640992403,-1.65481567383,-0.0174748767167,3.67105484009,0.080076880753,1.60230255127,0.0461849495769,17.98730850223,94.69684600827,45.84412765499,34.69317626957,1014
1.64950193490412E+018,4,1.64950193490412E+018,r1000913c5/base_footprint,0,1.64950193490412E+018,v/m1vw10zy74w/map,-8.68456489837,-1.07492297865,0,0,0,-0.696106528051,0.717938508234,0,62.636177063,13.936044693,59.5951080322,96.320854187,41.8269081116,41.8269081116,62.636177063,62.636177063,31.0344829559,0.241271451116,0,0.00331414211541,0.0924770981073,0.205903112888,0.202588960528,4.0143737793,0.223636776209,-1.64092254639,-0.0173312611878,3.98547744751,0.0869956314564,3.76245307922,0.108125984669,17.9504184723,94.67993164061,45.81238555911,34.79693603512,1025
1.64950193500404E+018,5,1.64950193500404E+018,r1000913c5/base_footprint,0,1.64950193500404E+018,v/m1vw10zy74w/map,-8.68019960057,-1.17752094887,0,0,0,-0.705111198217,0.709096748088,0,62.4208450317,16.6342029572,62.5373649597,95.8731994629,41.6356048584,41.6356048584,62.4208450317,62.4208450317,31.2328605652,0.329464137554,0,0.00383767718449,0.0848459973931,0.184729471803,0.180891796947,1.39344406128,0.0772948414087,-0.966583251953,-0.0101845720783,3.55882644653,0.0787447988987,3.46907043457,0.0999676510692,18.02764701848,94.906616210947,45.19443130493,34.70193099977,787
1.64950193510441E+018,6,1.64950193510441E+018,r1000913c5/base_footprint,0,1.64950193510441E+018,v/m1vw10zy74w/map,-8.67986123567,-1.18535628182,0,0,0,-0.70606117351,0.708150844991,0,62.9290809631,19.1676673889,60.2727355957,95.8800201416,41.4808883667,41.4808883667,62.9290809631,62.9290809631,20.4381752014,0.217225387692,0,0.00437921471894,0.0772303193808,0.156352996826,0.151973769069,-1.14002037048,-0.0632373392582,-0.973403930664,-0.0102564394474,3.71354293823,0.0821681544185,14.2637557983,0.411036372185,18.02764701842,94.906616210936,45.19443130493,34.7019309997,787
1.64950193520459E+018,7,1.64950193520459E+018,r1000913c5/base_footprint,0,1.64950193520459E+018,v/m1vw10zy74w/map,-8.67958887936,-1.29710969703,0,0,0,-0.71648527398,0.697602216288,0,62.614364624,18.3006534576,56.2490539551,95.5250473022,41.4300231934,41.4300231934,62.614364624,62.614364624,24.2758560181,0.142243161798,0,0.0038773601409,0.0717140287161,0.136153489351,0.132276132703,-2.06315803528,-0.127061352134,-0.371711730957,-0.00390644976869,0.0126838684082,0.000306057918351,11.8033943176,0.327151864767,16.23749542232,95.153335571243,41.4427070618082,36.0792503357,321
1.6495019353044E+018,8,1.6495019353044E+018,r1000913c5/base_footprint,0,1.64950193530441E+018,v/m1vw10zy74w/map,-8.67958887936,-1.29710969703,0,0,0,-0.71648527398,0.697602216288,0,62.5355911255,25.4349632263,46.2077941895,95.5250473022,41.4229354858,41.4229354858,62.5355911255,62.5355911255,25.6172637939,0.188531696796,0,0.00293476320803,0.0643974766135,0.112981684506,0.11004691571,-9.19746780396,-0.566433906555,-0.371711730957,-0.00390644976869,0.0197715759277,0.000477082154248,10.4619865417,0.289972394705,16.23749542234,95.153335571243,41.4427070617277,36.0792503356,321
1.64950193540483E+018,9,1.64950193540483E+018,r1000913c5/base_footprint,0,1.64950193540483E+018,v/m1vw10zy74w/map,-8.68233878959,-1.41190690737,0,0,0,-0.714985720621,0.699139055773,0,62.492477417,25.0604343414,42.9447402954,95.5593261719,41.523109436,41.523109436,62.492477417,62.492477417,27.5985832214,0.195422336459,0,0.00254307407886,0.0585834532976,0.101207382977,0.0986643061042,-9.3554019928,-0.595694541931,-0.371566772461,-0.00390351423994,-0.320518493652,-0.00777908600867,8.67800521851,0.239217787981,15.7050323486,95.187759399439,41.202590942348,36.27658843991,312
1.64950193570423E+018,10,1.64950193570423E+018,r1000913c5/base_footprint,0,1.64950193570423E+018,v/m1vw10zy74w/map,-8.68233878959,-1.41190690737,0,0,0,-0.714985720621,0.699139055773,0,62.2287406921,23.2373809814,42.2113609314,95.5593261719,41.5381736755,41.5381736755,62.2287406921,62.2287406921,32.5085334778,0.231220260262,0,0.00238404376432,0.0556977242231,0.09446144104,0.0920773968101,-7.53234863281,-0.479613691568,-0.371566772461,-0.00390351423994,-0.335582733154,-0.0081446999684,3.76805496216,0.103870160878,15.70503234859,95.187759399439,41.202590942346,36.27658843996,312
1.6495019403041E+018,11,1.6495019403041E+018,r1000913c5/base_footprint,0,1.6495019403041E+018,v/m1vw10zy74w/map,-8.67379002856,-2.47379094393,0,0,0,-0.710136051852,0.704064477062,0,62.5069160461,22.1209602356,41.7203865051,97.2824478149,41.5470314026,41.5470314026,62.5069160461,62.5069160461,33.8002891541,0.306965112686,0,0.00196377071552,0.090843334794,0.0430864430964,0.0450502149761,-11.1962413788,-1.02485394478,-1.89479827881,-0.0198641885072,-1.23096847534,-0.0305329542607,-7.50681114197,-0.285500884056,10.9247188568,95.38764953609,40.31606292726,26.29347801213,146
1.64950194040398E+018,12,1.64950194040398E+018,r1000913c5/base_footprint,0,1.64950194040398E+018,v/m1vw10zy74w/map,-8.67379002856,-2.47379094393,0,0,0,-0.710136051852,0.704064477062,0,61.7599525452,4.04672527313,41.4869270325,97.2824478149,41.12707901,41.12707901,61.7599525452,61.7599525452,42.7100944519,1.65233457088,0,0.00197847629897,0.14135119319,0.043056845665,0.0450353212655,6.87799358368,0.62958085537,-1.89479827881,-0.0198641885072,-0.811016082764,-0.020116450265,-16.4166164398,-0.624360799789,10.92471885681,95.38764953609,40.316062927236,26.2934780121,146
1.64950194050473E+018,13,1.64950194050473E+018,r1000913c5/base_footprint,0,1.64950194050473E+018,v/m1vw10zy74w/map,-8.67379002856,-2.47379094393,0,0,0,-0.710136051852,0.704064477062,0,61.5096244812,6.54985380173,41.3927536011,97.2824478149,40.7065696716,40.7065696716,61.5096244812,61.5096244812,42.6745262146,1.38229620457,0,0.00169152498711,0.187961369753,0.0428286120296,0.0445201359689,4.37486505508,0.400455623865,-1.89479827881,-0.0198641885072,-0.390506744385,-0.00968613289297,-16.3810482025,-0.623008012772,10.92471885681,95.38764953609,40.316062927215,26.2934780121,146
1.64950194060427E+018,14,1.64950194060427E+018,r1000913c5/base_footprint,0,1.64950194060427E+018,v/m1vw10zy74w/map,-8.67379002856,-2.47379094393,0,0,0,-0.710136051852,0.704064477062,0,61.296459198,7.74439287186,41.3128356934,97.2824478149,40.4754829407,40.4754829407,61.296459198,61.296459198,44.0157775879,1.54408144951,0,0.0016345725162,0.208869829774,0.0387902148068,0.0404247865081,3.18032598495,0.291112840176,-1.89479827881,-0.0198641885072,-0.159420013428,-0.00395425548777,-17.7222995758,-0.674018859863,10.92471885681,95.38764953609,40.316062927272,26.2934780121,146
1.64950194070501E+018,15,1.64950194070501E+018,r1000913c5/base_footprint,0,1.64950194070501E+018,v/m1vw10zy74w/map,-8.67714443891,-2.37092044759,0,0,0,-0.705499193307,0.70871072254,0,61.2953720093,6.37945318222,41.319519043,97.0474700928,40.1680755615,40.1680755615,61.2953720093,61.2953720093,39.8694343567,1.58791136742,0,0.00167468737345,0.211095929146,0.0305960662663,0.0322707556188,4.95423078537,0.437124490738,-1.65699768066,-0.0173706840724,0.175563812256,0.00435170996934,-13.1071071625,-0.489759624004,11.33368396759,95.39047241214,40.343639373756,26.7623271942,163
1.64950194080449E+018,16,1.64950194080449E+018,r1000913c5/base_footprint,0,1.64950194080449E+018,v/m1vw10zy74w/map,-8.67444462718,-2.35432592791,0,0,0,-0.706874124377,0.707339361471,0,61.9561424255,12.7651062012,41.3847961426,97.3688812256,40.1553497314,40.1553497314,61.9561424255,61.9561424255,28.9952106476,1.57428646088,0,0.00271008885466,0.200705751777,0.0366589389741,0.0393690280616,-1.17243289948,-0.101135678589,-1.95725250244,-0.0205137729645,0.225513458252,0.00558466184884,-1.4603099823,-0.0530348755419,11.59267330172,95.41162872316,40.380863189652,27.5349006653,181
1.64950194090466E+018,17,1.64950194090466E+018,r1000913c5/base_footprint,0,1.64950194090466E+018,v/m1vw10zy74w/map,-8.67599454239,-2.23675230898,0,0,0,-0.710332450723,0.703866329248,0,61.9793663025,14.1494436264,41.4895515442,97.2531356812,40.2094078064,40.2094078064,61.9793663025,61.9793663025,28.7442893982,1.53866815567,0,0.00196169107221,0.19205892086,0.042706631124,0.0446683205664,-2.04485702515,-0.168932408094,-1.83916473389,-0.0192756336182,0.238838195801,0.00590478489175,-0.0402317047119,-0.00140160333831,12.10458660125,95.41397094731,40.448246002201,28.7040576934881,206
1.64950194100475E+018,18,1.64950194100475E+018,r1000913c5/base_footprint,0,1.64950194100476E+018,v/m1vw10zy74w/map,-8.67599454239,-2.23675230898,0,0,0,-0.710332450723,0.703866329248,0,62.0460243225,11.9647855759,41.670085907,97.2531356812,40.0748634338,40.0748634338,62.0460243225,62.0460243225,26.0913639069,1.46615850925,0,0.00124399655033,0.175665095448,0.0352251790464,0.0364691764116,0.139801025391,0.0115494262427,-1.83916473389,-0.0192756336182,0.373382568359,0.00923111848533,2.61269378662,0.0910217612982,12.104586601291,95.41397094731,40.448246002159,28.70405769352,206
1.64950194110406E+018,19,1.64950194110406E+018,r1000913c5/base_footprint,0,1.64950194110406E+018,v/m1vw10zy74w/map,-8.67155768764,-2.13203903016,0,0,0,-0.708225178299,0.705986612354,0,62.9452781677,7.790143013,41.9234657288,97.3625717163,39.9362945557,39.9362945557,62.9452781677,62.9452781677,8.8022069931,1.53115308285,0,0.00145524344407,0.148225307465,0.0143882734701,0.0158435162157,4.75703620911,0.379131913185,-2.01342010498,-0.0211162883788,0.577476501465,0.0142538323998,21.1171913147,0.705802679062,12.54717922211,95.34915161132,40.513771057165,29.9193983078,242
1.64950194120418E+018,20,1.64950194120418E+018,r1000913c5/base_footprint,0,1.64950194120418E+018,v/m1vw10zy74w/map,-8.67155768764,-2.13203903016,0,0,0,-0.708225178299,0.705986612354,0,62.1870727539,7.1628651619,41.7464561462,97.3625717163,39.8603515625,39.8603515625,62.1870727539,62.1870727539,21.6297607422,1.5182800293,0,0.00113669002894,0.138365834951,0.0123669244349,0.0135036138818,5.38431406021,0.429125458002,-2.01342010498,-0.0211162883788,0.653419494629,0.0161283314228,8.28963661194,0.277065634727,12.54717922211,95.34915161132,40.513771057129,29.91939735414,242
1.64950194130401E+018,21,1.64950194130401E+018,r1000913c5/base_footprint,0,1.64950194130401E+018,v/m1vw10zy74w/map,-8.67331010271,-2.03365107337,0,0,0,-0.707034790215,0.707178764829,0,62.1855659485,7.38423013687,42.9868431091,97.1304244995,39.8211250305,39.8211250305,62.1855659485,62.1855659485,20.3974990845,1.42313957214,0,0.000914650503546,0.121738776565,0.0035552054178,0.00446985615417,5.37612771988,0.421314805746,-1.78694152832,-0.0187421459705,0.804668426514,0.0198068358004,10.446313858,0.338684260845,12.76035785675,95.34348297118,40.625793457014,30.8438129425,278
1.64950194140421E+018,22,1.64950194140421E+018,r1000913c5/base_footprint,0,1.64950194140421E+018,v/m1vw10zy74w/map,-8.67331010271,-2.03365107337,0,0,0,-0.707034790215,0.707178764829,0,61.8717842102,7.56302499771,49.4993171692,97.1304244995,39.9811553955,39.9811553955,61.8717842102,61.8717842102,27.773891449,1.25993669033,0,0.000788758858107,0.109076797962,0.000152935812366,0.000941694655921,5.19733285904,0.407303065062,-1.78694152832,-0.0187421459705,0.644638061523,0.0158677045256,3.06992149353,0.0995311960578,12.76035785675,95.34348297118,40.625793457023,30.84381294253,278
1.64950194150459E+018,23,1.64950194150459E+018,r1000913c5/base_footprint,0,1.64950194150459E+018,v/m1vw10zy74w/map,-8.67262250163,-1.92962561961,0,0,0,-0.70790934496,0.706303305471,0,61.8911857605,6.72268915176,61.0203971863,97.1279296875,40.1416130066,40.1416130066,61.8911857605,61.8911857605,29.1486282349,1.02222013474,0,0.00068089744309,0.0967329069972,0.00478495657444,0.00410405918956,6.30286550522,0.483884602785,-1.80469512939,-0.0189323741943,0.529582977295,0.013021081686,2.52425193787,0.0796975791454,13.02555465698,95.32323455811,40.671195983895,31.67288017277,304
1.64950194160426E+018,24,1.64950194160426E+018,r1000913c5/base_footprint,0,1.64950194160427E+018,v/m1vw10zy74w/map,-8.67262250163,-1.92962561961,0,0,0,-0.70790934496,0.706303305471,0,61.7143630981,7.85684919357,70.5295257568,97.1279296875,40.2421379089,40.2421379089,61.7143630981,61.7143630981,33.417098999,0.847411334515,0,0.000793503015302,0.0862764269114,0.00845002941787,0.00765652675182,5.16870546341,0.396812707186,-1.80469512939,-0.0189323741943,0.429058074951,0.0105494335294,-1.74421882629,-0.0550697892904,13.02555465698,95.32323455811,40.671195983851,31.67288017271,304
1.6495019418074E+018,25,1.6495019418074E+018,r1000913c5/base_footprint,0,1.6495019418074E+018,v/m1vw10zy74w/map,-8.67529363723,-1.82682666395,0,0,0,-0.708024582691,0.706187786856,0,61.3918533325,10.5560035706,78.5954589844,97.1328125,40.2768249512,40.2768249512,61.3918533325,61.3918533325,39.6144981384,0.958091259003,0,0.000767784425989,0.0834062695503,0.00842431094497,0.00765652675182,3.0669298172,0.225129917264,-1.82257843018,-0.0191225893795,0.49267578125,0.0120844198391,-6.97364044189,-0.213647589087,13.6229333878,95.31023406982,40.76950073245,32.64085769651,307
1.64950194200388E+018,26,1.64950194200388E+018,r1000913c5/base_footprint,0,1.64950194200388E+018,v/m1vw10zy74w/map,-8.67529363723,-1.82682666395,0,0,0,-0.708024582691,0.706187786856,0,61.3961486816,10.9477119446,84.1259613037,97.1328125,40.2720603943,40.2720603943,61.3961486816,61.3961486816,39.4856948853,0.694720387459,0,0.00071229058085,0.0757290199399,0.00836881715804,0.00765652675182,2.67522144318,0.196376308799,-1.82257843018,-0.0191225893795,0.497440338135,0.012201285921,-6.84483718872,-0.209701508284,13.62293338778,95.31023406982,40.769500732435,32.64085769658,307
1.64950194210414E+018,27,1.64950194210414E+018,r1000913c5/base_footprint,0,1.64950194210414E+018,v/m1vw10zy74w/map,-8.67529363723,-1.82682666395,0,0,0,-0.708024582691,0.706187786856,0,61.5101699829,13.9959430695,87.5490112305,97.1328125,40.3248558044,40.3248558044,61.5101699829,61.5101699829,38.0035018921,0.702598392963,0,0.000713569810614,0.0736031979322,0.00837009679526,0.00765652675182,-0.373009681702,-0.0273810103536,-1.82257843018,-0.0191225893795,0.444644927979,0.0109063126147,-5.36264419556,-0.164292380214,13.622933387798,95.31023406982,40.769500732379,32.64085769654,307
1.64950194220446E+018,28,1.64950194220446E+018,r1000913c5/base_footprint,0,1.64950194220446E+018,v/m1vw10zy74w/map,-8.67529363723,-1.82682666395,0,0,0,-0.708024582691,0.706187786856,0,61.4801712036,13.7792100906,87.9553451538,97.1328125,40.3834648132,40.3834648132,61.4801712036,61.4801712036,39.1764907837,0.797147035599,0,0.000710753083695,0.0698426738381,0.00836727954447,0.00765652675182,-0.156276702881,-0.0114715900272,-1.82257843018,-0.0191225893795,0.386035919189,0.00946874264628,-6.53563308716,-0.200228601694,13.622933387719,95.31023406982,40.769500732389,32.64085769654,307
1.64950194230413E+018,29,1.64950194230413E+018,r1000913c5/base_footprint,0,1.64950194230413E+018,v/m1vw10zy74w/map,-8.67529363723,-1.82682666395,0,0,0,-0.708024582691,0.706187786856,0,61.6419334412,18.6140213013,88.3555679321,97.1328125,40.4752540588,40.4752540588,61.6419334412,61.6419334412,37.2560539246,0.779999554157,0,0.00071519514313,0.0680862888694,0.00837172195315,0.00765652675182,-4.99108791351,-0.366373956203,-1.82257843018,-0.0191225893795,0.294246673584,0.00721732340753,-4.61519622803,-0.141393229365,13.62293338779,95.31023406982,40.769500732384,32.64085769657,307
1.64950194241126E+018,30,1.64950194241126E+018,r1000913c5/base_footprint,0,1.64950194241126E+018,v/m1vw10zy74w/map,-8.67459966522,-1.71261427387,0,0,0,-0.707870305448,0.706342431591,0,61.8081703186,15.2612094879,89.141166687,97.0903167725,40.4871711731,40.4871711731,61.8081703186,61.8081703186,34.2395439148,0.786360800266,0,0.000717135495506,0.0648376271129,0.00837366189808,0.00765652675182,-0.926267623901,-0.0646160691977,-1.83751678467,-0.0192909482867,0.347309112549,0.00850529037416,-0.139583587646,-0.0040933652781,14.334941863999,95.25279998783,40.834480285649,34.099960327154,311
1.6495019426048E+018,31,1.6495019426048E+018,r1000913c5/base_footprint,0,1.6495019426048E+018,v/m1vw10zy74w/map,-8.67459966522,-1.71261427387,0,0,0,-0.707870305448,0.706342431591,0,61.4605102539,13.3986930847,89.8162231445,97.0903167725,40.4190101624,40.4190101624,61.4605102539,61.4605102539,39.7612876892,0.727844178677,0,0.000415697722929,0.0617291554809,0.0091670723632,0.00875137466937,0.936248779297,0.0653123557568,-1.83751678467,-0.0192909482867,0.415470123291,0.0101744923741,-5.66132736206,-0.16602152586,14.334941863997,95.25279998783,40.834480285691,34.09996032714,311
1.64950194270426E+018,32,1.64950194270426E+018,r1000913c5/base_footprint,0,1.64950194270426E+018,v/m1vw10zy74w/map,-8.67459966522,-1.71261427387,0,0,0,-0.707870305448,0.706342431591,0,61.0755577087,12.7651062012,90.2134552002,97.0903167725,40.3811912537,40.3811912537,61.0755577087,61.0755577087,46.2819900513,0.811733841896,0,0.000527734751813,0.0588605888188,0.00975573714823,0.00922800228,1.56983566284,0.109511129558,-1.83751678467,-0.0192909482867,0.453289031982,0.0111006442457,-12.1820297241,-0.357244700193,14.33494186404,95.25279998783,40.834480285682,34.0999603272,311
1.64950194280401E+018,33,1.64950194280401E+018,r1000913c5/base_footprint,0,1.64950194280401E+018,v/m1vw10zy74w/map,-8.67459966522,-1.71261427387,0,0,0,-0.707870305448,0.706342431591,0,61.0488967896,11.3618049622,90.5048675537,97.0903167725,40.2190971375,40.2190971375,61.0488967896,61.0488967896,45.0112380981,0.683977723122,0,0.000553173129447,0.0569888055325,0.00978117529303,0.00922800228,2.97313690186,0.207404881716,-1.83751678467,-0.0192909482867,0.615383148193,0.0150701841339,-10.911277771,-0.319979190826,14.33494186406,95.25279998783,40.834480285693,34.0999603271,311
1.64950194290392E+018,34,1.64950194290392E+018,r1000913c5/base_footprint,0,1.64950194290392E+018,v/m1vw10zy74w/map,-8.67459966522,-1.71261427387,0,0,0,-0.707870305448,0.706342431591,0,61.1012573242,12.1676063538,90.827545166,97.0903167725,40.1834907532,40.1834907532,61.1012573242,61.1012573242,43.6841888428,0.650390863419,0,0.000484404794406,0.054109044373,0.00971240736544,0.00922800228,2.16733551025,0.151192486286,-1.83751678467,-0.0192909482867,0.650989532471,0.0159421525896,-9.58422851562,-0.281062752008,14.33494186405,95.25279998783,40.834480285671,34.09996032718,311
1.64950194300483E+018,35,1.64950194300483E+018,r1000913c5/base_footprint,0,1.64950194300483E+018,v/m1vw10zy74w/map,-8.67311360502,-1.59319510675,0,0,0,-0.708103334368,0.70610882154,0,61.0579566956,10.9697933197,91.2457885742,96.9200439453,40.1117630005,40.1117630005,61.0579566956,61.0579566956,43.0759391785,0.655155181885,0,0.00047542192624,0.0522064566612,0.00970342382789,0.00922800228,4.17057514191,0.275460600853,-1.70905303955,-0.0179501660168,0.921001434326,0.0224455129355,-7.55394363403,-0.212655380368,15.14036846161,95.21099090575,41.032764434826,35.52199554447,311
1.64950194310454E+018,36,1.64950194310454E+018,r1000913c5/base_footprint,0,1.64950194310454E+018,v/m1vw10zy74w/map,-8.67311360502,-1.59319510675,0,0,0,-0.708103334368,0.70610882154,0,61.34923172,14.5850124359,91.7701950073,96.9200439453,40.1423683167,40.1423683167,61.34923172,61.34923172,38.16355896,0.590246319771,0,0.000473500607768,0.0493267923594,0.00970150250942,0.00922800228,0.555356025696,0.0366804823279,-1.70905303955,-0.0179501660168,0.890396118164,0.0216996371746,-2.64156341553,-0.0743641629815,15.140368461596,95.21099090575,41.032764434864,35.52199554447,311
1.64950194320476E+018,37,1.64950194320476E+018,r1000913c5/base_footprint,0,1.64950194320476E+018,v/m1vw10zy74w/map,-8.67311360502,-1.59319510675,0,0,0,-0.708103334368,0.70610882154,0,61.2824897766,14.3657464981,92.3520278931,96.9200439453,40.1043205261,40.1043205261,61.2824897766,61.2824897766,38.9540100098,0.715039014816,0,0.000419582269387,0.0432623811066,0.00964758452028,0.00922800228,0.774621963501,0.0511626899242,-1.70905303955,-0.0179501660168,0.928443908691,0.0226268917322,-3.43201446533,-0.0966166034341,15.140368461601,95.21099090575,41.032764434791,35.52199554447,311
1.64950194330481E+018,38,1.64950194330481E+018,r1000913c5/base_footprint,0,1.64950194330481E+018,v/m1vw10zy74w/map,-8.67482009766,-1.48948443923,0,0,0,-0.708710795277,0.705499120239,0,61.5099105835,18.1240062714,92.7675628662,96.8290176392,40.1587524414,40.1587524414,61.5099105835,61.5099105835,35.1206054688,0.49558287859,0,0.000378820317565,0.0378365814686,0.00960682239383,0.00922800228,-2.50859546661,-0.160648703575,-1.6477432251,-0.0173116326332,0.991603851318,0.024097090587,1.1198348999,0.0309001468122,15.61541080479,95.1812744141,41.150356292718,36.2404403687,309
1.64950194340458E+018,39,1.64950194340458E+018,r1000913c5/base_footprint,0,1.64950194340458E+018,v/m1vw10zy74w/map,-8.67482009766,-1.48948443923,0,0,0,-0.708710795277,0.705499120239,0,61.5965766907,15.1660661697,93.6183776855,96.8290176392,40.1721305847,40.1721305847,61.5965766907,61.5965766907,33.7050743103,0.400181353092,0,0.000243501533987,0.0323159955442,0.0109246559441,0.0106811542064,0.44934463501,0.0287757162005,-1.6477432251,-0.0173116326332,0.978225708008,0.0237719863653,2.53536605835,0.0699595808983,15.61541080471,95.1812744141,41.150356292708,36.24044036865,309
1.64950194350395E+018,40,1.64950194350395E+018,r1000913c5/base_footprint,0,1.64950194350395E+018,v/m1vw10zy74w/map,-8.67372467903,-1.36823673237,0,0,0,-0.707296443861,0.706917067626,0,61.7920532227,16.1966152191,94.1136245728,96.9763870239,40.172039032,40.172039032,61.7920532227,61.7920532227,30.7160892487,0.395878314972,0,0.000202365146833,0.0246151536703,0.0104787889868,0.0106811542064,-0.442317962646,-0.0280760191381,-1.81088256836,-0.0190287716687,1.05717468262,0.0256413985044,5.56279945374,0.153334334493,15.754297256454,95.16550445554,41.22921371462,36.27888870244,324
1.64950194360433E+018,41,1.64950194360433E+018,r1000913c5/base_footprint,0,1.64950194360433E+018,v/m1vw10zy74w/map,-8.67372467903,-1.36823673237,0,0,0,-0.707296443861,0.706917067626,0,61.6603240967,16.6666660309,93.8618164062,96.9763870239,40.156917572,40.156917572,61.6603240967,61.6603240967,32.9238433838,0.506448507309,0,0.00019261954003,0.019185276702,0.0104885343462,0.0106811542064,-0.912368774414,-0.057912375778,-1.81088256836,-0.0190287716687,1.07229614258,0.0260081645101,3.3550453186,0.0924792736769,15.754297256486,95.16550445554,41.22921371458,36.2788887024,324
1.6495019437046E+018,42,1.6495019437046E+018,r1000913c5/base_footprint,0,1.6495019437046E+018,v/m1vw10zy74w/map,-8.67381197091,-1.25968817861,0,0,0,-0.709036704623,0.705171575928,0,61.7425994873,16.906621933,94.0743560791,97.040397644,40.1894798279,40.1894798279,61.7425994873,61.7425994873,32.0249900818,0.314231097698,0,0.000386689644074,0.00256562815048,0.0108729545027,0.0112596442923,-0.66912651062,-0.0412087254226,-1.88706207275,-0.0198318008333,1.25322723389,0.0302399937063,4.05426025391,0.112370967865,16.23749542238,95.15333557125,41.44270706179,36.07925033571,321
1.64950194380413E+018,43,1.64950194380413E+018,r1000913c5/base_footprint,0,1.64950194380413E+018,v/m1vw10zy74w/map,-8.67381197091,-1.25968817861,0,0,0,-0.709036704623,0.705171575928,0,61.9015083313,15.0326795578,95.1477737427,97.040397644,40.0774765015,40.0774765015,61.9015083313,61.9015083313,27.9550266266,0.276688605547,0,9.84146972769E-05,0.0575760863721,0.0108509687707,0.0107525540516,1.20481586456,0.0741996094584,-1.88706207275,-0.0198318008333,1.3652305603,0.0329426005483,8.12422370911,0.225177168846,16.23749542236,95.15333557125,41.4427070618,36.07925033571,321
1.64950194390455E+018,44,1.64950194390455E+018,r1000913c5/base_footprint,0,1.64950194390455E+018,v/m1vw10zy74w/map,-8.67618236611,-1.14620790434,0,0,0,-0.708052108735,0.706160188141,0,61.7436408997,15.4929580688,95.2442245483,97.3011322021,40.0253639221,40.0253639221,61.7436408997,61.7436408997,31.1724414825,0.216379106045,0,7.92693972471E-05,0.0826352089643,0.0120171019807,0.0119378324598,2.5525226593,0.141449406743,-2.5326385498,-0.0267244782299,5.50603866577,0.120928376913,3.56397819519,0.102600619197,18.0454807281,94.7684936523,45.53140258787,34.73641967769,941
1.64950194400523E+018,45,1.64950194400523E+018,r1000913c5/base_footprint,0,1.64950194400523E+018,v/m1vw10zy74w/map,-8.67618236611,-1.14620790434,0,0,0,-0.708052108735,0.706160188141,0,62.0711212158,19.0654983521,94.0715789795,97.3011322021,39.9320449829,39.9320449829,62.0711212158,62.0711212158,24.269990921,0.459066957235,0,0.000569565861952,0.134911701083,0.0079636471346,0.00739408144727,-1.0200176239,-0.0565248243511,-2.5326385498,-0.0267244782299,5.59935760498,0.122977927327,10.4664287567,0.301309943199,18.0454807282,94.7684936523,45.53140258788,34.7364196777,941
1.64950194410482E+018,46,1.64950194410482E+018,r1000913c5/base_footprint,0,1.64950194410482E+018,v/m1vw10zy74w/map,-8.67755664773,-1.05474864071,0,0,0,-0.708027274896,0.706185087639,0,61.7177467346,17.9784584045,92.9854431152,97.1159362793,39.9740524292,39.9740524292,61.7177467346,61.7177467346,30.4177246094,0.181016087532,0,0.000383711914765,0.15002258122,0.000517436885275,0.000901148770936,0.11505317688,0.00635880837217,-2.48783111572,-0.0262906160206,6.02641296387,0.131007656455,4.36811447144,0.125571623445,18.09351158138,94.62810516358,46.00046539307,34.78583908084,1080
1.64950194420527E+018,47,1.64950194420527E+018,r1000913c5/base_footprint,0,1.64950194420527E+018,v/m1vw10zy74w/map,-8.67755664773,-1.05474864071,0,0,0,-0.708027274896,0.706185087639,0,61.981590271,13.7792100906,92.4266357422,97.1159362793,39.979385376,39.979385376,61.981590271,61.981590271,25.7261238098,0.404477357864,0,0.000419671065174,0.151554137468,2.88963401545E-05,0.000448567414423,4.31430149078,0.238444671035,-2.48783111572,-0.0262906160206,6.02108001709,0.130891725421,9.059715271,0.260442614555,18.09351158138,94.62810516358,46.00046539309,34.7858390808,1080
1.64950194430406E+018,48,1.64950194430406E+018,r1000913c5/base_footprint,0,1.64950194430406E+018,v/m1vw10zy74w/map,-8.67755664773,-1.05474864071,0,0,0,-0.708027274896,0.706185087639,0,62.0142250061,20.252664566,92.0313568115,97.1159362793,40.107624054,40.107624054,62.0142250061,62.0142250061,26.5236434937,0.276327937841,0,0.000638017605525,0.152976691723,0.00299116456881,0.00362918223254,-2.15915298462,-0.119332998991,-2.48783111572,-0.0262906160206,5.89284133911,0.12810395658,8.26219558716,0.237516060472,18.09351158138,94.62810516358,46.00046539311,34.78583908086,1080
1.64950194440426E+018,49,1.64950194440426E+018,r1000913c5/base_footprint,0,1.64950194440426E+018,v/m1vw10zy74w/map,-8.67447851977,-0.932000421367,0,0,0,-0.70463777817,0.709567193136,0,62.223526001,15.7392683029,91.7911758423,97.2106323242,40.1374015808,40.1374015808,62.223526001,62.223526001,23.4187602997,0.368170946836,0,0.000787726428825,0.153141781688,0.00740976119414,0.00819748733193,2.40755939484,0.13267108798,-2.60641479492,-0.0275507252663,6.06729507446,0.131313383579,11.3148021698,0.325759917498,18.14682769774,94.60421752928,46.20469665526,34.7335624695,1170
1.64950194450399E+018,50,1.64950194450399E+018,r1000913c5/base_footprint,0,1.64950194450399E+018,v/m1vw10zy74w/map,-8.67447851977,-0.932000421367,0,0,0,-0.70463777817,0.709567193136,0,61.3741455078,11.372549057,91.4183349609,97.2106323242,40.1203269958,40.1203269958,61.3741455078,61.3741455078,38.5231590271,0.101608075202,0,0.000221554146265,0.150045469403,0.0113462880254,0.0111247338355,6.77427864075,0.373303741217,-2.60641479492,-0.0275507252663,6.08436965942,0.131682932377,-3.78959655762,-0.10910474509,18.14682769775,94.60421752928,46.20469665522,34.73356246948,1170
1.64950194460419E+018,51,1.64950194460419E+018,r1000913c5/base_footprint,0,1.64950194460419E+018,v/m1vw10zy74w/map,-8.6784272653,-0.811219975637,0,0,0,-0.704862513791,0.709343948062,0,61.8001861572,13.1103420258,91.0317611694,97.2010574341,40.2174453735,40.2174453735,61.8001861572,61.8001861572,31.8688735962,0.0560137331486,0,0.000495230429806,0.148667901754,0.00809774361551,0.00760251283646,5.09502792358,0.279864013195,-2.63427734375,-0.027856266126,6.20329666138,0.133632004261,2.85057830811,0.0821032077074,18.20536994938,94.56678009035,46.42074203488,34.71945190431,1194
1.64950194470494E+018,52,1.64950194470494E+018,r1000913c5/base_footprint,0,1.64950194470494E+018,v/m1vw10zy74w/map,-8.6784272653,-0.811219975637,0,0,0,-0.704862513791,0.709343948062,0,61.9516906738,14.086687088,90.0227890015,97.2010574341,40.3272781372,40.3272781372,61.9516906738,61.9516906738,30.3280029297,0.333783209324,0,0.000193008498172,0.147058069706,0.00449767243117,0.00430466420949,4.11868286133,0.226234510541,-2.63427734375,-0.027856266126,6.09346389771,0.131265968084,4.39144897461,0.126483827829,18.20536994933,94.56678009035,46.42074203491,34.71945190431,1194
1.64950194480452E+018,53,1.64950194480452E+018,r1000913c5/base_footprint,0,1.64950194480452E+018,v/m1vw10zy74w/map,-8.6784272653,-0.811219975637,0,0,0,-0.704862513791,0.709343948062,0,61.7031478882,13.3126935959,88.7933883667,97.2010574341,40.3577079773,40.3577079773,61.7031478882,61.7031478882,35.1303749084,0.202703922987,0,0.000119457843539,0.146697893739,0.0031145545654,0.00299509684555,4.89267635345,0.268749088049,-2.63427734375,-0.027856266126,6.06303405762,0.130610451102,-0.41092300415,-0.011835526675,18.20536994935,94.56678009035,46.42074203492,34.71945190425,1194
1.64950194490517E+018,54,1.64950194490517E+018,r1000913c5/base_footprint,0,1.64950194490517E+018,v/m1vw10zy74w/map,-8.67947603748,-0.700364021306,0,0,0,-0.704364431094,0.709838536718,0,61.6564788818,13.5177249908,87.5535430908,96.8790969849,40.344455719,40.344455719,61.6564788818,61.6564788818,34.6682777405,-0.00159812159836,0,0.000319264188875,0.146275922656,0.00353193236515,0.00385119672865,4.70450401306,0.258173912764,-2.34490203857,-0.0248048026115,6.36832427979,0.136329382658,-0.0255699157715,-0.00073810381582,18.22222900386,94.53419494633,46.71277999879,34.6427078247285,1145
1.64950194500503E+018,55,1.64950194500503E+018,r1000913c5/base_footprint,0,1.64950194500503E+018,v/m1vw10zy74w/map,-8.67835102407,-0.705558839715,0,0,0,-0.704543437202,0.709660866257,0,62.1421585083,15.2941179276,87.3657608032,96.9784698486,40.3893432617,40.3893432617,62.1421585083,62.1421585083,26.7685642242,0.253951132298,0,0.000439393450506,0.146136596799,0.00486473925412,0.00530413258821,2.92811107635,0.160688966513,-2.44427490234,-0.0258559864014,6.32343673706,0.135368451476,7.87414360046,0.227295845747,18.22222900395,94.53419494626,46.71277999876,34.64270782466,1145
1.64950194510407E+018,56,1.64950194510407E+018,r1000913c5/base_footprint,0,1.64950194510407E+018,v/m1vw10zy74w/map,-8.67835102407,-0.705558839715,0,0,0,-0.704543437202,0.709660866257,0,62.0394287109,16.0784320831,86.4658508301,96.9784698486,40.4324073792,40.4324073792,62.0394287109,62.0394287109,29.0827922821,0.109334371984,0,0.00013011743431,0.145978063345,0.00521085038781,0.00534096779302,2.14379692078,0.117647349834,-2.44427490234,-0.0258559864014,6.28037261963,0.134446561337,5.5599155426,0.16049310565,18.22222900388,94.53419494626,46.71277999883,34.6427078247,1145
1.64950194520432E+018,57,1.64950194520432E+018,r1000913c5/base_footprint,0,1.64950194520432E+018,v/m1vw10zy74w/map,-8.6822784853,-0.609095601658,0,0,0,-0.703305846453,0.710887393576,0,61.9634399414,19.7506809235,85.5612182617,96.9426879883,40.4156570435,40.4156570435,61.9634399414,61.9634399414,30.1408996582,0.172028690577,0,2.42290152528E-05,0.146070420742,0.00616427278146,0.00618850206956,-1.5585899353,-0.0856740400195,-2.42127227783,-0.0256161242723,6.36149597168,0.135995790362,4.5408782959,0.130929797888,18.1920909882,94.52141571047,46.77715301518,34.6817779541,1090
1.64950194530406E+018,58,1.64950194530406E+018,r1000913c5/base_footprint,0,1.64950194530406E+018,v/m1vw10zy74w/map,-8.6822784853,-0.609095601658,0,0,0,-0.703305846453,0.710887393576,0,61.8940925598,15.6346750259,84.4447174072,96.9426879883,40.4675140381,40.4675140381,61.8940925598,61.8940925598,31.9491958618,0.0598005093634,0,0.000177864814759,0.146118685603,0.00637530814856,0.00619744323194,2.55741596222,0.140578448772,-2.42127227783,-0.0256161242723,6.30963897705,0.134887188673,2.73258209229,0.0787901356816,18.19209098812,94.52141571047,46.77715301515,34.68177795409,1090
1.64950194540488E+018,59,1.64950194540488E+018,r1000913c5/base_footprint,0,1.64950194540488E+018,v/m1vw10zy74w/map,-8.6822784853,-0.609095601658,0,0,0,-0.703305846453,0.710887393576,0,61.5736808777,13.3126935959,83.5469207764,96.9426879883,40.4918136597,40.4918136597,61.5736808777,61.5736808777,37.9790496826,-0.13703097403,0,1.4766032109E-05,0.146582767367,0.00676138885319,0.00677615497261,4.87939739227,0.268215328455,-2.42127227783,-0.0256161242723,6.28533935547,0.134367719293,-3.29727172852,-0.0950721651316,18.19209098817,94.52141571047,46.77715301517,34.68177795408,1090
1.64950194680384E+018,60,1.64950194680384E+018,r1000913c5/base_footprint,0,1.64950194680384E+018,v/m1vw10zy74w/map,-8.68302046624,-0.497216751156,0,0,0,-0.703076219939,0.711114497782,0,61.8049430847,12.1568632126,82.662322998,96.9398269653,40.5339660645,40.5339660645,61.8049430847,61.8049430847,34.2612342834,-0.00797860417515,0,9.67554587987E-05,0.207745537162,0.0479382947087,0.0478415414691,5.9478559494,0.328525155783,-2.432472229,-0.0257384441793,6.1953125,0.13257881999,0.293266296387,0.0084870653227,18.104719162,94.5073547363,46.7292785645,34.554500579787,1004
1.64950194690513E+018,61,1.64950194690513E+018,r1000913c5/base_footprint,0,1.64950194690514E+018,v/m1vw10zy74w/map,-8.68302046624,-0.497216751156,0,0,0,-0.703076219939,0.711114497782,0,62.185092926,12.9411764145,81.5389709473,96.9398269653,40.4079017639,40.4079017639,62.185092926,62.185092926,26.0570678711,-0.017674844712,0,0.000879359722603,0.207293063402,0.0752232149243,0.0743438601494,5.1635427475,0.285204231739,-2.432472229,-0.0257384441793,6.32137680054,0.135276570916,8.49743270874,0.245913922787,18.104719162,94.5073547363,46.72927856444,34.55450057984,1004
1.64950194700405E+018,62,1.64950194700405E+018,r1000913c5/base_footprint,0,1.64950194700405E+018,v/m1vw10zy74w/map,-8.68011433496,-0.488251455159,0,0,0,-0.6669269273,0.745123126498,0,61.5185966492,9.98815631866,80.7031097412,93.9191894531,40.4073829651,40.4073829651,61.5185966492,61.5185966492,27.1740646362,0.00261121499352,0,0.00135615107138,0.203261837363,0.0957742631435,0.0944181159139,8.11656284332,0.448311984539,0.588165283203,0.00622348673642,6.32189559937,0.135287672281,7.3804359436,0.213588267565,18.10471916198,94.507354736303,46.72927856447,34.5545005798,1004
1.64950194710472E+018,63,1.64950194710472E+018,r1000913c5/base_footprint,0,1.64950194710472E+018,v/m1vw10zy74w/map,-8.67897811964,-0.487388389489,0,0,0,-0.665226461649,0.746641650809,0,61.1300926208,9.98815631866,79.688079834,94.3039321899,40.2881202698,40.2881202698,61.1300926208,61.1300926208,34.2642211914,-0.197081968188,0,0.000804734474514,0.202061071992,0.111589357257,0.110784627497,8.11656284332,0.448311984539,0.203422546387,0.00215245201252,6.44115829468,0.137839883566,0.290279388428,0.00840062461793,18.10471916198,94.507354736287,46.72927856448,34.554500579828,1004
1.64950194720501E+018,64,1.64950194720501E+018,r1000913c5/base_footprint,0,1.64950194720502E+018,v/m1vw10zy74w/map,-8.67897811964,-0.487388389489,0,0,0,-0.665226461649,0.746641650809,0,60.9502182007,6.8298459053,79.0693817139,94.3039321899,40.1613197327,40.1613197327,60.9502182007,60.9502182007,36.1324577332,-0.153400585055,0,0.00116244598757,0.198401004076,0.140166625381,0.139004170895,11.2748737335,0.622758805752,0.203422546387,0.00215245201252,6.56795883179,0.14055339992,-1.57795715332,-0.0456657484174,18.1047196388,94.507354736287,46.72927856449,34.55450057988,1004
1.64950194730483E+018,65,1.64950194730483E+018,r1000913c5/base_footprint,0,1.64950194730483E+018,v/m1vw10zy74w/map,-8.66913807269,-0.532715709201,0,0,0,-0.627677124862,0.778473780499,0,60.9307098389,9.01960754395,80.1192169189,94.1221084595,40.0745239258,40.0745239258,60.9307098389,60.9307098389,34.8916893005,-0.160540267825,0,0.00240215100348,0.192966073751,0.162287056446,0.159884899855,9.21299552917,0.505303382874,0.395378112793,0.00418312149122,6.71454238892,0.143506661057,-0.282726287842,-0.00816916394979,18.23260307312,94.517486572293,46.78906631472,34.608963012658,1050
1.64950194740478E+018,66,1.64950194740478E+018,r1000913c5/base_footprint,0,1.64950194740478E+018,v/m1vw10zy74w/map,-8.65722786697,-0.577064986276,0,0,0,-0.576584899395,0.817037241373,0,61.1396942139,10.3249692917,81.5073623657,94.3468933105,40.1404953003,40.1404953003,61.1396942139,61.1396942139,32.6516838074,-0.205354586244,0,0.00263778562658,0.190320298076,0.171216726303,0.16857893765,7.86712169647,0.432447344065,0.174522399902,0.00184637948405,6.63665771484,0.141878187656,2.03009414673,0.0585348941386,18.19209098817,94.521415710402,46.77715301514,34.68177795413,1090
1.64950194750398E+018,67,1.64950194750398E+018,r1000913c5/base_footprint,0,1.64950194750398E+018,v/m1vw10zy74w/map,-8.63887781796,-0.615023123744,0,0,0,-0.52392137873,0.851766628197,0,61.0913352966,7.85684919357,82.5223693848,94.3623352051,40.0753974915,40.0753974915,61.0913352966,61.0913352966,32.8746452332,-0.061994265765,0,0.0036205551587,0.185685694218,0.199012100697,0.19539155066,10.3715763092,0.568978190422,0.157943725586,0.00167100364342,6.73073959351,0.143800362945,1.79988098145,0.0519078746438,18.22842550277,94.520278930686,46.80613708501,34.67452621465,1116
1.64950194760417E+018,68,1.64950194760417E+018,r1000913c5/base_footprint,0,1.64950194760417E+018,v/m1vw10zy74w/map,-8.61961648046,-0.656810377547,0,0,0,-0.458385300298,0.88875357466,0,60.8350219727,8.49673175812,82.1891403198,95.4868164062,39.9713287354,39.9713287354,60.8350219727,60.8350219727,40.4124641418,-0.339431554079,0,0.00411103107035,0.181169241667,0.198779776692,0.194668754935,9.70876598358,0.533287584782,-0.952575683594,-0.0100765144452,6.79874801636,0.145365342498,-5.65605926514,-0.162734299898,18.2054977417,94.534240722606,46.77007675176,34.75640487666,1120
1.64950194770471E+018,69,1.64950194770471E+018,r1000913c5/base_footprint,0,1.64950194770471E+018,v/m1vw10zy74w/map,-8.59451071193,-0.687652801296,0,0,0,-0.411337266615,0.911483216024,0,61.6720237732,11.5618658066,79.6199264526,95.9198684692,40.0921287537,40.0921287537,61.6720237732,61.6720237732,28.2100868225,-0.123100541532,0,0.00409740535542,0.175244271755,0.154141813517,0.150044411421,6.56865978241,0.362298369408,-1.37852478027,-0.0145811848342,6.60371398926,0.141419738531,6.60830688477,0.189793556929,18.13052558901,94.54134368893,46.69584274296,34.81839370727,1154
1.64950194780403E+018,70,1.64950194780403E+018,r1000913c5/base_footprint,0,1.64950194780404E+018,v/m1vw10zy74w/map,-8.52478614241,-0.739276326898,0,0,0,-0.282746983236,0.959194528483,0,61.920085907,9.052983284,74.5881881714,96.3186340332,40.0197944641,40.0197944641,61.920085907,61.920085907,24.3992881775,-0.0414099059999,0,0.00406020693481,0.170445680618,0.116339802742,0.112279593945,9.23041629791,0.504852294922,-1.75390625,-0.0185471512377,6.64989471436,0.142488509417,10.5764961243,0.302394837141,18.28339958191,94.5647277832,46.66968917846,34.9757843018,1174
1.64950194790458E+018,71,1.64950194790458E+018,r1000913c5/base_footprint,0,1.64950194790458E+018,v/m1vw10zy74w/map,-8.48016801502,-0.759112612048,0,0,0,-0.223083738982,0.974799284674,0,61.5285797119,11.3257246017,69.7660827637,96.5817489624,40.0237846375,40.0237846375,61.5285797119,61.5285797119,32.4367141724,-0.0839313417673,0,0.00310511188582,0.162742212415,0.0562830716372,0.0531779564917,6.85380268097,0.377006649971,-2.04495239258,-0.0216312855482,6.64744567871,0.142431333661,2.76412200928,0.0785243287683,18.17952728267,94.53679656982,46.67123031621,35.20083618168,1190
1.649501948005E+018,72,1.649501948005E+018,r1000913c5/base_footprint,0,1.649501948005E+018,v/m1vw10zy74w/map,-8.41875341574,-0.781933914976,0,0,0,-0.154914554495,0.987927872269,0,61.2441520691,7.8138718605,63.3129615784,96.4098739624,39.9027519226,39.9027519226,61.2441520691,61.2441520691,35.6305160522,-0.19073395431,0,0.00232191709802,0.159104257822,0.0381731167436,0.0358512029052,10.2966499329,0.568545222282,-1.89483642578,-0.0200479887426,6.6581993103,0.142999634147,-0.394916534424,-0.0112078841776,18.1105217934,94.51503753662,46.5609512329,35.235599517776,1211
1.64950194810499E+018,73,1.64950194810499E+018,r1000913c5/base_footprint,0,1.64950194810499E+018,v/m1vw10zy74w/map,-8.3439325372,-0.808205998307,0,0,0,-0.109118305988,0.994028769854,0,61.3599853516,9.92647075653,56.4180755615,96.5968322754,39.9023208618,39.9023208618,61.3599853516,61.3599853516,34.2139587402,0.096077285707,0,0.000652411428746,0.108246959746,0.00591541035101,0.00526299886405,8.25382709503,0.453998446465,-2.07878875732,-0.0219935644418,6.74477386475,0.144591510296,1.06444168091,0.030172618106,18.18029785156,94.51804351808,46.64709472655,35.27840042111,1193
1.64950194820489E+018,74,1.64950194820489E+018,r1000913c5/base_footprint,0,1.64950194820489E+018,v/m1vw10zy74w/map,-8.23531067924,-0.825517871927,0,0,0,-0.0495509243399,0.998771598463,0,61.3799972534,13.9891252518,50.4943771362,96.3561096191,40.2179679871,40.2179679871,61.3799972534,61.3799972534,36.3960762024,-0.148308932781,0,4.94145715493E-05,0.0472689270973,0.0429226532578,0.0429720655084,4.15090084076,0.228825509548,-1.8851776123,-0.0199551079422,6.81372451782,0.1448751688,-0.595272064209,-0.0166273377836,18.14002609256,94.4709320068,47.03169250492,35.800804138191,1081
1.64950194830403E+018,75,1.64950194830403E+018,r1000913c5/base_footprint,0,1.64950194830403E+018,v/m1vw10zy74w/map,-8.12524065309,-0.829817562786,0,0,0,-0.00223296401105,0.999997506933,0,62.0631370544,24.509803772,43.2784042358,96.4942703247,40.8511734009,40.8511734009,62.0631370544,62.0631370544,31.4355564117,0.157643333077,0,0.000658289296553,0.0430548153818,0.0515793450177,0.0509210564196,-6.2661781311,-0.343472182751,-2.14258575439,-0.0227085053921,7.22104644775,0.150212466717,5.54881858826,0.150031432509,18.2436256409,94.35168457031,48.07221984865,36.98437499996,857
1.64950194840399E+018,76,1.64950194840399E+018,r1000913c5/base_footprint,0,1.64950194840399E+018,v/m1vw10zy74w/map,-8.01163091559,-0.822681794982,0,0,0,0.0330677159286,0.999453113539,0,61.927936554,20.3036060333,42.632522583,96.1428909302,41.3297653198,41.3297653198,61.927936554,61.927936554,37.7730026245,0.260212212801,0,0.00235120137222,0.036126896739,0.0894058793783,0.0870546847582,-2.62557792664,-0.148522108793,-1.87656402588,-0.0199070442468,6.84443283081,0.142076730728,-0.277763366699,-0.00740796374157,17.67802810666,94.26632690432,48.17419815061,37.495239257801,800
1.6495019485041E+018,77,1.6495019485041E+018,r1000913c5/base_footprint,0,1.6495019485041E+018,v/m1vw10zy74w/map,-7.88011023962,-0.806179973208,0,0,0,0.0527353028613,0.998608525816,0,61.565448761,8.08823490143,42.1210746765,95.6863937378,41.7936630249,41.7936630249,61.565448761,61.565448761,47.6645317078,0.3185082376,0,0.0029650812503,0.0327158235013,0.0995481163263,0.0965830385685,8.46149730682,0.511277019978,-1.50316619873,-0.0159600209445,6.33323669434,0.131594523787,-10.0860557556,-0.268399804831,16.54973220825,94.18322753907,48.12689971924,37.5784759522,794
1.64950194860407E+018,78,1.64950194860407E+018,r1000913c5/base_footprint,0,1.64950194860407E+018,v/m1vw10zy74w/map,-7.76000501115,-0.787978901108,0,0,0,0.0561372020027,0.998423063912,0,62.0716896057,5.88235282898,41.8342857361,95.1906433105,42.3781433105,42.3781433105,62.0716896057,62.0716896057,43.0798187256,0.168247252703,0,0.00417890259996,0.0259138531983,0.114287383854,0.110108479857,10.3078975677,0.636673152447,-0.945182800293,-0.0100289480761,5.69619750977,0.118487268686,-5.5654258728,-0.148354411125,16.19025039668,94.245460510207,48.07434082027,37.5143928528,805
1.64950194870454E+018,79,1.64950194870454E+018,r1000913c5/base_footprint,0,1.64950194870454E+018,v/m1vw10zy74w/map,-7.51477631665,-0.74571934744,0,0,0,0.0413780620651,0.999143561246,0,63.2587051392,5.88235282898,41.8945198059,94.6559448242,43.1026382446,43.1026382446,63.2587051392,63.2587051392,27.6132221222,0.127935618162,0,0.00427579460666,0.016202352941,0.10980194062,0.105526141822,9.92783260345,0.627939045429,-0.186882019043,-0.00197823508643,3.43692398071,0.0738495141268,8.5932598114,0.237340375781,15.81018543243,94.469062805157,46.53956222531,36.2064819336,1179
1.64950194880472E+018,80,1.64950194880472E+018,r1000913c5/base_footprint,0,1.64950194880472E+018,v/m1vw10zy74w/map,-7.38437038302,-0.746817803579,0,0,0,0.0286192536184,0.999590385269,0,63.548500061,12.9226493835,42.0567321777,94.1259613037,43.7679634094,43.7679634094,63.548500061,63.548500061,27.674489975,0.60432612896,0,0.00443955697119,0.000412926863646,0.111620880663,0.107181325555,3.0305185318,0.189963430166,0.398735046387,0.00421831617132,2.65528869629,0.0571973882616,8.29313850403,0.230572298169,15.9531679153,94.524696350087,46.42325210569,35.96762847903,1230
1.64950194890502E+018,81,1.64950194890502E+018,r1000913c5/base_footprint,0,1.64950194890502E+018,v/m1vw10zy74w/map,-7.28062135908,-0.7244695054,0,0,0,0.0260770524459,0.999659935846,0,64.1221466064,19.4071331024,42.3348274231,94.3594512939,44.394317627,44.394317627,64.1221466064,64.1221466064,24.9540500641,0.869654119015,0,0.00450524594635,0.0173058584332,0.133962795138,0.129457548261,-3.47997283936,-0.218492984772,0.145492553711,0.00153952324763,1.90531921387,0.0411519259214,10.9103679657,0.304211497307,15.92716026304,94.504943847611,46.29963684087,35.8644180298,1235
1.64950194900472E+018,82,1.64950194900472E+018,r1000913c5/base_footprint,0,1.64950194900472E+018,v/m1vw10zy74w/map,-7.13814782919,-0.712802314136,0,0,0,0.0159003619686,0.999873581254,0,64.5704040527,23.1891098022,42.9832000732,94.5709075928,45.1854629517,45.1854629517,64.5704040527,64.5704040527,26.1909446716,0.760829985142,0,0.00512737873942,0.0363534167409,0.159967720509,0.15484033525,-7.1276473999,-0.443773239851,-0.0617752075195,-0.000653642753605,1.04396438599,0.0225822478533,9.51728057861,0.266529083252,16.0614624023,94.5091323852805,46.22942733769,35.70822525021,1241
1.64950194910397E+018,83,1.64950194910397E+018,r1000913c5/base_footprint,0,1.64950194910397E+018,v/m1vw10zy74w/map,-7.03880117348,-0.706121627013,0,0,0,0.0106196735419,0.999943609677,0,65.0896682739,22.8868026733,47.72473526,94.6304321289,45.8534736633,45.8534736633,65.0896682739,65.0896682739,24.2730560303,0.563313126564,0,0.00609873607755,0.0516147948802,0.178906545043,0.172807812691,-6.60829353333,-0.405952006578,-0.114036560059,-0.0012065267656,0.461406707764,0.00996238552034,11.4124221802,0.319805771112,16.27850913997,94.516395568841,46.314880371064,35.6854782105,1233
1.64950194930412E+018,84,1.64950194930412E+018,r1000913c5/base_footprint,0,1.64950194930412E+018,v/m1vw10zy74w/map,-6.93578848742,-0.695483007927,0,0,0,0.00317304957041,0.999994965866,0,65.3292694092,23.2303085327,56.1944656372,94.556968689,46.4011764526,46.4011764526,65.3292694092,65.3292694092,25.6108818054,0.521602749825,0,0.00648197112605,0.06030478701,0.187422245741,0.180940285325,-6.69225311279,-0.404657810926,-0.0516128540039,-0.000546136812773,-0.0128326416016,-0.000276635051705,10.1828079224,0.284486114979,16.53805541991,94.5053558349961,46.3883438109984,35.7936897278,1239
1.64950194940404E+018,85,1.64950194940404E+018,r1000913c5/base_footprint,0,1.64950194940404E+018,v/m1vw10zy74w/map,-6.80955782275,-0.692796184321,0,0,0,-0.00413351993857,0.99999145697,0,65.4982376099,17.248254776,63.3772621155,94.3888092041,46.8008880615,46.8008880615,65.4982376099,65.4982376099,26.2809963226,0.432837247849,0,0.00641640322283,0.0634925067425,0.191642642021,0.185226246715,-0.512277603149,-0.03060936369,0.0647430419922,0.000685448467266,-0.305576324463,-0.00657219626009,9.73227119446,0.270241260529,16.735977172851,94.4535522460922,46.495311737037,36.01326751706,1218
1.64950194960536E+018,86,1.64950194960536E+018,r1000913c5/base_footprint,0,1.64950194960536E+018,v/m1vw10zy74w/map,-6.70480746211,-0.713620965821,0,0,0,-0.00806748318654,0.999967457328,0,65.9792022705,25.490196228,67.5317382812,94.3973770142,47.3074645996,47.3074645996,65.9792022705,65.9792022705,23.1254749298,0.29957306385,0,0.00626779254526,0.0756326913834,0.215763822198,0.209496036172,-8.70009040833,-0.518167674541,-0.0522689819336,-0.000554019003175,-0.0949821472168,-0.00201180158183,13.6517276764,0.371200829744,16.79010581967,94.3451080322664,47.2124824523832,36.7772026062,984
1.64950194970472E+018,87,1.64950194970472E+018,r1000913c5/base_footprint,0,1.64950194970472E+018,v/m1vw10zy74w/map,-6.56127716029,-0.718764419688,0,0,0,-0.0161316991688,0.999869875675,0,65.3550491333,22.5490188599,70.6273269653,94.4866333008,47.7525520325,47.7525520325,65.3550491333,65.3550491333,39.48853302,0.18758097291,0,0.00754017056897,0.0896970927715,0.231381893158,0.22384172678,-6.04355049133,-0.366154432297,-0.263725280762,-0.00279895076528,-0.169025421143,-0.00355218350887,-2.22903060913,-0.0598244853318,16.50546836857,94.222908020038,47.583526611357,37.25950241087,883
1.64950194980503E+018,88,1.64950194980503E+018,r1000913c5/base_footprint,0,1.64950194980503E+018,v/m1vw10zy74w/map,-6.41367904416,-0.725445963451,0,0,0,-0.0199233261775,0.999801510838,0,65.9106750488,26.4705886841,72.2954025269,94.5060348511,48.0422973633,48.0422973633,65.9106750488,65.9106750488,32.6863555908,0.33099630475,0,0.0076302383095,0.0987371131778,0.239522531629,0.231892287731,-10.9216585159,-0.702405810356,-0.403648376465,-0.00428945943713,-0.510334014893,-0.0107366489246,4.81158828735,0.128316059709,15.5489301682,94.102386474635,47.531963348407,37.49794387815,839
1.64950194990415E+018,89,1.64950194990415E+018,r1000913c5/base_footprint,0,1.64950194990415E+018,v/m1vw10zy74w/map,-6.16057187645,-0.737379734542,0,0,0,-0.0163478441693,0.999866365066,0,65.7207336426,17.9436473846,69.6556243896,94.8388748169,48.1447906494,48.1447906494,65.7207336426,65.7207336426,38.4105415344,0.0751587450504,0,0.0086231213063,0.121671788394,0.262779176235,0.254156053066,-3.59322071075,-0.250391215086,-0.75186920166,-0.00799121148884,-0.475666046143,-0.00997849367559,-0.796207427979,-0.0211676601321,14.35042667385,94.08700561524,47.669124603257,37.614334106421,801
1.64950195000415E+018,90,1.64950195000415E+018,r1000913c5/base_footprint,0,1.64950195000415E+018,v/m1vw10zy74w/map,-5.94993572802,-0.744694595241,0,0,0,-0.00887649834806,0.999960603112,0,66.0823974609,18.032787323,65.9784088135,94.8654937744,48.1016235352,48.1016235352,66.0823974609,66.0823974609,31.5300941467,0.0328400544822,0,0.00870818924159,0.133928254247,0.255117416382,0.246409222484,-4.70923042297,-0.353451430798,-0.812446594238,-0.00863817427307,-0.480308532715,-0.0100859990343,5.43657302856,0.147066891193,13.32355690003,94.053047180162,47.621315002485,36.96666717526,769
1.64950195010482E+018,91,1.64950195010482E+018,r1000913c5/base_footprint,0,1.64950195010482E+018,v/m1vw10zy74w/map,-5.79565980139,-0.747022499889,0,0,0,-0.0065817539757,0.999978340023,0,65.9569549561,14.1755065918,63.5307502747,94.8658599854,47.918510437,47.918510437,65.9569549561,65.9569549561,31.8118362427,0.30659404397,0,0.00842232722789,0.148963570595,0.190831139684,0.182408824563,-1.38733863831,-0.108486115932,-0.831855773926,-0.00884632952511,-0.40726852417,-0.00857204571366,4.52346420288,0.124492272735,12.78816795349,94.034004211474,47.51124191283,36.33530044558,753
1.64950195020423E+018,92,1.64950195020423E+018,r1000913c5/base_footprint,0,1.64950195020423E+018,v/m1vw10zy74w/map,-5.66375738282,-0.747425270818,0,0,0,-0.00470436722689,0.999988934403,0,65.9858703613,11.02323246,60.8035697937,95.0331192017,47.8325424194,47.8325424194,65.9858703613,65.9858703613,30.9650669098,0.536143541336,0,0.00774481939152,0.161946296692,0.137716323137,0.129971504211,1.60861682892,0.127346113324,-0.973983764648,-0.0103550152853,-0.219665527344,-0.0046135741286,4.897813797,0.136570557952,12.63184928892,94.059135437052,47.612876892056,35.8628807068,765
1.64950195030437E+018,93,1.64950195030437E+018,r1000913c5/base_footprint,0,1.64950195030438E+018,v/m1vw10zy74w/map,-5.53068112131,-0.747526521346,0,0,0,-0.0033424445945,0.999994414016,0,66.0885391235,4.28713846207,59.0418548584,94.8844299316,47.6526756287,47.6526756287,66.0885391235,66.0885391235,26.6391162872,0.152671262622,0,0.00604292051867,0.17928956449,0.089387871325,0.083344951272,7.96258497238,0.650021612644,-0.886054992676,-0.00942627992481,-0.123756408691,-0.0026038128417,9.32845878601,0.259357452393,12.24972343445,93.998374938924,47.528919220009,35.96757507321,766
1.64950195040468E+018,94,1.64950195040468E+018,r1000913c5/base_footprint,0,1.64950195040468E+018,v/m1vw10zy74w/map,-5.38479628145,-0.746721918263,0,0,0,-0.000345998666877,0.999999940142,0,65.4147338867,12.0118637085,58.3405647278,94.7021942139,47.6874084473,47.6874084473,65.4147338867,65.4147338867,38.4867095947,0.14042454958,0,0.00493294326589,0.190989494324,0.0776275992393,0.0726946592331,0.0318059921265,0.00264088879339,-0.685493469238,-0.00729118846357,-0.0513534545898,-0.00107803754508,-2.33560943604,-0.0646068677306,12.0436697006265,94.016700744662,47.6360549927102,36.15110015866,749
1.64950195050521E+018,95,1.64950195050521E+018,r1000913c5/base_footprint,0,1.64950195050521E+018,v/m1vw10zy74w/map,-5.10419314885,-0.745680072684,0,0,0,0.00770123463012,0.999970345053,0,65.0995483398,13.0004940033,59.9328727722,94.3384475708,47.8758125305,47.8758125305,65.0995483398,65.0995483398,44.8853378296,-0.148894399405,0,0.00487158214673,0.204434081912,0.0634076148272,0.0585360340774,-2.03888702393,-0.18600256741,-0.405212402344,-0.00431383401155,-0.33073425293,-0.00695622479543,-7.78799819946,-0.209934145212,10.96160697937,93.933235168456,47.54507827757,37.09733963014,740
1.64950195060467E+018,96,1.64950195060467E+018,r1000913c5/base_footprint,0,1.64950195060467E+018,v/m1vw10zy74w/map,-4.8284744945,-0.750689412379,0,0,0,0.00445781328174,0.999990063901,0,64.9770431519,7.22142505646,60.6681900024,93.7054519653,47.7979850769,47.7979850769,64.9770431519,64.9770431519,43.9710884094,0.440975904465,0,0.0047403909266,0.214096948504,0.0515034981072,0.0467631071806,2.79761600494,0.279229909182,0.345977783203,0.00367860216647,-2.56955718994,-0.0568128786981,-9.25885009766,-0.266731590033,10.0190410614,94.051429748503,45.22842788696,34.71223831174,1040
1.64950195070406E+018,97,1.64950195070406E+018,r1000913c5/base_footprint,0,1.64950195070406E+018,v/m1vw10zy74w/map,-4.69840956268,-0.748209333483,0,0,0,0.00553313601244,0.999984692086,0,65.646270752,5.88235282898,62.65782547,93.7404556274,47.7685890198,47.7685890198,65.646270752,65.646270752,31.7335662842,0.613231599331,0,0.00374921993352,0.22882451117,0.018087618053,0.0143383983523,3.80630683899,0.392862051725,0.298362731934,0.00317276129499,-3.49012756348,-0.0788222402334,1.89809417725,0.0564377196133,9.68865966797,94.038818359334,44.27846145632,33.63166046145,1211
1.64950195080397E+018,98,1.64950195080397E+018,r1000913c5/base_footprint,0,1.64950195080397E+018,v/m1vw10zy74w/map,-4.498951244,-0.749249490841,0,0,0,0.00239268360166,0.999997137528,0,65.2485733032,8.49673175812,65.5448760986,93.4576263428,47.6361732483,47.6361732483,65.2485733032,65.2485733032,36.4438018799,0.995882093906,0,0.00344605790451,0.244260817766,0.0188634041697,0.0223094616085,1.07124042511,0.111961074173,0.548706054688,0.0058369054459,-3.84697723389,-0.0878522023559,-3.59253692627,-0.109357640147,9.56797218323,94.006332397488,43.78919601441,32.85126495363,1362
1.64950195090495E+018,99,1.64950195090495E+018,r1000913c5/base_footprint,0,1.64950195090495E+018,v/m1vw10zy74w/map,-4.3283756271,-0.732132408649,0,0,0,0.00115524676519,0.999999332702,0,65.5039520264,0.0933706834912,68.448425293,93.8354110718,47.4455718994,47.4455718994,65.5039520264,65.5039520264,31.1485767365,1.00583064556,0,0.00327126169577,0.247493132949,0.0238991286606,0.0271703898907,9.40519618988,0.990170061588,0.16130065918,0.00171602447517,-3.93879318237,-0.09053286165,1.20601081848,0.037274800241,9.4985668733712,93.99671173098,43.50677871703,32.35458755498,1401
1.64950195150382E+018,100,1.64950195150382E+018,r1000913c5/base_footprint,0,1.64950195150382E+018,v/m1vw10zy74w/map,-2.96041496306,-0.872125433186,0,0,0,-0.128008315858,0.991773094549,0,64.7307434082,7.9696393013,82.369430542,93.5207977295,47.1855735779,47.1855735779,64.7307434082,64.7307434082,41.1256332397,0.972619056702,0,0.00311751756817,0.331465303898,0.0620489306748,0.0651664435863,0.814683437347,0.092742882669,0.301834106445,0.00321707129478,-1.04532241821,-0.0226553250104,-6.33348083496,-0.182037621737,8.784322738647,93.822631835945,46.14025115969,34.79215240474,761
1.64950195160411E+018,101,1.64950195160411E+018,r1000913c5/base_footprint,0,1.64950195160411E+018,v/m1vw10zy74w/map,-2.81461141497,-0.918068144971,0,0,0,-0.141710288063,0.989908174659,0,64.8219146729,18.3889770508,80.5976409912,93.9119491577,47.1598091125,47.1598091125,64.8219146729,64.8219146729,40.6145439148,1.65658926964,0,0.00345213571563,0.341725170612,0.100090742111,0.103542879224,-8.94071483612,-0.946281433105,-0.157272338867,-0.00167748797685,-1.0397644043,-0.0225447397679,-6.61472702026,-0.194551840425,9.44826221468,93.754676818833,46.1200447082,33.99981689454,766
