%time,field.header.seq,field.header.stamp,field.header.frame_id,field.pose.header.seq,field.pose.header.stamp,field.pose.header.frame_id,field.pose.pose.position.x,field.pose.pose.position.y,field.pose.pose.position.z,field.pose.pose.orientation.x,field.pose.pose.orientation.y,field.pose.pose.orientation.z,field.pose.pose.orientation.w,field.label,field.main_output,field.scan_score,field.pose_score,field.cov_score,field.lhood_map_score,field.lhood_robot_score,field.lhood_map_score_all,field.lhood_robot_score_all,field.point_angle_diff,field.average_orientation,field.map_average_orientation,field.sensor_div,field.odom_div_x,field.odom_div_w,field.imu_div_w,field.kdtree_div,field.kdtree_div_p,field.cov_div,field.cov_div_p,field.likelihood_div,field.likelihood_div_p,field.normal_diff_div,field.normal_diff_div_p,field.kdtree_average,field.cov_average,field.likelihood_average,field.normal_diff_average,field.map_update_count
1.64952185739796E+018,0,1.64952185739796E+018,r1000913c5/base_footprint,0,1.64952185739796E+018,v/m1vw10zy74w/map,-8.67648602867,-2.26333323442,0,0,0,-0.702303714051,0.711877442563,0,59.4237632751,8.66873073578,100,96.5030059814,37.3223686218,37.3223686218,59.4237632751,59.4237632751,40.8646469116,0.011895775795,0,0.00540064275265,0.0122054526582,0.0143288867548,0.0197295304388,3.15860748291,0.267059862614,-1.1019744873,-0.0115509703755,3.10744857788,0.0768603160977,-12.7377815247,-0.452868849039,11.82733821869,95.4010314941,40.42981719968,28.1268653869,194
1.64952185749784E+018,1,1.64952185749784E+018,r1000913c5/base_footprint,0,1.64952185749784E+018,v/m1vw10zy74w/map,-8.67478056063,-2.3747738123,0,0,0,-0.703866964939,0.710331820819,0,59.1960983276,0.579950273037,34.788444519,96.6173934937,37.4422454834,37.4422454834,59.1960983276,59.1960983276,46.6690711975,1.59668195248,0,0.00334461708553,0.0103871757165,0.00752298813313,0.00417837081477,10.7537336349,0.948829472065,-1.22692108154,-0.0128620928153,2.90139389038,0.0719170123339,-19.9067440033,-0.743834555149,11.333683907937,95.39047241216,40.34363937378,26.7623271942,163
1.64952185899753E+018,2,1.64952185899753E+018,r1000913c5/base_footprint,0,1.64952185899754E+018,v/m1vw10zy74w/map,-8.67670123139,-2.4828889385,0,0,0,-0.704339196516,0.709863575803,0,59.342414856,2.23695111275,36.4786186218,96.6615371704,37.4508361816,37.4508361816,59.342414856,59.342414856,44.2870864868,1.44411230087,0,0.000890590716153,0.100365944207,0.00351140322164,0.00262081250548,8.68776798248,0.795239508152,-1.27388763428,-0.0133548490703,2.86522674561,0.0710691139102,-17.9936084747,-0.684337317944,10.92471909523,95.38764953612,40.31606292721,26.2934780121,146
1.64952185909815E+018,3,1.64952185909815E+018,r1000913c5/base_footprint,0,1.64952185909815E+018,v/m1vw10zy74w/map,-8.67670123139,-2.4828889385,0,0,0,-0.704339196516,0.709863575803,0,59.1404953003,0,38.9644927979,96.6615371704,37.2643737793,37.2643737793,59.1404953003,59.1404953003,45.9078559875,1.83967804909,0,0.000522312417161,0.144485428929,0.00618059048429,0.00565827777609,10.9247188568,1,-1.27388763428,-0.0133548490703,3.05168914795,0.075694128871,-19.6143779755,-0.745978832245,10.9247188568,95.38764953612,40.31606292725,26.293478012,146
1.64952185919891E+018,4,1.64952185919891E+018,r1000913c5/base_footprint,0,1.64952185919891E+018,v/m1vw10zy74w/map,-8.67670123139,-2.4828889385,0,0,0,-0.704339196516,0.709863575803,0,59.5950660706,0,40.7422523499,96.6615371704,37.111038208,37.111038208,59.5950660706,59.5950660706,36.0695724487,1.38315975666,0,0.000234601131524,0.170222938061,0.00938344188035,0.00914884079248,10.9247188568,1,-1.27388763428,-0.0133548490703,3.20502471924,0.0794974640012,-9.77609443665,-0.371806830168,10.9247188568,95.38764953612,40.31606292724,26.29347801205,146
1.64952185929769E+018,5,1.64952185929769E+018,r1000913c5/base_footprint,0,1.6495218592977E+018,v/m1vw10zy74w/map,-8.67670123139,-2.4828889385,0,0,0,-0.704339196516,0.709863575803,0,59.2075614929,0,42.0466842651,96.6615371704,37.033039093,37.033039093,59.2075614929,59.2075614929,42.2022171021,1.16625416279,0,0.000516603933647,0.181523010135,0.0105624413118,0.0110790450126,10.9247188568,1,-1.27388763428,-0.0133548490703,3.28302383423,0.0814321562648,-15.90873909,-0.605045080185,10.9247188568,95.38764953612,40.31606292723,26.2934780121,146
1.64952185939768E+018,6,1.64952185939768E+018,r1000913c5/base_footprint,0,1.64952185939768E+018,v/m1vw10zy74w/map,-8.67670123139,-2.4828889385,0,0,0,-0.704339196516,0.709863575803,0,59.112487793,0,43.0368347168,96.6615371704,36.881816864,36.881816864,59.112487793,59.112487793,42.2803382874,1.40565860271,0,0.00360860186629,0.192527711391,0.0156836025417,0.0192922037095,10.9247188568,1,-1.27388763428,-0.0133548490703,3.43424606323,0.0851830691099,-15.9868602753,-0.608016192913,10.9247188568,95.38764953612,40.31606292723,26.2934780121,146
1.64952185949787E+018,7,1.64952185949787E+018,r1000913c5/base_footprint,0,1.64952185949787E+018,v/m1vw10zy74w/map,-8.67670123139,-2.4828889385,0,0,0,-0.704339196516,0.709863575803,0,59.0125312805,0,43.8113975525,96.6615371704,36.8605270386,36.8605270386,59.0125312805,59.0125312805,43.8496818542,1.3299189806,0,0.00762798311189,0.191739097238,0.0264791436493,0.0341071262956,10.9247188568,1,-1.27388763428,-0.0133548490703,3.45553588867,0.0857111439109,-17.5562038422,-0.667701840401,10.9247188568,95.38764953612,40.31606292727,26.293478012,146
1.6495218595976E+018,8,1.6495218595976E+018,r1000913c5/base_footprint,0,1.6495218595976E+018,v/m1vw10zy74w/map,-8.67852223605,-2.35508936396,0,0,0,-0.713666609143,0.700485525185,0,59.1010513306,0,44.432762146,96.2389907837,36.9180145264,36.9180145264,59.1010513306,59.1010513306,41.3559837341,1.27064669132,0,0.00738459685817,0.17614030838,0.0314896553755,0.0388742499053,11.5926733017,1,-0.827362060547,-0.00867150165141,3.46284866333,0.0857547000051,-13.8210830688,-0.501947820187,11.5926733017,95.411628723153,40.38086318973,27.5349006653,181
1.64952185969853E+018,9,1.64952185969853E+018,r1000913c5/base_footprint,0,1.64952185969853E+018,v/m1vw10zy74w/map,-8.67852223605,-2.35508936396,0,0,0,-0.713666609143,0.700485525185,0,58.8956680298,0.392156869173,44.9417800903,96.2389907837,36.9075469971,36.9075469971,58.8956680298,58.8956680298,44.93983078,1.56669342518,0,0.0043269447051,0.166518628597,0.0259092766792,0.0302362218499,11.2005167007,0.966172039509,-0.827362060547,-0.00867150165141,3.47331619263,0.0860139131546,-17.4049301147,-0.632104337215,11.592673569873,95.411628723153,40.38086318973,27.5349006653,181
1.64952185979806E+018,10,1.64952185979806E+018,r1000913c5/base_footprint,0,1.64952185979806E+018,v/m1vw10zy74w/map,-8.67871862884,-2.22831105527,0,0,0,-0.713570232514,0.70058370183,0,58.8843650818,1.83093106747,45.3661346436,96.4647979736,36.9379844666,36.9379844666,58.8843650818,58.8843650818,46.2849159241,1.68940973282,0,0.0030078550335,0.157646596432,0.00843208935112,0.0114399436861,10.2736558914,0.848740756512,-1.05082702637,-0.0110133457929,3.51026153564,0.0867840200663,-17.5808582306,-0.612486839294,12.10458695887,95.41397094723,40.44824600224,28.7040576935,206
1.64952185989838E+018,11,1.64952185989838E+018,r1000913c5/base_footprint,0,1.64952185989838E+018,v/m1vw10zy74w/map,-8.67871862884,-2.22831105527,0,0,0,-0.713570232514,0.70058370183,0,59.4407730103,0,45.735710144,96.4647979736,36.9938545227,36.9938545227,59.4407730103,59.4407730103,36.8730010986,1.28655731678,0,0.00432777497917,0.138031020761,0.0216043032706,0.0259320773184,12.1045866013,1,-1.05082702637,-0.0110133457929,3.45439147949,0.0854027494788,-8.16894340515,-0.284591943026,12.1045866013,95.41397094723,40.44824600219,28.70405769345,206
1.64952185999903E+018,12,1.64952185999903E+018,r1000913c5/base_footprint,0,1.64952185999903E+018,v/m1vw10zy74w/map,-8.67547862027,-2.10839093191,0,0,0,-0.714651841298,0.699480339773,0,59.0208244324,0,46.051322937,96.3041687012,37.073135376,37.073135376,59.0208244324,59.0208244324,44.7100601196,1.67276442051,0,0.00410076836124,0.126556888223,0.0239582583308,0.028059028089,12.6985816956,1,-0.940147399902,-0.00985851231962,3.4959564209,0.086172901094,-14.3814411163,-0.474187135696,12.6985816956,95.364021301298,40.5690917969,30.3286190033,256
1.64952186009895E+018,13,1.64952186009895E+018,r1000913c5/base_footprint,0,1.64952186009895E+018,v/m1vw10zy74w/map,-8.67532853647,-2.11042201573,0,0,0,-0.714850249268,0.69927757087,0,59.1457672119,0,46.3244056702,96.4552841187,37.1957550049,37.1957550049,59.1457672119,59.1457672119,44.3293876648,1.43822562695,0,0.00569739751518,0.107775598764,0.0228670537472,0.0285644512624,12.5471792221,1,-1.10613250732,-0.0116008631885,3.31801605225,0.0818984732032,-14.4099903107,-0.48162701726,12.5471792221,95.34915161138,40.51377105715,29.9193973541,242
1.64952186019838E+018,14,1.64952186019838E+018,r1000913c5/base_footprint,0,1.64952186019838E+018,v/m1vw10zy74w/map,-8.67285164191,-1.98767331902,0,0,0,-0.714954816874,0.699170658587,0,59.0546073914,0,46.5625953674,96.3302764893,37.3176727295,37.3176727295,59.0546073914,59.0546073914,46.8369293213,1.17921876907,0,0.00464754644781,0.0958344042301,0.0243202615529,0.0289678089321,12.8737039566,1,-0.996826171875,-0.0104562053457,3.32668685913,0.0818486735225,-15.725446701,-0.505454778671,12.8737039566,95.333450317425,40.64435958863,31.1114826203,290
1.6495218602978E+018,15,1.6495218602978E+018,r1000913c5/base_footprint,0,1.6495218602978E+018,v/m1vw10zy74w/map,-8.67285164191,-1.98767331902,0,0,0,-0.714954816874,0.699170658587,0,59.657661438,4.10958909988,46.7297592163,96.3302764893,37.6297416687,37.6297416687,59.657661438,59.657661438,39.3523368835,1.0417766571,0,0.00583348795772,0.0847702175379,0.0241484772414,0.0299819651991,8.76411437988,0.680776417255,-0.996826171875,-0.0104562053457,3.01461791992,0.0741706341505,-8.24085426331,-0.264881432056,12.87370347976,95.333450317425,40.64435958862,31.11148262019,290
1.64952186039773E+018,16,1.64952186039773E+018,r1000913c5/base_footprint,0,1.64952186039773E+018,v/m1vw10zy74w/map,-8.66899806442,-1.88466756058,0,0,0,-0.715159878894,0.698960905646,0,59.3420333862,4.76190471649,46.8773841858,96.2341537476,37.9211883545,37.9211883545,59.3420333862,59.3420333862,47.8352088928,0.393162161112,0,0.00567123480141,0.0721470937133,0.0249962452799,0.0306674800813,8.74293041229,0.647392630577,-0.961112976074,-0.0100879846141,2.79328536987,0.0686066895723,-15.9310874939,-0.499342620373,13.50483512878,95.273040771526,40.71447372437,31.9041213989,302
1.64952186049771E+018,17,1.64952186049771E+018,r1000913c5/base_footprint,0,1.64952186049771E+018,v/m1vw10zy74w/map,-8.66899806442,-1.88466756058,0,0,0,-0.715159878894,0.698960905646,0,60.0441665649,11.1644659042,47.045124054,96.2341537476,38.2209091187,38.2209091187,60.0441665649,60.0441665649,38.4337348938,0.814202785492,0,0.0058149471879,0.0668416470289,0.025208292529,0.0310232397169,2.34036922455,0.173298612237,-0.961112976074,-0.0100879846141,2.49356460571,0.06124516204,-6.52961349487,-0.2046636343,13.50483512875,95.273040771526,40.71447372441,31.90412139893,302
1.64952186059764E+018,18,1.64952186059764E+018,r1000913c5/base_footprint,0,1.64952186059764E+018,v/m1vw10zy74w/map,-8.66587158045,-1.7765542743,0,0,0,-0.716272502885,0.697820680125,0,59.7754974365,12.973408699,47.196723938,96.1195449829,38.502243042,38.502243042,59.7754974365,59.7754974365,45.895614624,0.479630500078,0,0.0062233270146,0.055339012295,0.024799913168,0.0310232397169,1.05069828033,0.0749208703637,-0.846221923828,-0.00888204481453,2.31394577026,0.0566918626428,-12.4775886536,-0.373378992081,14.02410697933,95.273323059072,40.81618881226,33.4180259704,305
1.64952186069809E+018,19,1.64952186069809E+018,r1000913c5/base_footprint,0,1.64952186069809E+018,v/m1vw10zy74w/map,-8.66541155067,-1.78218749769,0,0,0,-0.716376864187,0.697713543266,0,60.2141227722,12.1676063538,47.336265564,96.2331314087,38.7465362549,38.7465362549,60.2141227722,60.2141227722,41.0476303101,0.664504885674,0,0.00597106525674,0.0483240261674,0.0250521749258,0.0310232397169,1.85650062561,0.132379233837,-0.959808349609,-0.0100742615759,2.06965255737,0.0507066585124,-7.6296043396,-0.228308051825,14.02410697941,95.273323059091,40.81618881227,33.4180259705,305
1.64952186079871E+018,20,1.64952186079871E+018,r1000913c5/base_footprint,0,1.64952186079872E+018,v/m1vw10zy74w/map,-8.66456627437,-1.66854930482,0,0,0,-0.715729916658,0.698377180612,0,59.8819656372,8.94439983368,49.0137062073,95.9374313354,38.8622970581,38.8622970581,59.8819656372,59.8819656372,47.2121353149,0.512809693813,0,0.00564871821553,0.0401664637029,0.0253745224327,0.0310232397169,5.78468513489,0.392738938332,-0.687957763672,-0.0072226934135,2.09659957886,0.0511878915131,-12.5460395813,-0.361910939217,14.72908496857,95.249473571728,40.95889663696,34.6660957336,310
1.64952186089781E+018,21,1.64952186089781E+018,r1000913c5/base_footprint,0,1.64952186089781E+018,v/m1vw10zy74w/map,-8.66456627437,-1.66854930482,0,0,0,-0.715729916658,0.698377180612,0,60.0791282654,10.5560035706,49.8562431335,95.9374313354,38.9842834473,38.9842834473,60.0791282654,60.0791282654,44.980682373,0.530428111553,0,0.00548409996554,0.0322165973485,0.0255391392857,0.0310232397169,4.17308139801,0.283322513103,-0.687957763672,-0.0072226934135,1.9746131897,0.0482096299529,-10.3145866394,-0.297541052103,14.72908496861,95.249473571728,40.958896637,34.6660957336,310
1.64952186099755E+018,22,1.64952186099755E+018,r1000913c5/base_footprint,0,1.64952186099755E+018,v/m1vw10zy74w/map,-8.66163340115,-1.54357038586,0,0,0,-0.717613721916,0.696441344348,0,59.682434082,10.3641452789,52.3137931824,95.9503326416,39.1749725342,39.1749725342,59.682434082,59.682434082,54.2270469666,0.476491749287,0,0.00538460537791,0.0287625398487,0.025638634339,0.0310232397169,5.08634853363,0.329202979803,-0.754997253418,-0.00793103221804,1.9510345459,0.047440405935,-18.3047142029,-0.509563624859,15.45049381253,95.195335388182,41.1260070801,35.9223327637,314
1.64952186109752E+018,23,1.64952186109752E+018,r1000913c5/base_footprint,0,1.64952186109752E+018,v/m1vw10zy74w/map,-8.66163340115,-1.54357038586,0,0,0,-0.717613721916,0.696441344348,0,60.1682777405,10.7777338028,50.8460350037,95.9503326416,39.2574729919,39.2574729919,60.1682777405,60.1682777405,46.3728942871,0.234398558736,0,0.00511490181088,0.0209931265563,0.025908337906,0.0310232397169,4.67276000977,0.302434355021,-0.754997253418,-0.00793103221804,1.86853408813,0.0454343669116,-10.4505615234,-0.290921002626,15.45049381257,95.195335388182,41.12600708003,35.9223327637,314
1.64952186119754E+018,24,1.64952186119754E+018,r1000913c5/base_footprint,0,1.64952186119754E+018,v/m1vw10zy74w/map,-8.6606392448,-1.43604618941,0,0,0,-0.717635609144,0.696418791022,0,60.3209991455,11.3618049622,50.459690094,95.8661117554,39.3447418213,39.3447418213,60.3209991455,60.3209991455,44.2632331848,0.380484461784,0,0.00463096611202,0.0150166489184,0.0263922736049,0.0310232397169,4.34322738647,0.27655005455,-0.678352355957,-0.00712646637112,1.85784912109,0.0450905896723,-7.98664474487,-0.220159754157,15.70503234867,95.187759399443,41.20259094239,36.27658843993,312
1.64952186129762E+018,25,1.64952186129762E+018,r1000913c5/base_footprint,0,1.64952186129762E+018,v/m1vw10zy74w/map,-8.6606392448,-1.43604618941,0,0,0,-0.717635609144,0.696418791022,0,60.155090332,15.966386795,48.9866638184,95.8661117554,39.5014228821,39.5014228821,60.155090332,60.155090332,48.9417381287,0.404831260443,0,0.004604508169,0.00684773549438,0.0264187324792,0.0310232397169,-0.261354446411,-0.0166414454579,-0.678352355957,-0.00712646637112,1.7011680603,0.0412878915668,-12.6651496887,-0.349127352238,15.705032348589,95.187759399443,41.2025909424,36.27658844,312
1.64952186139753E+018,26,1.64952186139753E+018,r1000913c5/base_footprint,0,1.64952186139753E+018,v/m1vw10zy74w/map,-8.65649926793,-1.33954857289,0,0,0,-0.717181240788,0.696886696574,0,60.5475196838,14.4385023117,48.8718070984,96.0179290771,39.5498809814,39.5498809814,60.5475196838,60.5475196838,42.9479293823,0.419287770987,0,0.0042662830092,0.00209245248698,0.0261448472738,0.0304111298174,1.64769268036,0.102428987622,-0.860061645508,-0.0090382611379,1.81670379639,0.043917182833,-6.64455032349,-0.183028429747,16.08619499206,95.157867431592,41.36658477779,36.30337905881,316
1.64952186149802E+018,27,1.64952186149802E+018,r1000913c5/base_footprint,0,1.64952186149802E+018,v/m1vw10zy74w/map,-8.65649926793,-1.33954857289,0,0,0,-0.717181240788,0.696886696574,0,60.4328117371,18.8069591522,48.7961883545,96.0179290771,39.6498222351,39.6498222351,60.4328117371,60.4328117371,46.0919914246,0.457130521536,0,0.00430661113933,0.00997600611299,0.025598404929,0.0299050156027,-2.72076416016,-0.169136583805,-0.860061645508,-0.0090382611379,1.71676254272,0.0415011905134,-9.78861236572,-0.26963365078,16.08619499204,95.157867431592,41.36658477782,36.30337905888,316
1.64952186159828E+018,28,1.64952186159828E+018,r1000913c5/base_footprint,0,1.64952186159828E+018,v/m1vw10zy74w/map,-8.65348043355,-1.23864063564,0,0,0,-0.716980827627,0.697092886792,0,60.6571464539,11.3504552841,48.7526283264,95.9377365112,39.6214599609,39.6214599609,60.6571464539,60.6571464539,41.4589576721,0.29566937685,0,0.00453511113301,0.0908885672688,0.023328859359,0.027863971889,5.44292354584,0.324111282825,-0.795082092285,-0.00835673604161,2.94792556763,0.0692498981953,-6.14298629761,-0.173943579197,16.79337882994,95.142654418915,42.56938552853,35.31597137449,391
1.64952186169772E+018,29,1.64952186169772E+018,r1000913c5/base_footprint,0,1.64952186169772E+018,v/m1vw10zy74w/map,-8.65348043355,-1.23864063564,0,0,0,-0.716980827627,0.697092886792,0,60.4560394287,9.88735961914,48.7340507507,95.9377365112,39.6273994446,39.6273994446,60.4560394287,60.4560394287,45.1430473328,0.0713780894876,0,0.0042156255804,0.120588071644,0.0212154705077,0.0254310965538,6.90601921082,0.411234647036,-0.795082092285,-0.00835673604161,2.94198608398,0.0691103711724,-9.82707595825,-0.278261512518,16.79337882996,95.142654418915,42.56938552858,35.31597137455,391
1.64952186179768E+018,30,1.64952186179768E+018,r1000913c5/base_footprint,0,1.64952186179768E+018,v/m1vw10zy74w/map,-8.64960500253,-1.12460484087,0,0,0,-0.715333708269,0.698783003381,0,60.8914794922,14.4385023117,48.7456817627,96.3251190186,39.6730499268,39.6730499268,60.8914794922,60.8914794922,39.1926994324,0.186103239655,0,0.000626916007604,0.150834545493,0.0164168477058,0.0170437637717,3.60697841644,0.199882641435,-1.55662536621,-0.0164255574346,5.85835266113,0.128666207194,-4.45627975464,-0.128288403153,18.04548072814,94.76849365239,45.53140258793,34.73641967776,941
1.64952186189757E+018,31,1.64952186189757E+018,r1000913c5/base_footprint,0,1.64952186189757E+018,v/m1vw10zy74w/map,-8.64960500253,-1.12460484087,0,0,0,-0.715333708269,0.698783003381,0,60.8279914856,6.04575157166,48.7591323853,96.3251190186,39.768245697,39.768245697,60.8279914856,60.8279914856,41.3636550903,-0.250478982925,0,0.00110224331729,0.156232535839,0.0130432443693,0.0119410017505,11.9997291565,0.664971411228,-1.55662536621,-0.0164255574346,5.76315689087,0.126575425267,-6.6272354126,-0.190786376595,18.04548072816,94.76849365239,45.53140258787,34.7364196777,941
1.64952186199756E+018,32,1.64952186199756E+018,r1000913c5/base_footprint,0,1.64952186199756E+018,v/m1vw10zy74w/map,-8.64568082683,-1.01336993815,0,0,0,-0.715523420455,0.6985887451,0,61.0560722351,7.96318531036,48.8006515503,96.3875579834,39.8859786987,39.8859786987,61.0560722351,61.0560722351,38.7544403076,-0.222200646996,0,0.00179945083801,0.16037106514,0.00460842065513,0.00280896993354,10.1303262711,0.559887230396,-1.75945281982,-0.0185933429748,6.11448669434,0.132922276855,-3.96860122681,-0.114086687565,18.09351158146,94.62810516358,46.00046539304,34.78583908079,1080
1.64952186209743E+018,33,1.64952186209743E+018,r1000913c5/base_footprint,0,1.64952186209743E+018,v/m1vw10zy74w/map,-8.64568082683,-1.01336993815,0,0,0,-0.715523420455,0.6985887451,0,61.4408950806,7.1628651619,48.8129463196,96.3875579834,40.0429611206,40.0429611206,61.4408950806,61.4408950806,33.523059845,-0.358111262321,0,0.00133137730882,0.158137246966,0.00460580736399,0.00327443005517,10.9306468964,0.604119718075,-1.75945281982,-0.0185933429748,5.95750427246,0.129509657621,1.26277923584,0.0363015308976,18.0935120583,94.62810516358,46.00046539306,34.78583908084,1080
1.64952186219774E+018,34,1.64952186219774E+018,r1000913c5/base_footprint,0,1.64952186219774E+018,v/m1vw10zy74w/map,-8.64088920755,-0.898036520273,0,0,0,-0.715340146575,0.698776412522,0,61.6050949097,7.45098018646,48.8229598999,96.4129180908,40.1306648254,40.1306648254,61.6050949097,61.6050949097,31.6060028076,-0.250504523516,0,0.00149858393706,0.155243575573,0.00504324538633,0.00354466121644,10.6727724075,0.588883161545,-1.83934020996,-0.0194487739354,6.18935012817,0.133621498942,3.11548995972,0.0897279977798,18.12375259396,94.57357788084,46.32001495357,34.72149276732,1191
1.64952186229816E+018,35,1.64952186229816E+018,r1000913c5/base_footprint,0,1.64952186229816E+018,v/m1vw10zy74w/map,-8.64088920755,-0.898036520273,0,0,0,-0.715340146575,0.698776412522,0,61.1909217834,6.8298459053,48.7979049683,96.4129180908,40.0867233276,40.0867233276,61.1909217834,61.1909217834,38.5864868164,-0.225312918425,0,0.00158740894403,0.154509365559,0.00487236212939,0.00328495306894,11.2939071655,0.623154997826,-1.83934020996,-0.0194487739354,6.23329162598,0.134570151567,-3.86499404907,-0.111314170063,18.1237530708,94.57357788084,46.32001495358,34.72149276733,1191
1.64952186239879E+018,36,1.64952186239879E+018,r1000913c5/base_footprint,0,1.64952186239879E+018,v/m1vw10zy74w/map,-8.64088920755,-0.898036520273,0,0,0,-0.715340146575,0.698776412522,0,61.6542816162,8.23529434204,48.7701911926,96.4129180908,40.1147193909,40.1147193909,61.6542816162,61.6542816162,30.5483856201,0.00426038308069,0,0.00129899242893,0.153728991747,0.00377132045105,0.00247232778929,9.88845825195,0.545607686043,-1.83934020996,-0.0194487739354,6.20529556274,0.133965745568,4.17310714722,0.120188012719,18.12375259399,94.57357788084,46.32001495364,34.72149276732,1191
1.64952186249768E+018,37,1.64952186249768E+018,r1000913c5/base_footprint,0,1.64952186249768E+018,v/m1vw10zy74w/map,-8.63964505027,-0.782672858765,0,0,0,-0.714645272713,0.699487050765,0,61.3980331421,6.50564861298,48.779712677,96.0928039551,40.058216095,40.058216095,61.3980331421,61.3980331421,33.3982658386,0.0227953903377,0,0.00117803772446,0.153920382261,0.00291235581972,0.00173431809526,11.7416296005,0.643472909927,-1.5308380127,-0.0161887295544,6.49247741699,0.139471128583,1.27803421021,0.0368561297655,18.24727821348,94.5619659424,46.55069351199,34.67630004881,1182
1.64952186259794E+018,38,1.64952186259794E+018,r1000913c5/base_footprint,0,1.64952186259794E+018,v/m1vw10zy74w/map,-8.63959308897,-0.781364809763,0,0,0,-0.714659573095,0.699472440189,0,61.7750511169,9.01960754395,48.759677887,96.344291687,40.1410598755,40.1410598755,61.7750511169,61.7750511169,28.411989212,-0.0693638548255,0,0.0011791131692,0.154810354114,0.00128899305128,0.000109879882075,9.22767066956,0.505701184273,-1.78232574463,-0.0188482310623,6.40963363647,0.137691468,6.26431083679,0.180651068687,18.24727821351,94.56196594237,46.55069351197,34.67630004879,1182
1.6495218626977E+018,39,1.6495218626977E+018,r1000913c5/base_footprint,0,1.6495218626977E+018,v/m1vw10zy74w/map,-8.63959308897,-0.781364809763,0,0,0,-0.714659573095,0.699472440189,0,61.7219200134,6.50564861298,48.7413597107,96.344291687,40.115032196,40.115032196,61.7219200134,61.7219200134,29.0872802734,0.113975733519,0,0.000837597239297,0.155115008354,0.000947477121372,0.000109879882075,11.7416296005,0.643472909927,-1.78232574463,-0.0188482310623,6.43566131592,0.138250604272,5.58901977539,0.161176934838,18.24727821348,94.56196594237,46.55069351192,34.67630004879,1182
1.64952186279769E+018,40,1.64952186279769E+018,r1000913c5/base_footprint,0,1.64952186279769E+018,v/m1vw10zy74w/map,-8.63778892647,-0.662859066639,0,0,0,-0.716004459768,0.698095705181,0,61.4899597168,9.44272422791,48.6766433716,96.2875061035,40.0883979797,40.0883979797,61.4899597168,61.4899597168,32.7704315186,-0.0365414470434,0,0.00018205177912,0.155643746257,0.000291931646643,0.000109879882075,8.779504776,0.481801897287,-1.75331115723,-0.0185468457639,6.62438201904,0.141810908914,1.87227630615,0.0540453232825,18.22222900391,94.53419494627,46.71277999874,34.64270782475,1145
1.64952186289838E+018,41,1.64952186289838E+018,r1000913c5/base_footprint,0,1.64952186289838E+018,v/m1vw10zy74w/map,-8.63778892647,-0.662859066639,0,0,0,-0.716004459768,0.698095705181,0,61.6897773743,9.44272422791,48.5968284607,96.2875061035,40.1249542236,40.1249542236,61.6897773743,61.6897773743,29.5685348511,0.0426755473018,0,0.000275282858638,0.155328765512,0.000194212057977,0.000469494931167,8.779504776,0.481801897287,-1.75331115723,-0.0185468457639,6.58782577515,0.141028344631,5.07417297363,0.146471604705,18.22222900391,94.53419494627,46.71277999875,34.64270782473,1145
1.64952186399888E+018,42,1.64952186399888E+018,r1000913c5/base_footprint,0,1.64952186399888E+018,v/m1vw10zy74w/map,-8.63071892537,-0.441040884932,0,0,0,-0.714892496479,0.699234380218,0,61.371635437,13.5177249908,48.6436309814,96.4494018555,40.1409339905,40.1409339905,61.371635437,61.371635437,36.0504798889,-0.0616479963064,0,0.00141652859747,0.199528858066,0.0287291109562,0.0301456395537,4.70238113403,0.258087486029,-1.93113708496,-0.0204313639551,6.60264968872,0.141252532601,-1.5048866272,-0.0435623340309,18.22010612483,94.51826477054,46.74358367922,34.5455932617,944
1.64952186409755E+018,43,1.64952186409755E+018,r1000913c5/base_footprint,0,1.64952186409755E+018,v/m1vw10zy74w/map,-8.63071892537,-0.441040884932,0,0,0,-0.714892496479,0.699234380218,0,61.5400314331,15.5151996613,48.6015052795,96.4494018555,40.1053657532,40.1053657532,61.5400314331,61.5400314331,32.6351966858,0.079211845994,0,0.000944719708059,0.198972165585,0.0443038865924,0.0452486053109,2.70490646362,0.148457229137,-1.93113708496,-0.0204313639551,6.63821792603,0.142013460398,1.91039657593,0.0553007312119,18.22010612492,94.51826477054,46.74358367923,34.54559326173,944
1.64952186419786E+018,44,1.64952186419786E+018,r1000913c5/base_footprint,0,1.64952186419786E+018,v/m1vw10zy74w/map,-8.63071892537,-0.441040884932,0,0,0,-0.714892496479,0.699234380218,0,61.8087882996,11.9647855759,48.574382782,96.4494018555,40.0227203369,40.0227203369,61.8087882996,61.8087882996,26.9050369263,0.206176280975,0,0.000663974671625,0.197807013988,0.0516269207001,0.0522908940911,6.25532054901,0.343319654465,-1.93113708496,-0.0204313639551,6.72086334229,0.143781512976,7.64055633545,0.221173107624,18.22010612491,94.51826477054,46.74358367919,34.54559326175,944
1.64952186429797E+018,45,1.64952186429797E+018,r1000913c5/base_footprint,0,1.64952186429797E+018,v/m1vw10zy74w/map,-8.63012751739,-0.497084210793,0,0,0,-0.677115237237,0.735876997535,0,61.3608398438,11.3618049622,48.6401367188,96.3977890015,40.0005836487,40.0005836487,61.3608398438,61.3608398438,34.5432090759,-0.13238415122,0,0.00161307491362,0.193688631058,0.0795755535364,0.0811886265874,6.9098072052,0.378171741962,-1.86682128906,-0.0197482518852,6.75857925415,0.144540205598,0.0554275512695,0.00160201545805,18.2716121674,94.53096771244,46.75916290285,34.5986366271695,1007
1.64952186439778E+018,46,1.64952186439778E+018,r1000913c5/base_footprint,0,1.64952186439778E+018,v/m1vw10zy74w/map,-8.63012751739,-0.497084210793,0,0,0,-0.677115237237,0.735876997535,0,61.562625885,9.19857883453,48.7058906555,96.3977890015,39.9689826965,39.9689826965,61.562625885,61.562625885,30.56980896,-0.0765754207969,0,0.00472520012408,0.188821420074,0.10375508666,0.108480289578,9.07303333282,0.496564477682,-1.86682128906,-0.0197482518852,6.7901802063,0.145216032863,4.02882766724,0.116444692016,18.27161216735,94.53096771244,46.7591629028,34.59863662724,1007
1.64952186449904E+018,47,1.64952186449904E+018,r1000913c5/base_footprint,0,1.64952186449904E+018,v/m1vw10zy74w/map,-8.62298925636,-0.555108977831,0,0,0,-0.629981024005,0.776610526193,0,61.3820991516,8.58505535126,48.7506980896,96.2864608765,39.9058685303,39.9058685303,61.3820991516,61.3820991516,32.7368850708,-0.121288396418,0,0.00391490012407,0.180378228426,0.133980557323,0.137895464897,9.64788913727,0.529145956039,-1.76363372803,-0.0186582840979,6.85091400146,0.14652235806,1.89463424683,0.0547083765268,18.23294448853,94.52282714847,46.75678253176,34.63151931763,1045
1.64952186459769E+018,48,1.64952186459769E+018,r1000913c5/base_footprint,0,1.64952186459769E+018,v/m1vw10zy74w/map,-8.61064816609,-0.598519305469,0,0,0,-0.57849439584,0.815686357604,0,61.1952362061,10.3641452789,48.7093048096,96.051612854,39.8839874268,39.8839874268,61.1952362061,61.1952362061,35.0186233521,-0.139627128839,0,0.00367068871856,0.17726315558,0.139071732759,0.142742410302,7.86549568176,0.4314673841,-1.52780151367,-0.0161631386727,6.86758804321,0.146895334125,-0.300300598145,-0.00864962860942,18.22964096066,94.52381134033,46.75157547001,34.718322753955,1095
1.6495218646984E+018,49,1.6495218646984E+018,r1000913c5/base_footprint,0,1.6495218646984E+018,v/m1vw10zy74w/map,-8.59657324173,-0.629378562734,0,0,0,-0.525257144843,0.850943553822,0,61.5894889832,7.85684919357,48.6259994507,95.7018966675,39.8564300537,39.8564300537,61.5894889832,61.5894889832,26.365436554,0.0159729793668,0,0.00305744144134,0.171916753054,0.144147843122,0.147205278277,10.3486480713,0.568435311317,-1.16765594482,-0.0123516721651,6.913646698,0.147822007537,8.39096832275,0.241422221065,18.20549726487,94.53424072268,46.7700767517,34.75640487675,1120
1.64952186479827E+018,50,1.64952186479827E+018,r1000913c5/base_footprint,0,1.64952186479827E+018,v/m1vw10zy74w/map,-8.57223722743,-0.670061729173,0,0,0,-0.456533998103,0.889705967484,0,61.4374160767,10.1307191849,48.4258537292,95.286315918,39.8388404846,39.8388404846,61.4374160767,61.4374160767,27.4167537689,-0.00119176506996,0,0.00304098892957,0.166956305504,0.142873629928,0.145914629102,8.03399562836,0.442285805941,-0.744895935059,-0.00787904299796,6.8603477478,0.146905079484,7.438539505,0.213412046432,18.16471481326,94.541419982941,46.6991882324,34.8552932739,1144
1.64952186489774E+018,51,1.64952186489774E+018,r1000913c5/base_footprint,0,1.64952186489774E+018,v/m1vw10zy74w/map,-8.51966780682,-0.697459764577,0,0,0,-0.331589433573,0.943423790002,0,61.5390319824,9.88735961914,48.1738815308,95.4702453613,39.9613418579,39.9613418579,61.5390319824,61.5390319824,27.5727672577,0.112033717334,0,0.00339517858811,0.158738777041,0.0619059838355,0.0653011649847,8.37557601929,0.458610594273,-0.919769287109,-0.00972781237215,6.7723236084,0.144913166761,7.39790916443,0.211546063423,18.26293563843,94.550476074191,46.7336654663,34.97067642213,1151
1.64952186499777E+018,52,1.64952186499777E+018,r1000913c5/base_footprint,0,1.64952186499777E+018,v/m1vw10zy74w/map,-8.51967095971,-0.700219152484,0,0,0,-0.326129767154,0.945325010235,0,61.209526062,6.22335910797,47.7658424377,95.5019454956,39.8854980469,39.8854980469,61.209526062,61.209526062,32.7989234924,-0.0363135933876,0,0.00344246742316,0.156245172024,0.0384095348418,0.0418520011008,12.0395765305,0.659235537052,-0.951469421387,-0.0100630847737,6.84816741943,0.146536067128,2.17175292969,0.0621021129191,18.26293563847,94.550476074213,46.73366546633,34.97067642209,1151
1.64952186509766E+018,53,1.64952186509766E+018,r1000913c5/base_footprint,0,1.64952186509766E+018,v/m1vw10zy74w/map,-8.43750025457,-0.745491559606,0,0,0,-0.213009327953,0.977050165654,0,61.2718315125,10.23965168,47.377532959,95.5964202881,39.9184265137,39.9184265137,61.2718315125,61.2718315125,32.373134613,-0.0224894229323,0,0.0037194211036,0.151180237532,0.00544303702191,0.00916245859116,7.93987560272,0.436748176813,-1.05962371826,-0.0112085845321,6.75280380249,0.144688785076,2.8277015686,0.0803305208683,18.17952728272,94.53679656984,46.67123031619,35.2008361816,1190
1.6495218651978E+018,54,1.6495218651978E+018,r1000913c5/base_footprint,0,1.6495218651978E+018,v/m1vw10zy74w/map,-8.3796589627,-0.763276035261,0,0,0,-0.154844221859,0.987938898392,0,60.4556884766,10.6590003967,47.0444412231,95.8519439697,39.8476371765,39.8476371765,60.4556884766,60.4556884766,47.2190742493,-0.0663119778037,0,0.00443257018924,0.144471123815,0.0373269990087,0.0328944288194,7.52129745483,0.413705945015,-1.33390045166,-0.0141126541421,6.79945755005,0.145763799548,-11.9406738281,-0.338469833136,18.18029785153,94.51804351804,46.64709472655,35.2784004212,1193
1.64952186529787E+018,55,1.64952186529787E+018,r1000913c5/base_footprint,0,1.64952186529787E+018,v/m1vw10zy74w/map,-8.3796589627,-0.763276035261,0,0,0,-0.154844221859,0.987938898392,0,61.3061981201,12.8872919083,46.6850585938,95.8519439697,39.9727973938,39.9727973938,61.3061981201,61.3061981201,33.2616539001,0.269366800785,0,0.00536099402234,0.140815734863,0.0492216385901,0.0438606478274,5.2930059433,0.291139662266,-1.33390045166,-0.0141126541421,6.67429733276,0.143080666661,2.016746521,0.0571666099131,18.1802978516,94.51804351804,46.64709472656,35.2784004211,1193
1.64952186539752E+018,56,1.64952186539752E+018,r1000913c5/base_footprint,0,1.64952186539752E+018,v/m1vw10zy74w/map,-8.29240914704,-0.790890234726,0,0,0,-0.0924292385624,0.995719255543,0,61.3052978516,9.98217487335,46.4753189087,96.0224075317,39.9474868774,39.9474868774,61.3052978516,61.3052978516,33.6181983948,0.155759751797,0,0.00551185710356,0.118322938681,0.0619450993836,0.0564332418144,7.97586917877,0.444139093161,-1.50897979736,-0.0159657709301,6.78065109253,0.145108520985,1.85995483398,0.0524253584445,17.95804405212,94.51342773434,46.72813796993,35.47815322878,1182
1.649521865498E+018,57,1.649521865498E+018,r1000913c5/base_footprint,0,1.649521865498E+018,v/m1vw10zy74w/map,-8.29240914704,-0.790890234726,0,0,0,-0.0924292385624,0.995719255543,0,61.5910263062,15.5354452133,46.3067131042,96.0224075317,40.54504776,40.54504776,61.5910263062,61.5910263062,34.9287338257,0.0372908189893,0,0.0067815692164,0.0506282895803,0.10992474854,0.103143177927,2.42259883881,0.134903267026,-1.50897979736,-0.0159657709301,6.18309020996,0.13232049346,0.549419403076,0.0154861332849,17.95804405211,94.51342773434,46.72813796996,35.478153228776,1182
1.64952186559837E+018,58,1.64952186559837E+018,r1000913c5/base_footprint,0,1.64952186559837E+018,v/m1vw10zy74w/map,-8.19008639326,-0.803876175697,0,0,0,-0.0371089733814,0.999311224842,0,62.0601615906,17.849899292,45.9842529297,96.1472320557,41.1362304688,41.1362304688,62.0601615906,62.0601615906,33.3184051514,0.0722177773714,0,0.00706685474142,0.0332802124321,0.13168489933,0.124618053436,0.805557250977,0.0431807860732,-1.7385559082,-0.0184152126312,6.49683761597,0.136393427849,2.88104629517,0.0795881226659,18.655456542977,94.4086761475,47.63306808477,36.19945144657,985
1.64952186569772E+018,59,1.64952186569772E+018,r1000913c5/base_footprint,0,1.64952186569772E+018,v/m1vw10zy74w/map,-8.06202762184,-0.804118476392,0,0,0,0.00645744203144,0.999979150504,0,62.2382926941,20.6121463776,46.0465164185,95.8912582397,41.5404930115,41.5404930115,62.2382926941,62.2382926941,33.556552887,0.084771849215,0,0.00931779574603,0.0268057212234,0.162920534611,0.153602734208,-2.49344062805,-0.137616932392,-1.58120727539,-0.0167660526931,6.59992599487,0.137097388506,3.67482376099,0.0987023338675,18.11870574955,94.31005096431,48.14041900637,37.23137664799,849
1.64952186579755E+018,60,1.64952186579755E+018,r1000913c5/base_footprint,0,1.64952186579755E+018,v/m1vw10zy74w/map,-7.94613942147,-0.795505890637,0,0,0,0.0255186921609,0.99967434515,0,62.3659858704,13.4117650986,46.1014785767,95.6712036133,41.8048439026,41.8048439026,62.3659858704,62.3659858704,33.3209228516,0.193059802055,0,0.010189875029,0.0213860552758,0.171145260334,0.160955384374,4.01172161102,0.230247914791,-1.41427612305,-0.0150044793263,6.44403076172,0.133558154106,4.17762374878,0.111407615244,17.42348670962,94.25692749025,48.24887466432,37.49854660038,817
1.64952186589749E+018,61,1.64952186589749E+018,r1000913c5/base_footprint,0,1.64952186589749E+018,v/m1vw10zy74w/map,-7.81354767967,-0.787733608618,0,0,0,0.0374088762906,0.999300043017,0,62.9251823425,14.5220584869,46.2289199829,95.7868041992,42.3392028809,42.3392028809,62.9251823425,62.9251823425,29.4426193237,0.108416683972,0,0.010483475402,0.0161472968757,0.184841841459,0.17435836792,2.06034469604,0.124248862267,-1.54522705078,-0.0163964480162,5.94430923462,0.123112611473,8.11779022217,0.21612624824,16.58240318294,94.24157714842,48.28351211552,37.56040954587,784
1.64952186599853E+018,62,1.64952186599853E+018,r1000913c5/base_footprint,0,1.64952186599853E+018,v/m1vw10zy74w/map,-7.69533645733,-0.776031515659,0,0,0,0.043406908208,0.999057475984,0,62.8831176758,9.50226211548,46.3486824036,95.7171173096,42.7745132446,42.7745132446,62.8831176758,62.8831176758,34.6502609253,0.173883005977,0,0.0114776324481,0.0116998553276,0.192717462778,0.181239828467,6.50299835205,0.406303822994,-1.3871383667,-0.014705169946,4.7466583252,0.0998851284385,2.38040161133,0.0642819106579,16.00526046753,94.3299789429,47.5211715698,37.03066253663,925
1.64952186609779E+018,63,1.64952186609779E+018,r1000913c5/base_footprint,0,1.64952186609779E+018,v/m1vw10zy74w/map,-7.57361890984,-0.758233820668,0,0,0,0.0384846071906,0.999259193107,0,63.332660675,9.50226211548,46.4983940125,95.1706085205,43.3339881897,43.3339881897,63.332660675,63.332660675,30.6333732605,0.160361006856,0,0.0109722660854,0.00697089033201,0.195370599627,0.184398338199,6.38597774506,0.401931107044,-0.688888549805,-0.00729123642668,3.34242248535,0.0716083869338,5.64287567139,0.155552893877,15.88823986054,94.481719970695,46.67641067505,36.27624893189,1147
1.64952186619841E+018,64,1.64952186619841E+018,r1000913c5/base_footprint,0,1.64952186619841E+018,v/m1vw10zy74w/map,-7.57361890984,-0.758233820668,0,0,0,0.0384846071906,0.999259193107,0,63.5443878174,14.3529415131,46.7401809692,95.1706085205,43.9581871033,43.9581871033,63.5443878174,63.5443878174,33.563659668,0.25053447485,0,0.0113848010078,0.00437217531726,0.202199995518,0.190815195441,1.53529834747,0.0966311171651,-0.688888549805,-0.00729123642668,2.71822357178,0.058235488832,2.71258926392,0.074775904417,15.88823986057,94.481719970695,46.67641067508,36.27624893192,1147
1.64952186629814E+018,65,1.64952186629814E+018,r1000913c5/base_footprint,0,1.64952186629815E+018,v/m1vw10zy74w/map,-7.43775715253,-0.7403109443,0,0,0,0.0326642792141,0.999466380057,0,64.12159729,19.7012138367,47.1133003235,94.7621383667,44.5147514343,44.5147514343,64.12159729,64.12159729,27.7142028809,0.607803463936,0,0.0107097085565,0.0217328909785,0.214238896966,0.203529179096,-3.78622913361,-0.237903416157,-0.252517700195,-0.00267187296413,1.93982696533,0.0417574979365,8.31628799438,0.230812504888,15.91498470309,94.509620666505,46.45457839963,36.03049087528,1202
1.649521866399E+018,66,1.649521866399E+018,r1000913c5/base_footprint,0,1.649521866399E+018,v/m1vw10zy74w/map,-7.30912868064,-0.732561295706,0,0,0,0.0248822178886,0.999690389687,0,64.5425949097,21.2598419189,47.4472770691,94.7693252563,45.0530395508,45.0530395508,64.5425949097,64.5425949097,25.9756469727,0.637638866901,0,0.0105445338413,0.0297064036131,0.219871088862,0.209326550364,-5.34257602692,-0.335646599531,-0.252372741699,-0.00267013208941,1.28732681274,0.0277798157185,9.92440795898,0.276445478201,15.91726589198,94.516952514601,46.34036636354,35.90005493168,1231
1.6495218664978E+018,67,1.6495218664978E+018,r1000913c5/base_footprint,0,1.6495218664978E+018,v/m1vw10zy74w/map,-7.2014795833,-0.721940406306,0,0,0,0.0212328373855,0.999774557896,0,64.6438522339,24.1613998413,47.7855377197,94.8129959106,45.50806427,45.50806427,64.6438522339,64.6438522339,29.2245464325,0.589882314205,0,0.0111635923386,0.0513625666499,0.236338675022,0.225175082684,-8.12726402283,-0.506872594357,-0.295379638672,-0.00312512787059,0.749515533447,0.0162030849606,6.54535865784,0.182985067368,16.03413581847,94.517616271928,46.257579803447,35.76990509034,1235
1.64952186659749E+018,68,1.64952186659749E+018,r1000913c5/base_footprint,0,1.64952186659749E+018,v/m1vw10zy74w/map,-6.96095997043,-0.715670788396,0,0,0,0.00600154966207,0.999981990539,0,65.2644729614,28.607339859,48.0941085815,94.7308120728,46.1435852051,46.1435852051,65.2644729614,65.2644729614,24.6210727692,0.676584601402,0,0.0110288206488,0.0580115877092,0.242547154427,0.23151832819,-12.1222019196,-0.735341250896,-0.220321655273,-0.00233118725009,0.196453094482,0.00423938129097,11.2461414337,0.313549339771,16.4851379394,94.510490417527,46.340038299582,35.8672142029,1257
1.64952186669786E+018,69,1.64952186669786E+018,r1000913c5/base_footprint,0,1.64952186669786E+018,v/m1vw10zy74w/map,-6.95202480752,-0.716478995102,0,0,0,0.00549485370176,0.999984903177,0,65.3062667847,23.5796890259,48.4545936584,94.6819763184,46.4676856995,46.4676856995,65.3062667847,65.3062667847,27.1932888031,0.532544493675,0,0.0103391315788,0.0702344998717,0.255109339952,0.24477019906,-7.09455108643,-0.43036043644,-0.171485900879,-0.00181446422357,-0.127647399902,-0.00275458116084,8.67392539978,0.241834372282,16.48513793947,94.510490417521,46.340038299598,35.86721420288,1257
1.64952186679752E+018,70,1.64952186679752E+018,r1000913c5/base_footprint,0,1.64952186679752E+018,v/m1vw10zy74w/map,-6.79987885628,-0.712215295931,0,0,0,0.000225546505185,0.999999974564,0,65.6180114746,24.8640632629,48.5767822266,94.6113586426,46.7377243042,46.7377243042,65.6180114746,65.6180114746,24.2441654205,0.572461605072,0,0.00906925834715,0.082253575325,0.272782981396,0.263713717461,-8.17279815674,-0.489645212889,-0.15145111084,-0.00160333747044,-0.254589080811,-0.00547702051699,11.7892360687,0.327175229788,16.69126510616,94.45990753176,46.483135223389,36.0334014892,1234
1.64952186689753E+018,71,1.64952186689753E+018,r1000913c5/base_footprint,0,1.64952186689753E+018,v/m1vw10zy74w/map,-6.68646821514,-0.720519037411,0,0,0,-0.00285728517388,0.999995917952,0,65.2291259766,21.8900680542,48.6360092163,94.5965652466,47.0024757385,47.0024757385,65.2291259766,65.2291259766,34.0500411987,0.0435141660273,0,0.00579485949129,0.0969244688749,0.303182095289,0.297387242317,-5.0999622345,-0.303748071194,-0.251457214355,-0.00266529154032,0.210006713867,0.00444811861962,2.72716140747,0.0741535872221,16.7901058197,94.345108032245,47.212482452367,36.77720260617,984
1.64952186699766E+018,72,1.64952186699766E+018,r1000913c5/base_footprint,0,1.64952186699766E+018,v/m1vw10zy74w/map,-6.53795391565,-0.717911623034,0,0,0,-0.00621568035046,0.999980682472,0,65.4877319336,19.9209098816,48.513343811,94.1376266479,47.2736587524,47.2736587524,65.4877319336,65.4877319336,30.6718082428,0.394274145365,0,0.00626697903499,0.108345411718,0.318580836058,0.312313854694,-3.41544151306,-0.206927880645,0.0852813720703,0.000905102293473,0.309867858887,0.00651208264753,6.58769416809,0.176805749536,16.50546836854,94.2229080199703,47.583526611287,37.25950241089,883
1.64952186709856E+018,73,1.64952186709856E+018,r1000913c5/base_footprint,0,1.64952186709856E+018,v/m1vw10zy74w/map,-6.39125820714,-0.707514493325,0,0,0,-0.00838829546243,0.999964817631,0,65.2219467163,20.5630970001,48.3472747803,94.4587860107,47.4984283447,47.4984283447,65.2219467163,65.2219467163,39.039642334,0.318294674158,0,0.00658283242956,0.120249666274,0.327604651451,0.321021825075,-5.02747917175,-0.323609858751,-0.361457824707,-0.00384131865576,0.0125961303711,0.000265120150289,-1.53795623779,-0.0410103239119,15.53561782835,94.097328185993,47.5110244750711,37.50168609621,839
1.64952186719853E+018,74,1.64952186719853E+018,r1000913c5/base_footprint,0,1.64952186719853E+018,v/m1vw10zy74w/map,-6.24250686758,-0.703169428083,0,0,0,-0.0084732618532,0.999964101272,0,65.4052658081,16.7862262726,48.1059417725,94.124671936,47.6510238647,47.6510238647,65.4052658081,65.4052658081,36.1851272583,0.165855422616,0,0.00615359051153,0.126490190625,0.331486403942,0.325332820415,-1.8234205246,-0.121863543987,-0.0338668823242,-0.000359938276233,0.000694274902344,1.45697767948E-05,1.44185256958,0.0383196473122,14.962805748,94.0908050536758,47.6517181396024,37.62697982788,812
1.64952186729781E+018,75,1.64952186729781E+018,r1000913c5/base_footprint,0,1.64952186729781E+018,v/m1vw10zy74w/map,-6.08887104716,-0.706088954736,0,0,0,-0.00957945327679,0.999954115985,0,65.8691482544,13.4662132263,47.8777694702,93.9710083008,47.451210022,47.451210022,65.8691482544,65.8691482544,25.1240005493,0.447274118662,0,0.00543761393055,0.144692778587,0.295158207417,0.289720594883,0.759152412415,0.0533661097288,0.113700866699,0.0012084946502,0.200176239014,0.00420084828511,12.3304443359,0.329211771488,14.225365638715,94.084709167499,47.651386261014,37.4544448852,796
1.64952186739778E+018,76,1.64952186739778E+018,r1000913c5/base_footprint,0,1.64952186739778E+018,v/m1vw10zy74w/map,-5.93584682427,-0.698793117405,0,0,0,-0.00946699892414,0.999955186962,0,65.7631225586,11.5216331482,47.7267875671,94.1844940186,47.4308853149,47.4308853149,65.7631225586,65.7631225586,27.5815887451,0.516257226467,0,0.00526964385062,0.161842703819,0.227157533169,0.221887886524,1.7478055954,0.131716623902,-0.144172668457,-0.00153309421148,0.179248809814,0.00376492971554,9.36066055298,0.253386318684,13.2694387436,94.040321350143,47.610134124714,36.94224929808,763
1.64952186749735E+018,77,1.64952186749735E+018,r1000913c5/base_footprint,0,1.64952186749735E+018,v/m1vw10zy74w/map,-5.66662132432,-0.743062903917,0,0,0,-0.015364382965,0.999881960901,0,65.4976577759,11.02323246,47.6314735413,94.8621520996,47.4247703552,47.4247703552,65.4976577759,65.4976577759,34.7333602905,0.278770029545,0,0.00477121304721,0.177853479981,0.189026430249,0.184255227447,1.60861682892,0.127346113324,-0.803016662598,-0.00853735953569,0.188106536865,0.00395074905828,1.12952041626,0.0314955301583,12.63184928892,94.059135437002,47.612876892065,35.86288070676,765
1.64952186759757E+018,78,1.64952186759757E+018,r1000913c5/base_footprint,0,1.64952186759757E+018,v/m1vw10zy74w/map,-5.54245323965,-0.708187394581,0,0,0,-0.0145169921971,0.999894622917,0,65.3463363647,10.7505073547,47.7952919006,94.7613754272,47.3529815674,47.3529815674,65.3463363647,65.3463363647,36.3190765381,0.343984007835,0,0.00452651688829,0.190253540874,0.160372793674,0.15584628284,1.65743350983,0.133578449488,-0.749160766602,-0.00796876009554,0.186687469482,0.00392698310316,-0.468872070312,-0.0130786439404,12.40794086453,94.012214660598,47.539669036882,35.850204467788,756
1.64952186769761E+018,79,1.64952186769761E+018,r1000913c5/base_footprint,0,1.64952186769761E+018,v/m1vw10zy74w/map,-5.41048994872,-0.709816268671,0,0,0,-0.0147665630259,0.999890968364,0,65.729927063,8.61344528198,47.7085227966,94.8277816772,47.4400062561,47.4400062561,65.729927063,65.729927063,30.5933876038,0.198818325996,0,0.00137585098855,0.207288339734,0.127245008945,0.12586915493,3.58593559265,0.293944060802,-0.801383972168,-0.00852296780795,0.225589752197,0.00473275827244,5.43209075928,0.150784701109,12.19938087463,94.026397705032,47.665596008297,36.02547836308,748
1.6495218677977E+018,80,1.6495218677977E+018,r1000913c5/base_footprint,0,1.6495218677977E+018,v/m1vw10zy74w/map,-5.26835775939,-0.734957054348,0,0,0,-0.0137914179958,0.999904893872,0,65.0459213257,12.9603061676,47.8446502686,94.728225708,47.572429657,47.572429657,65.0459213257,65.0459213257,43.9773330688,0.0488485842943,0,0.000711171480361,0.216898068786,0.102494210005,0.101783037186,-1.35919189453,-0.117160461843,-0.754974365234,-0.00803392846137,-0.00131225585938,-2.75851380138E-05,-7.44190597534,-0.203690126538,11.60111427307,93.973251342766,47.5711174011406,36.53542709346,737
1.64952186789825E+018,81,1.64952186789825E+018,r1000913c5/base_footprint,0,1.64952186789825E+018,v/m1vw10zy74w/map,-5.0213549679,-0.740682760784,0,0,0,-0.0118458703581,0.999929835216,0,65.119354248,2.27703976631,47.9417762756,94.8575744629,47.3305091858,47.3305091858,65.119354248,65.119354248,40.5084266663,0.196755811572,0,0.000455045083072,0.228619992733,0.0679886862636,0.0684437304735,8.25721931458,0.783844351768,-1.01998138428,-0.0108696455136,0.168025970459,0.00353749794886,-3.27165222168,-0.0878607854247,10.53425908089,93.83759307862,47.498535156259,37.23677444462,740
1.64952186799827E+018,82,1.64952186799827E+018,r1000913c5/base_footprint,0,1.64952186799827E+018,v/m1vw10zy74w/map,-4.82527073631,-0.742693866762,0,0,0,-0.00581916738536,0.999983068502,0,64.6679916382,1.02707755566,48.0677871704,94.6892547607,47.1577758789,47.1577758789,64.6679916382,64.6679916382,46.161441803,0.4696649611,0,0.00230340752751,0.244559779763,0.0392649136484,0.0415683239698,8.99196338654,0.897487401962,-0.637825012207,-0.006781661883,-1.92934799194,-0.0426578596234,-11.4492034912,-0.329831898212,10.0190409422,94.051429748493,45.22842788696,34.7122383118,1040
1.64952186809842E+018,83,1.64952186809842E+018,r1000913c5/base_footprint,0,1.64952186809842E+018,v/m1vw10zy74w/map,-4.57295198416,-0.742641669538,0,0,0,0.000998436000993,0.999999501563,0,64.8548355103,0,48.2524185181,94.4403762817,46.809715271,46.809715271,64.8548355103,64.8548355103,38.1432495117,0.510380327702,0,0.0021479036659,0.251368939877,0.0285950098187,0.0307429134846,9.48437023163,1,-0.473236083984,-0.00503618689254,-2.92601394653,-0.0666765496135,-5.09330749512,-0.154109418392,9.48437023163,93.967140197716,43.88370132447,33.04994201658,1328
1.6495218681975E+018,84,1.6495218681975E+018,r1000913c5/base_footprint,0,1.6495218681975E+018,v/m1vw10zy74w/map,-4.52832101675,-0.742423235297,0,0,0,0.00164141476802,0.999998652878,0,65.2933654785,2.11046242714,48.4089927673,94.5212860107,46.4600410461,46.4600410461,65.2933654785,65.2933654785,26.7644443512,0.849359750748,0,0.0039307102561,0.266739219427,0.0249225478619,0.028853258118,7.45750999451,0.779424309731,-0.514953613281,-0.00547786103562,-2.67084503174,-0.0609932430089,6.08682060242,0.185284212232,9.56797242165,94.006332397419,43.78919601436,32.85126495362,1362
1.64952186879851E+018,85,1.64952186879851E+018,r1000913c5/base_footprint,0,1.64952186879851E+018,v/m1vw10zy74w/map,-3.21267032508,-0.813308633345,0,0,0,-0.0908019602853,0.995868969297,0,63.1763000488,1.35746610165,48.5682907104,94.932762146,44.6436309814,44.6436309814,63.1763000488,63.1763000488,46.7357330322,-0.0511871539056,0,0.0116648683324,0.343904048204,0.0112626794726,0.0229275468737,6.55060815811,0.828344285488,-1.09623718262,-0.0116824144498,1.23374176025,0.0268921628594,-11.530292511,-0.327514499426,7.90807425976,93.83652496338,45.87737274165,35.2054405212,782
1.64952186889757E+018,86,1.64952186889757E+018,r1000913c5/base_footprint,0,1.64952186889757E+018,v/m1vw10zy74w/map,-3.03943566689,-0.855383858536,0,0,0,-0.113260814673,0.993565291191,0,63.1977119446,0.0933706834912,48.3502082825,95.3294219971,44.3538703918,44.3538703918,63.1977119446,63.1977119446,44.6489105225,0.637272298336,0,0.0128052337095,0.353313207626,0.00275601400062,0.0100492201746,8.09583091736,0.98859834671,-1.46759796143,-0.0156357288361,1.68651199341,0.0366311483085,-9.42946243286,-0.267734527588,8.1892016008512,93.86182403567,46.04038238521,35.21944808964,780
1.64952186899755E+018,87,1.64952186899755E+018,r1000913c5/base_footprint,0,1.64952186899755E+018,v/m1vw10zy74w/map,-2.68441847791,-0.952817178536,0,0,0,-0.138769329732,0.990324731149,0,63.38123703,0,47.938747406,94.5671310425,44.0012397766,44.0012397766,63.38123703,63.38123703,34.7928276062,-0.0251946803182,0,0.0119454171509,0.370696187019,0.0210201572627,0.00907474011183,9.84803962708,1,-0.785614013672,-0.00837706681341,2.20829772949,0.0477887876332,-1.36377334595,-0.0407960489392,9.84803962708,93.781517028828,46.20953750609,33.42905426025,737
1.64952186909745E+018,88,1.64952186909745E+018,r1000913c5/base_footprint,0,1.64952186909745E+018,v/m1vw10zy74w/map,-2.59861453218,-0.978263964573,0,0,0,-0.142144824979,0.9898458712,0,62.8939323425,9.80392169952,47.4844703674,94.5731048584,43.8961181641,43.8961181641,62.8939323425,62.8939323425,42.450504303,1.69848585129,0,0.0115078845993,0.380980223417,0.0208895243704,0.00938164070249,0.239401817322,0.0238369125873,-0.805046081543,-0.00858550425619,2.35048294067,0.0508249886334,-9.39401245117,-0.284180551767,10.043323516842,93.768058776857,46.24660110477,33.05649185183,728
1.6495218691976E+018,89,1.6495218691976E+018,r1000913c5/base_footprint,0,1.64952186919761E+018,v/m1vw10zy74w/map,-2.23344597543,-1.09169889013,0,0,0,-0.146330781806,0.989235716246,0,63.032043457,8.389585495,46.9741516113,94.0512084961,43.8745384216,43.8745384216,63.032043457,63.032043457,37.8526039124,1.78144085407,0,0.0105860251933,0.396025300026,0.0164470262825,0.00586100202054,1.99411201477,0.192042574286,-0.25691986084,-0.00273918453604,2.68350982666,0.057637937367,-5.06386566162,-0.154439181089,10.38369750977,93.79428863526,46.55804824826,32.78873825078,729
1.64952186929771E+018,90,1.64952186929771E+018,r1000913c5/base_footprint,0,1.64952186929771E+018,v/m1vw10zy74w/map,-2.04842037323,-1.13901760855,0,0,0,-0.148214537328,0.988955232012,0,62.6906242371,4.94117641449,46.3617897034,94.5686721802,44.0094833374,44.0094833374,62.6906242371,62.6906242371,47.318447113,2.41149663925,0,0.0114377047867,0.400880038738,0.0143934767693,0.00295577198267,5.54413318634,0.528752446175,-0.847511291504,-0.00904290191829,2.63039398193,0.05639795959,-14.3613090515,-0.435757160187,10.48530960083,93.721160888696,46.63987731933,32.9571380615,716
1.64952186939764E+018,91,1.64952186939764E+018,r1000913c5/base_footprint,0,1.64952186939764E+018,v/m1vw10zy74w/map,-1.86237769518,-1.19576465728,0,0,0,-0.14990633267,0.988700203007,0,62.8185882568,9.86717224121,45.7980194092,94.6115341187,44.2351493835,44.2351493835,62.8185882568,62.8185882568,47.6065406799,2.19086480141,0,0.0106202112511,0.416418790817,0.00705315731466,0.00356705393642,0.515011787415,0.0496053434908,-1.08335113525,-0.0115831512958,2.45227050781,0.0525252968073,-14.3514518738,-0.431556552649,10.382184028625,93.52818298345,46.68741989131,33.2550888061,724
1.64952186949802E+018,92,1.64952186949802E+018,r1000913c5/base_footprint,0,1.64952186949802E+018,v/m1vw10zy74w/map,-1.57355277378,-1.28393894556,0,0,0,-0.146824993995,0.9891624847,0,63.0333595276,5.88235282898,45.3371734619,94.4348907471,44.4383010864,44.4383010864,63.0333595276,63.0333595276,45.2987632751,2.39422488213,0,0.0104442602023,0.431091099977,0.00428164657205,0.0147259067744,4.35667419434,0.425496906042,-0.8720703125,-0.00932069309056,2.59561157227,0.0551859587431,-11.3157272339,-0.332981646061,10.23902702332,93.5628204346,47.03391265867,33.9830360412,691
1.64952186959833E+018,93,1.64952186959833E+018,r1000913c5/base_footprint,0,1.64952186959833E+018,v/m1vw10zy74w/map,-1.31563807915,-1.36281040635,0,0,0,-0.147595139768,0.989047862703,0,63.4454574585,8.95140647888,44.9717559814,93.8971481323,44.586643219,44.586643219,63.4454574585,63.4454574585,37.5472717285,2.03072595596,0,0.0110069150105,0.438763976097,0.0114675769582,0.0224744919688,1.74624347687,0.163236171007,-0.325492858887,-0.00347854127176,2.62519454956,0.0556045845151,-3.53890991211,-0.104059994221,10.69764995575,93.571655273413,47.21183776856,34.00836181639,686
1.64952186969812E+018,94,1.64952186969812E+018,r1000913c5/base_footprint,0,1.64952186969812E+018,v/m1vw10zy74w/map,-0.967100097128,-1.4711516601,0,0,0,-0.153254982427,0.988186677891,0,63.2039489746,4.28713846207,44.9504737854,93.8076705933,44.6534042358,44.6534042358,63.2039489746,63.2039489746,42.2932624817,1.91754555702,0,0.0135923260823,0.453147798777,0.0484488978982,0.0620412230492,6.26748418808,0.593814134598,-0.11799621582,-0.00125943671446,2.83491516113,0.0596971027553,-9.34910202026,-0.283786326647,10.55462265015,93.68967437748,47.48831939693,32.94416046144,697
1.64952186979751E+018,95,1.64952186979751E+018,r1000913c5/base_footprint,0,1.64952186979751E+018,v/m1vw10zy74w/map,-0.96831022804,-1.46922688317,0,0,0,-0.152558958216,0.988294371262,0,63.8643264771,11.5216331482,44.8356628418,94.1700592041,44.7500457764,44.7500457764,63.8643264771,63.8643264771,32.7548332214,2.5594367981,0,0.0176570191979,0.469420671463,0.0901411548257,0.107798174024,-0.967010498047,-0.091619618237,-0.48038482666,-0.00512740435079,2.73827362061,0.0576620437205,0.18932723999,0.00574691360816,10.554622650153,93.68967437744,47.48831939701,32.94416046139,697
1.64952186989757E+018,96,1.64952186989757E+018,r1000913c5/base_footprint,0,1.64952186989757E+018,v/m1vw10zy74w/map,-0.632454633386,-1.57380411266,0,0,0,-0.172038288773,0.985090263476,0,63.8573150635,1.17647063732,44.8365097046,94.1981048584,44.556640625,44.556640625,63.8573150635,63.8573150635,30.893239975,1.47257053852,0,0.0214420016855,0.479561984539,0.108723044395,0.130165040493,9.1910238266,0.886523127556,-0.461990356445,-0.00492862705141,3.0400428772,0.0638708993793,1.71130943298,0.0524868294597,10.36749446392,93.736114501955,47.5966835022,32.60454940798,726
1.64952186999855E+018,97,1.64952186999855E+018,r1000913c5/base_footprint,0,1.64952186999855E+018,v/m1vw10zy74w/map,-0.317210703869,-1.7122183542,0,0,0,-0.222452678974,0.974943488422,0,63.5003013611,0,44.8340682983,94.043548584,44.1162948608,44.1162948608,63.5003013611,63.5003013611,32.007358551,2.19385313988,0,0.0244036559016,0.485903054476,0.120906151831,0.14530980587,10.4261159897,1,-0.275955200195,-0.00294296978973,3.46747589111,0.0728709772229,1.02082824707,0.0309077892452,10.4261159897,93.767593383805,47.58377075191,33.02818679807,703
1.64952187009755E+018,98,1.64952187009755E+018,r1000913c5/base_footprint,0,1.64952187009755E+018,v/m1vw10zy74w/map,-0.140998211492,-1.80312843735,0,0,0,-0.250672301259,0.968072000102,0,63.1291236877,0,44.9319458008,94.579788208,43.6981811523,43.6981811523,63.1291236877,63.1291236877,36.10338974,2.39963722229,0,0.0301723629236,0.504950106144,0.149480625987,0.179652988911,10.6476078033,1,-0.831809997559,-0.0088728312403,3.92500305176,0.0824179053307,-2.37354278564,-0.0703692138195,10.6476078033,93.747978210441,47.62318420406,33.72984695436,681
1.64952187019757E+018,99,1.64952187019757E+018,r1000913c5/base_footprint,0,1.64952187019757E+018,v/m1vw10zy74w/map,0.0238251594438,-1.90403543827,0,0,0,-0.284668161261,0.958626120009,0,62.7092170715,0,45.0477256775,94.3905487061,43.1919250488,43.1919250488,62.7092170715,62.7092170715,37.5128440857,-3.10539507866,0,0.032011538744,0.517790079117,0.131521329284,0.163532868028,11.2255525589,1,-0.648246765137,-0.00691520003602,4.41994476318,0.0928328335285,-2.90017700195,-0.0837894678116,11.2255525589,93.742301940963,47.61186981198,34.61266708375,638
1.6495218702981E+018,100,1.6495218702981E+018,r1000913c5/base_footprint,0,1.6495218702981E+018,v/m1vw10zy74w/map,0.326946499777,-2.13175145758,0,0,0,-0.356440289993,0.934318104111,0,62.4128990173,0,45.3744621277,93.6288299561,42.747959137,42.747959137,62.4128990173,62.4128990173,35.3095779419,-0.880060076714,0,0.0322316288948,0.527189850807,0.0922376960516,0.124469324946,11.6777057648,1,0.0408782958984,0.0004364089109,4.6531791687,0.0981659814715,0.494087219238,0.013799905777,11.6777057648,93.6697082519984,47.4011383057,35.803665161138,641
1.64952187039834E+018,101,1.64952187039834E+018,r1000913c5/base_footprint,0,1.64952187039834E+018,v/m1vw10zy74w/map,0.463199877517,-2.26612982262,0,0,0,-0.391878056631,0.920017167629,0,61.4756355286,0,45.5987930298,93.748298645,42.320690155,42.320690155,61.4756355286,61.4756355286,47.9958953857,1.54677784443,0,0.0275519378483,0.576587915421,0.0164074171335,0.0439593568444,11.9931602478,1,-0.0395431518555,-0.000421979260864,5.12357330322,0.107991419733,-12.0186424255,-0.334062248468,11.9931602478,93.7087554931445,47.44426345822,35.9772529602,642
1.64952187049745E+018,102,1.64952187049745E+018,r1000913c5/base_footprint,0,1.64952187049745E+018,v/m1vw10zy74w/map,0.654881397966,-2.4813583028,0,0,0,-0.437632321048,0.89915401994,0,61.0880279541,0,45.8497695923,92.7545928955,41.925994873,41.925994873,61.0880279541,61.0880279541,47.1327590942,-0.472348451614,0,0.0195561163127,0.639636337757,0.0406823940575,0.0211262758821,12.5634317398,1,0.996757507324,0.0106319272891,5.2855758667,0.111955091357,-10.7281265259,-0.294691234827,12.5634317398,93.751350402824,47.2115707397,36.4046325683,694
