%time,field.header.seq,field.header.stamp,field.header.frame_id,field.pose.header.seq,field.pose.header.stamp,field.pose.header.frame_id,field.pose.pose.position.x,field.pose.pose.position.y,field.pose.pose.position.z,field.pose.pose.orientation.x,field.pose.pose.orientation.y,field.pose.pose.orientation.z,field.pose.pose.orientation.w,field.label,field.main_output,field.scan_score,field.pose_score,field.cov_score,field.lhood_map_score,field.lhood_robot_score,field.lhood_map_score_all,field.lhood_robot_score_all,field.point_angle_diff,field.average_orientation,field.map_average_orientation,field.sensor_div,field.odom_div_x,field.odom_div_w,field.imu_div_w,field.kdtree_div,field.kdtree_div_p,field.cov_div,field.cov_div_p,field.likelihood_div,field.likelihood_div_p,field.normal_diff_div,field.normal_diff_div_p,field.kdtree_average,field.cov_average,field.likelihood_average,field.normal_diff_average,field.map_update_count
1.64950469429075E+018,0,1.64950469429075E+018,r1000913c5/base_footprint,0,1.64950469429075E+018,v/m1vw10zy74w/map,-11.4830135154,-0.672217831142,0,0,0,-0.999978766448,0.00651664436158,0,63.3220291138,13.6622390747,100,93.8862380981,44.2741928101,44.2741928101,63.3220291138,63.3220291138,36.3551902771,0.432886958122,0,0.000616545556113,0.700318396091,0.0451163910329,0.0444998443127,11.3177757263,0.453073233366,1.01504516602,0.0106958001852,3.34385299683,0.0702223926783,-4.11002349854,-0.12746168673,24.980014801,94.90128326412,47.61804580693,32.24516677856,2016
1.64950469439261E+018,1,1.64950469439261E+018,r1000913c5/base_footprint,0,1.64950469439261E+018,v/m1vw10zy74w/map,-11.4830135154,-0.672217831142,0,0,0,-0.999978766448,0.00651664436158,0,63.8773155212,40.7407417297,48.6866226196,93.8862380981,44.7934417725,44.7934417725,63.8773155212,63.8773155212,31.9679145813,0.249164581299,0,0.00257732043974,0.722641885281,0.0614530332386,0.0588757097721,-15.7607269287,-0.630933463573,1.01504516602,0.0106958001852,2.82460403442,0.0593179315329,0.277252197266,0.00859825592488,24.980014801,94.90128326412,47.61804580692,32.245166778566,2016
1.64950469448958E+018,2,1.64950469448958E+018,r1000913c5/base_footprint,0,1.64950469448958E+018,v/m1vw10zy74w/map,-11.4830135154,-0.672217831142,0,0,0,-0.999978766448,0.00651664436158,0,63.7407722473,33.7690620422,48.8325538635,93.8862380981,45.2496528625,45.2496528625,63.7407722473,63.7407722473,39.3528060913,0.130998045206,0,0.00166144955438,0.72435259819,0.092000938952,0.0903394892812,-8.78904724121,-0.35184314847,1.01504516602,0.0106958001852,2.36839294434,0.0497372969985,-7.10763931274,-0.220424950123,24.98001480099,94.90128326412,47.61804580684,32.24516677856,2016
1.64950469458964E+018,3,1.64950469458964E+018,r1000913c5/base_footprint,0,1.64950469458964E+018,v/m1vw10zy74w/map,-11.5504889254,-0.673903492465,0,0,0,-0.998012000447,0.0630241776168,0,64.1279678345,29.4117641449,48.8974571228,94.2917404175,45.6239471436,45.6239471436,64.1279678345,64.1279678345,37.8855323792,0.366731703281,0,0.00391494994983,0.708626687527,0.112623699009,0.108708754182,-4.12742042542,-0.163240164518,0.635887145996,0.0066986521706,2.0238571167,0.0424753502011,-5.81953811646,-0.181486278772,25.28434371948,94.927627563496,47.6478042603,32.06599426274,1996
1.64950469468964E+018,4,1.64950469468964E+018,r1000913c5/base_footprint,0,1.64950469468964E+018,v/m1vw10zy74w/map,-11.5527807816,-0.676944648605,0,0,0,-0.992537091924,0.121943106225,0,64.4049301147,29.5835113525,53.6261863708,94.3592758179,45.8308944702,45.8308944702,64.4049301147,64.4049301147,35.3782424927,0.153386056423,0,0.00490797683597,0.689938426018,0.0977512747049,0.0928433015943,-4.29916763306,-0.170032799244,0.568351745605,0.00598721113056,1.81690979004,0.0381320789456,-3.31224822998,-0.103294730186,25.28434371944,94.927627563505,47.64780426024,32.06599426272,1996
1.64950469478961E+018,5,1.64950469478961E+018,r1000913c5/base_footprint,0,1.64950469478961E+018,v/m1vw10zy74w/map,-11.5527807816,-0.676944648605,0,0,0,-0.992537091924,0.121943106225,0,64.7309799194,29.5900173187,58.6389884949,94.3592758179,45.9235610962,45.9235610962,64.7309799194,64.7309799194,30.5102806091,0.192233040929,0,0.00496914004907,0.675688564777,0.0844074636698,0.079438328743,-4.30567359924,-0.170290112495,0.568351745605,0.00598721113056,1.72424316406,0.0361872538924,1.55571365356,0.0485159978271,25.28434371946,94.927627563505,47.64780426026,32.06599426266,1996
1.64950469488949E+018,6,1.64950469488949E+018,r1000913c5/base_footprint,0,1.64950469488949E+018,v/m1vw10zy74w/map,-11.5543105753,-0.678219555306,0,0,0,-0.983572486777,0.18051360961,0,64.5545349121,26.3583297729,59.9597740173,94.3846664429,45.8808250427,45.8808250427,64.5545349121,64.5545349121,33.3160324097,0.269948273897,0,0.00459523079917,0.655090868473,0.0738091617823,0.0692139267921,-1.07398605347,-0.0424763262272,0.542961120605,0.00571973761544,1.76697921753,0.0370841696858,-1.25003814697,-0.038983296603,25.28434371943,94.927627563505,47.64780426023,32.06599426273,1996
1.64950469499002E+018,7,1.64950469499002E+018,r1000913c5/base_footprint,0,1.64950469499002E+018,v/m1vw10zy74w/map,-11.5568444864,-0.680515383176,0,0,0,-0.969730588094,0.244177366917,0,64.7471008301,26.2510967255,57.4746398926,94.5720672607,45.8516960144,45.8516960144,64.7471008301,64.7471008301,30.2098884583,0.441856235266,0,0.00490572862327,0.630090177059,0.0644676238298,0.0595618933439,-0.966753005981,-0.0382352434099,0.355560302734,0.00374559336342,1.79610824585,0.0376955084503,1.85610580444,0.0578839294612,25.284343719519,94.927627563434,47.64780426025,32.06599426274,1996
1.64950469509047E+018,8,1.64950469509047E+018,r1000913c5/base_footprint,0,1.64950469509047E+018,v/m1vw10zy74w/map,-11.5508328817,-0.677765859079,0,0,0,-0.955660058509,0.294472159244,0,64.7948989868,30.2520999908,50.8558998108,94.5775756836,45.7779579163,45.7779579163,64.7948989868,64.7948989868,28.5730171204,0.333944737911,0,0.00503814313561,0.615079343319,0.0585714392364,0.0535332970321,-4.96775627136,-0.196475580335,0.350051879883,0.00368756591342,1.86984634399,0.0392430759966,3.49297714233,0.108930885792,25.28434371944,94.927627563483,47.64780426029,32.06599426273,1996
1.64950469518984E+018,9,1.64950469518984E+018,r1000913c5/base_footprint,0,1.64950469518984E+018,v/m1vw10zy74w/map,-11.5522276023,-0.678623704662,0,0,0,-0.938665457155,0.34482917444,0,64.7304458618,29.5835113525,48.1992683411,94.6187286377,45.6563644409,45.6563644409,64.7304458618,64.7304458618,28.5681171417,0.213772162795,0,0.00577164953575,0.593757748604,0.045059684664,0.0392880365252,-4.29916763306,-0.170032799244,0.308898925781,0.00325404666364,1.99143981934,0.0417949967086,3.49787712097,0.1090836972,25.28434371944,94.927627563481,47.64780426024,32.06599426267,1996
1.64950469529001E+018,10,1.64950469529001E+018,r1000913c5/base_footprint,0,1.64950469529001E+018,v/m1vw10zy74w/map,-11.5544720562,-0.682514147511,0,0,0,-0.938557886249,0.345121854074,0,64.4320983887,29.4117641449,47.6296958923,94.7191085815,45.4722099304,45.4722099304,64.4320983887,64.4320983887,32.3109321594,0.26481461525,0,0.00538065610453,0.571764230728,0.0256237145513,0.0202430579811,-4.12742042542,-0.163240164518,0.208518981934,0.00219660997391,2.17559432983,0.0456599071622,-0.244937896729,-0.00763855595142,25.28434371948,94.927627563434,47.64780426023,32.065994262671,1996
1.64950469538956E+018,11,1.64950469538956E+018,r1000913c5/base_footprint,0,1.64950469538956E+018,v/m1vw10zy74w/map,-11.5541588755,-0.677246767782,0,0,0,-0.91574133826,0.401768342957,0,64.3758392334,31.1546840668,47.214176178,94.7928543091,45.2531356812,45.2531356812,64.3758392334,64.3758392334,31.2230796814,0.26118272543,0,0.00516982842237,0.501598536968,0.00794073287398,0.00277090468444,-5.87034034729,-0.232172936201,0.134773254395,0.00141974736471,2.3946685791,0.0502576902509,0.842914581299,0.0262868683785,25.28434371951,94.927627563495,47.6478042603,32.065994262699,1996
1.64950469549E+018,12,1.64950469549E+018,r1000913c5/base_footprint,0,1.64950469549E+018,v/m1vw10zy74w/map,-11.5528512544,-0.671772021291,0,0,0,-0.892826625622,0.450400506861,0,64.1938323975,29.4117641449,46.8546676636,94.518913269,44.8974533081,44.8974533081,64.1938323975,64.1938323975,29.6716213226,0.225967437029,0,0.00546207418665,0.434863239527,0.000119658252515,0.00534241599962,-4.12742042542,-0.163240164518,0.408714294434,0.00430553592741,2.75035095215,0.0577225126326,2.39437294006,0.0746701583266,25.28434371948,94.927627563434,47.64780426025,32.06599426266,1996
1.64950469558959E+018,13,1.64950469558959E+018,r1000913c5/base_footprint,0,1.64950469558959E+018,v/m1vw10zy74w/map,-11.5556321102,-0.674477351064,0,0,0,-0.867104303049,0.498126618074,0,64.04737854,27.5362319946,45.9614372253,94.6970291138,44.6330718994,44.6330718994,64.04737854,64.04737854,30.0936355591,0.134614869952,0,0.0054886629805,0.322108447552,0.0206702705473,0.0261589344591,-2.25188827515,-0.0890625566244,0.230598449707,0.00242920266464,3.01473236084,0.0632711723447,1.97235870361,0.0615093559027,25.28434371945,94.927627563507,47.64780426024,32.06599426271,1996
1.64950469569038E+018,14,1.64950469569038E+018,r1000913c5/base_footprint,0,1.64950469569038E+018,v/m1vw10zy74w/map,-11.5534583103,-0.676890760841,0,0,0,-0.862422331651,0.506189413036,0,63.8428039551,26.7791023254,45.0830802917,94.7044906616,44.471862793,44.471862793,63.8428039551,63.8428039551,32.0618247986,0.314533561468,0,0.00546434242278,0.232752785087,0.0352726951241,0.0407370366156,-1.49475860596,-0.0591179504991,0.223136901855,0.0023506002035,3.17594146729,0.0666545182467,0.00416946411133,0.000130027590785,25.28434371944,94.927627563455,47.64780426029,32.0659942627113,1996
1.64950469578995E+018,15,1.64950469578995E+018,r1000913c5/base_footprint,0,1.64950469578995E+018,v/m1vw10zy74w/map,-11.5500748375,-0.678138194787,0,0,0,-0.833417976007,0.552643173548,0,63.9324226379,29.2472229004,44.3360671997,95.3781051636,44.3449554443,44.3449554443,63.9324226379,63.9324226379,31.5030994415,0.298547536135,0,0.00494240177795,0.180894419551,0.0508324019611,0.0557748042047,-3.96287918091,-0.156732529402,-0.450477600098,-0.00474548479542,3.30284881592,0.0693179666996,0.562894821167,0.0175542607903,25.28434371949,94.927627563502,47.64780426022,32.065994262667,1996
1.64950469589026E+018,16,1.64950469589026E+018,r1000913c5/base_footprint,0,1.64950469589026E+018,v/m1vw10zy74w/map,-11.5527300849,-0.681290788398,0,0,0,-0.796811601763,0.60422783062,0,64.0051269531,29.5774650574,43.8943138123,95.8356323242,44.1886291504,44.1886291504,64.0051269531,64.0051269531,30.1531429291,0.235218316317,0,0.00434904359281,0.154448315501,0.062300581485,0.0666496232152,-4.29312133789,-0.169793665409,-0.908004760742,-0.0095652313903,3.45917510986,0.072598837316,1.91285133362,0.0596535801888,25.28434371951,94.927627563458,47.64780426026,32.06599426272,1996
1.6495046959909E+018,17,1.6495046959909E+018,r1000913c5/base_footprint,0,1.6495046959909E+018,v/m1vw10zy74w/map,-11.5527300849,-0.681290788398,0,0,0,-0.796811601763,0.60422783062,0,63.9592781067,23.732252121,43.5067024231,95.8356323242,44.1373519897,44.1373519897,63.9592781067,63.9592781067,30.4247093201,0.295275777578,0,0.00406048120931,0.141328588128,0.0696592032909,0.0737196803093,1.55209159851,0.0613854825497,-0.908004760742,-0.0095652313903,3.51045227051,0.073675006628,1.64128494263,0.0511845946312,25.28434371951,94.927627563458,47.64780426021,32.06599426273,1996
1.64950469608966E+018,18,1.64950469608966E+018,r1000913c5/base_footprint,0,1.64950469608966E+018,v/m1vw10zy74w/map,-11.5546595515,-0.683021992657,0,0,0,-0.759097168088,0.650977334015,0,63.9221496582,23.4488315582,42.7920646667,96.222946167,44.0914230347,44.0914230347,63.9221496582,63.9221496582,31.9913043976,0.185403943062,0,0.00392112229019,0.132892400026,0.075783520937,0.0797046422958,1.83551216125,0.0725948140025,-1.29531860352,-0.01364532765,3.55638122559,0.0746389329433,0.0746898651123,0.00232925452292,25.28434371945,94.92762756348,47.64780426029,32.0659942627123,1996
1.64950469628987E+018,19,1.64950469628987E+018,r1000913c5/base_footprint,0,1.64950469628987E+018,v/m1vw10zy74w/map,-11.5546595515,-0.683021992657,0,0,0,-0.759097168088,0.650977334015,0,63.8679656982,24.0196075439,42.1099281311,96.222946167,44.1107559204,44.1107559204,63.8679656982,63.8679656982,33.1753730774,0.249173402786,0,0.00383112556301,0.127825707197,0.0798287391663,0.0836598649621,1.26473617554,0.0500205270946,-1.29531860352,-0.01364532765,3.53704833984,0.0742331892252,-1.1093788147,-0.0345967374742,25.28434371944,94.92762756348,47.64780426024,32.0659942627,1996
1.64950469718965E+018,20,1.64950469718965E+018,r1000913c5/base_footprint,0,1.64950469718965E+018,v/m1vw10zy74w/map,-11.5566040887,-0.682374877781,0,0,0,-0.721896369262,0.692001179223,0,63.9879150391,29.5774650574,41.5952796936,96.4988861084,44.202495575,44.202495575,63.9879150391,63.9879150391,33.0004501343,0.2604162395,0,0.000935408927035,0.000882949738298,0.246027901769,0.245092496276,-4.29312133789,-0.169793665409,-1.57125854492,-0.0165521726012,3.4453086853,0.0723078176379,-0.934455871582,-0.0291416458786,25.28434371951,94.92762756348,47.6478042603,32.065994262718,1996
1.64950469728991E+018,21,1.64950469728991E+018,r1000913c5/base_footprint,0,1.64950469728991E+018,v/m1vw10zy74w/map,-11.5566040887,-0.682374877781,0,0,0,-0.721896369262,0.692001179223,0,63.8807487488,24.4310855865,41.2279968262,96.4988861084,44.2253112793,44.2253112793,63.8807487488,63.8807487488,35.1758346558,0.309672892094,0,0.00243511982262,0.0177268516272,0.261273413897,0.258838295937,0.853258132935,0.0337464995682,-1.57125854492,-0.0165521726012,3.42249298096,0.0718289762735,-3.10984039307,-0.0969825014472,25.284343719435,94.92762756348,47.64780426026,32.06599426273,1996
1.64950469739032E+018,22,1.64950469739032E+018,r1000913c5/base_footprint,0,1.64950469739032E+018,v/m1vw10zy74w/map,-11.5566040887,-0.682374877781,0,0,0,-0.721896369262,0.692001179223,0,63.8359680176,23.5723495483,41.1175270081,96.4988861084,44.2276000977,44.2276000977,63.8359680176,63.8359680176,36.0066604614,0.247051775455,0,0.00292083295062,0.0613416731358,0.284916549921,0.281995713711,1.71199417114,0.0677096545696,-1.57125854492,-0.0165521726012,3.4202041626,0.0717809423804,-3.94066619873,-0.12289237231,25.28434371944,94.92762756348,47.6478042603,32.06599426267,1996
1.64950469749047E+018,23,1.64950469749047E+018,r1000913c5/base_footprint,0,1.64950469749047E+018,v/m1vw10zy74w/map,-11.5566040887,-0.682374877781,0,0,0,-0.721896369262,0.692001179223,0,63.9712142944,19.2786598206,41.2121620178,96.4988861084,44.1661529541,44.1661529541,63.9712142944,63.9712142944,32.9085769653,0.288096398115,0,0.00486600026488,0.0876562446356,0.294191300869,0.289325296879,6.00568389893,0.23752579093,-1.57125854492,-0.0165521726012,3.48165130615,0.0730705484748,-0.842582702637,-0.0262765195221,25.28434371953,94.92762756348,47.64780426025,32.065994262663,1996
1.64950469758988E+018,24,1.64950469758988E+018,r1000913c5/base_footprint,0,1.64950469758988E+018,v/m1vw10zy74w/map,-11.5665727348,-0.804387477001,0,0,0,-0.734559902449,0.678543845094,0,63.6397514343,20.7342510223,41.5542106628,96.0903091431,44.1275520325,44.1275520325,63.6397514343,63.6397514343,36.9871368408,0.184712782502,0,0.00501635763794,0.0810373201966,0.261214494705,0.256198137999,5.13998985291,0.198652774096,-1.12008666992,-0.0117940828204,3.47807312012,0.0730601325631,-5.12125968933,-0.160712972283,25.87424087521,94.97022247318,47.60562515262,31.86587715147,2110
1.64950469768975E+018,25,1.64950469768975E+018,r1000913c5/base_footprint,0,1.64950469768975E+018,v/m1vw10zy74w/map,-11.5830635721,-0.921124608987,0,0,0,-0.760592402845,0.649229694896,0,63.8038101196,25.7405090332,42.13804245,96.294921875,44.1112518311,44.1112518311,63.8038101196,63.8038101196,34.5946540833,0.295909702778,0,0.00557970814407,0.0722856745124,0.211903363466,0.20632365346,1.07432937622,0.0400647334754,-1.31425476074,-0.0138370767236,3.42135238647,0.0719790682197,-3.03858375549,-0.0962915793061,26.81483840942,94.98066711426,47.53260421757,31.55607032781,2150
1.64950469778972E+018,26,1.64950469778972E+018,r1000913c5/base_footprint,0,1.64950469778972E+018,v/m1vw10zy74w/map,-11.5828001468,-0.923548634421,0,0,0,-0.759176765136,0.65088450533,0,63.973575592,28.1045761108,42.9632263184,96.6363372803,44.1619300842,44.1619300842,63.973575592,63.973575592,33.3152694702,0.258337289095,0,0.00413494044915,0.0661272853613,0.181236281991,0.17710134387,-1.28973770142,-0.0480979122221,-1.65567016602,-0.017431654036,3.3706741333,0.0709128826857,-1.75919914246,-0.0557483583689,26.81483840938,94.98066711428,47.5326042175,31.55607032774,2150
1.64950469788977E+018,27,1.64950469788977E+018,r1000913c5/base_footprint,0,1.64950469788977E+018,v/m1vw10zy74w/map,-11.5828001468,-0.923548634421,0,0,0,-0.759176765136,0.65088450533,0,64.4393157959,35.8288764954,43.9183425903,96.6363372803,44.3716125488,44.3716125488,64.4393157959,64.4393157959,27.1965751648,0.264943271875,0,0.00355908065103,0.0591066069901,0.167723476887,0.164164409041,-9.01403808594,-0.336158573627,-1.65567016602,-0.017431654036,3.1609916687,0.0665015429258,4.35949516296,0.138150766492,26.81483840946,94.98066711428,47.5326042175,31.55607032776,2150
1.6495046979898E+018,28,1.6495046979898E+018,r1000913c5/base_footprint,0,1.6495046979898E+018,v/m1vw10zy74w/map,-11.6043443478,-1.03887735241,0,0,0,-0.758999901948,0.651090737796,0,64.5163116455,35.3769683838,44.7257232666,96.5285720825,44.78515625,44.78515625,64.5163116455,64.5163116455,29.8889198303,0.317385405302,0,0.00378915644251,0.0530682839453,0.158231750131,0.154442593455,-7.71225357056,-0.278775811195,-1.54491424561,-0.016265053302,2.67218399048,0.0563070736825,1.45156097412,0.0463158488274,27.66471481324,94.98365783689,47.45734024048,31.34048080442,2065
1.64950469808955E+018,29,1.64950469808955E+018,r1000913c5/base_footprint,0,1.64950469808955E+018,v/m1vw10zy74w/map,-11.6239741571,-1.14820400501,0,0,0,-0.749026945543,0.662539534557,0,64.6890411377,41.1764717102,45.3339691162,96.1555099487,45.1121940613,45.1121940613,64.6890411377,64.6890411377,28.9687767029,0.234196379781,0,0.00371275492944,0.0469745956361,0.147673904896,0.143961146474,-11.7285346985,-0.398280352354,-1.08676147461,-0.0114313224331,2.37973022461,0.0501081012189,1.69874000549,0.0553921610117,29.4479370117,95.06874847409,47.49192428591,30.66751670839,1802
1.64950469819003E+018,30,1.64950469819003E+018,r1000913c5/base_footprint,0,1.64950469819003E+018,v/m1vw10zy74w/map,-11.6270557083,-1.16172088748,0,0,0,-0.74702111222,0.664800314303,0,65.0078964233,40.3594779968,45.7790145874,96.32421875,45.4266700745,45.4266700745,65.0078964233,65.0078964233,27.2331619263,0.31773519516,0,0.00345389475115,0.0394455008209,0.139280602336,0.135826706886,-7.96236038208,-0.245773732662,-1.0202331543,-0.0107050416991,1.99042129517,0.0419768728316,2.27608108521,0.0771311223507,32.39711761472,95.3039855957,47.41709136967,29.50924301151,1185
1.64950469829093E+018,31,1.64950469829093E+018,r1000913c5/base_footprint,0,1.64950469829093E+018,v/m1vw10zy74w/map,-11.6335710171,-1.2875249594,0,0,0,-0.731349457902,0.682002910864,0,65.0635757446,42.810459137,46.105758667,95.8477783203,45.6249732971,45.6249732971,65.0635757446,65.0635757446,26.6573829651,0.260484099388,0,0.00339460629039,0.0334011502564,0.131187349558,0.127792745829,-8.39449310303,-0.243912756443,-0.360076904297,-0.00377092440613,1.71462631226,0.0362197048962,2.01425552368,0.0702525451779,34.41596603397,95.487701416003,47.33959960936,28.67163848878,1002
1.64950469838969E+018,32,1.64950469838969E+018,r1000913c5/base_footprint,0,1.64950469838969E+018,v/m1vw10zy74w/map,-11.6335710171,-1.2875249594,0,0,0,-0.731349457902,0.682002910864,0,65.1837005615,44.444442749,46.3416824341,95.8477783203,45.7631721497,45.7631721497,65.1837005615,65.1837005615,25.9876194,0.269183963537,0,0.00278141535819,0.0274690371007,0.124133989215,0.121352568269,-10.0284767151,-0.291390240192,-0.360076904297,-0.00377092440613,1.57642745972,0.033300396055,2.68401908875,0.0936123356223,34.4159660339,95.487701416003,47.33959960942,28.67163848875,1002
1.64950469848974E+018,33,1.64950469848974E+018,r1000913c5/base_footprint,0,1.64950469848974E+018,v/m1vw10zy74w/map,-11.6368584286,-1.39892960225,0,0,0,-0.717566216638,0.696490290485,0,65.2554931641,40.3594779968,46.1648826599,96.0228729248,45.8354644775,45.8354644775,65.2554931641,65.2554931641,26.106464386,0.324744790792,0,0.00231535849161,0.021447841078,0.125272780657,0.122957415879,-4.71109771729,-0.132154613733,-0.523529052734,-0.0054820170626,1.65301895142,0.0348088368773,2.02938652039,0.0721281394362,35.64838027951,95.499343872066,47.48848342892,28.13585090639,984
1.64950470208962E+018,34,1.64950470208962E+018,r1000913c5/base_footprint,0,1.64950470208962E+018,v/m1vw10zy74w/map,-11.6422683137,-2.17034733312,0,0,0,-0.703172118485,0.711019670463,0,65.3664703369,38.6909675598,45.7647209167,95.8674545288,45.9765663147,45.9765663147,65.3664703369,65.3664703369,25.0732479095,0.307955801487,0,0.000106442261313,0.0365868322551,0.00693890731782,0.00683246506378,-6.76378440857,-0.211850330234,0.123222351074,0.00128369079903,1.35543441772,0.0286367442459,-6.64623260498,-0.360678732395,31.92718315123,95.990676879874,47.33200073242,18.42701530452,1472
1.64950470219075E+018,35,1.64950470219075E+018,r1000913c5/base_footprint,0,1.64950470219075E+018,v/m1vw10zy74w/map,-11.6422683137,-2.17034733312,0,0,0,-0.703172118485,0.711019670463,0,64.8637695312,34.4537811279,44.6850585938,95.8674545288,46.0667686462,46.0667686462,64.8637695312,64.8637695312,35.09608078,1.14608359337,0,8.05318850325E-05,0.0339751131833,0.00636824360117,0.00628771167248,-2.52659797668,-0.0791362598538,0.123222351074,0.00128369079903,1.26523208618,0.0267310086638,-16.6690654755,-0.904599308968,31.92718315122,95.990676879874,47.33200073238,18.4270153045,1472
1.64950470648951E+018,36,1.64950470648951E+018,r1000913c5/base_footprint,0,1.64950470648951E+018,v/m1vw10zy74w/map,-11.6469667246,-2.38009593834,0,0,0,-0.706749178165,0.70746420345,0,65.022895813,35.2088661194,43.6821022034,96.1722564697,46.1615409851,46.1615409851,65.022895813,65.022895813,34.3526763916,1.17119514942,0,0.00285759661347,0.165675699711,0.0500082522631,0.0528658479452,-4.2313041687,-0.136592552066,-0.141761779785,-0.00147621624637,1.09749984741,0.0232230667025,-16.6523170471,-0.940789759159,30.9775619507,96.030494689915,47.25904083251,17.7003593445,1316
1.64950470658969E+018,37,1.64950470658969E+018,r1000913c5/base_footprint,0,1.64950470658969E+018,v/m1vw10zy74w/map,-11.6469667246,-2.38009593834,0,0,0,-0.706749178165,0.70746420345,0,65.033706665,27.6688461304,42.7231712341,96.1722564697,45.9009399414,45.9009399414,65.033706665,65.033706665,31.3435192108,1.33424830437,0,0.00294865295291,0.192360579967,0.0541165694594,0.0570652224123,3.30871582031,0.106810078025,-0.141761779785,-0.00147621624637,1.35810089111,0.0287373773754,-13.6431598663,-0.770784318447,30.97756195071,96.030494689915,47.25904083251,17.7003593445,1316
1.64950470668947E+018,38,1.64950470668947E+018,r1000913c5/base_footprint,0,1.64950470668947E+018,v/m1vw10zy74w/map,-11.6469667246,-2.38009593834,0,0,0,-0.706749178165,0.70746420345,0,65.1017150879,26.4705886841,42.1898765564,96.1722564697,45.7056999207,45.7056999207,65.1017150879,65.1017150879,28.0107746124,1.32578372955,0,0.00303261750378,0.218330219388,0.0619209632277,0.0649535804987,4.5069732666,0.145491540432,-0.141761779785,-0.00147621624637,1.55334091187,0.0328686498106,-10.3104152679,-0.582497537136,30.9775619507,96.030494689915,47.25904083257,17.7003593445,1316
1.6495047067895E+018,39,1.6495047067895E+018,r1000913c5/base_footprint,0,1.6495047067895E+018,v/m1vw10zy74w/map,-11.6469667246,-2.38009593834,0,0,0,-0.706749178165,0.70746420345,0,65.4428787231,27.2111721039,41.7764015198,96.1722564697,45.6545562744,45.6545562744,65.4428787231,65.4428787231,21.3174934387,1.28834474087,0,0.00299061997794,0.215626165271,0.0646618977189,0.067652516067,3.7663898468,0.121584452689,-0.141761779785,-0.00147621624637,1.60448455811,0.0339508503675,-3.61713409424,-0.204353705049,30.9775619507,96.030494689915,47.25904083251,17.70035934446,1316
1.64950470688968E+018,40,1.64950470688968E+018,r1000913c5/base_footprint,0,1.64950470688968E+018,v/m1vw10zy74w/map,-11.6469667246,-2.38009593834,0,0,0,-0.706749178165,0.70746420345,0,65.0645523071,29.9307956696,41.5687141418,96.1722564697,45.606010437,45.606010437,65.0645523071,65.0645523071,27.6030368805,1.28523075581,0,0.00295514333993,0.210057556629,0.0665111467242,0.0694662854075,1.04676628113,0.0337911136448,-0.141761779785,-0.00147621624637,1.65303039551,0.0349780768156,-9.90267753601,-0.559461951256,30.97756195073,96.030494689915,47.25904083251,17.70035934449,1316
1.64950470698968E+018,41,1.64950470698968E+018,r1000913c5/base_footprint,0,1.64950470698968E+018,v/m1vw10zy74w/map,-11.6419625946,-2.26369823728,0,0,0,-0.716123437856,0.697973654053,0,65.7714996338,27.0072994232,41.4389801025,96.7366027832,45.6702270508,45.6702270508,65.7714996338,65.7714996338,17.6032047272,1.25283694267,0,0.00304723600857,0.194616600871,0.0704032257199,0.07345046103,4.42179298401,0.14069108665,-0.725593566895,-0.00755739957094,1.61790466309,0.0342137590051,0.442089080811,0.0244988575578,31.42909240721,96.011009216305,47.28813171389,18.045293808011,1390
1.64950470709021E+018,42,1.64950470709021E+018,r1000913c5/base_footprint,0,1.64950470709021E+018,v/m1vw10zy74w/map,-11.6405939718,-2.14441739519,0,0,0,-0.721141556832,0.692787741671,0,65.4418487549,27.920463562,41.3788070679,96.6530685425,45.7236289978,45.7236289978,65.4418487549,65.4418487549,23.8129405975,1.16123199463,0,0.00311420462094,0.191088438034,0.075081422925,0.0781956315041,4.21876144409,0.131265193224,-0.674583435059,-0.007028486114,1.6180305481,0.0341777317226,-5.07963180542,-0.27115508914,32.13922500609,95.978485107441,47.3416595459,18.73330879208,1519
1.64950470718971E+018,43,1.64950470718971E+018,r1000913c5/base_footprint,0,1.64950470718971E+018,v/m1vw10zy74w/map,-11.6405939718,-2.14441739519,0,0,0,-0.721141556832,0.692787741671,0,65.4761352539,24.769908905,41.4646530151,96.6530685425,45.711807251,45.711807251,65.4761352539,65.4761352539,23.0680751801,1.12440621853,0,0.00241451989859,0.166546925902,0.0631709396839,0.0655854642391,7.36931610107,0.229293525219,-0.674583435059,-0.007028486114,1.62985229492,0.0344274416566,-4.33476638794,-0.231393530965,32.13922500607,95.978485107441,47.34165954592,18.73330879216,1519
1.64950470728958E+018,44,1.64950470728958E+018,r1000913c5/base_footprint,0,1.64950470728958E+018,v/m1vw10zy74w/map,-11.6344385025,-2.03146863113,0,0,0,-0.719038278581,0.69497046983,0,65.3365020752,31.1724681854,41.9950180054,96.9746627808,45.7909698486,45.7909698486,65.3365020752,65.3365020752,27.5942840576,1.13477981091,0,0.00212471187115,0.141826540232,0.0583665817976,0.0604912936687,1.3194065094,0.0406072773039,-1.026222229,-0.0106955589727,1.58542251587,0.0334643982351,-8.25883102417,-0.427134096622,32.4918746948,95.9484405518,47.37639236447,19.33545303343,1632
1.64950470738976E+018,45,1.64950470738976E+018,r1000913c5/base_footprint,0,1.64950470738976E+018,v/m1vw10zy74w/map,-11.6344385025,-2.03146863113,0,0,0,-0.719038278581,0.69497046983,0,65.6258544922,27.4778404236,42.8052597046,96.9746627808,45.9283103943,45.9283103943,65.6258544922,65.6258544922,23.8691501617,1.06405973434,0,0.00161515490618,0.128049135208,0.0474942773581,0.049109429121,5.01403427124,0.154316559434,-1.026222229,-0.0106955589727,1.44808197021,0.030565476045,-4.5336971283,-0.23447586596,32.49187469484,95.9484405518,47.37639236451,19.3354530334,1632
1.64950470748961E+018,46,1.64950470748961E+018,r1000913c5/base_footprint,0,1.64950470748961E+018,v/m1vw10zy74w/map,-11.6352831287,-1.92184731509,0,0,0,-0.721197731761,0.692729262918,0,65.5403366089,33.5734291077,43.4689903259,96.8180236816,46.1654090881,46.1654090881,65.5403366089,65.5403366089,27.4052410126,0.902856051922,0,0.0015570402611,0.117327414453,0.0395634174347,0.0411204583943,-0.827590942383,-0.0252731647342,-0.898399353027,-0.00936616864055,1.23489761353,0.0260525234044,-7.59198951721,-0.383177369833,32.745838165317,95.919624328573,47.40030670163,19.81325149539,1735
1.64950470758957E+018,47,1.64950470758957E+018,r1000913c5/base_footprint,0,1.64950470758957E+018,v/m1vw10zy74w/map,-11.6316402056,-1.8140707401,0,0,0,-0.720855945142,0.693084920016,0,65.4923858643,33.9242553711,44.1032028198,96.6876907349,46.3440742493,46.3440742493,65.4923858643,65.4923858643,29.7287712097,1.00729215145,0,0.00133142853156,0.109133556485,0.0338701494038,0.0352015793324,-0.7783203125,-0.0234816223383,-0.799125671387,-0.00833390001208,1.14093017578,0.0240271687508,-9.74722290039,-0.487811177969,33.1459350586,95.888565063513,47.48500442508,19.98154830931,1736
1.64950470768967E+018,48,1.64950470768967E+018,r1000913c5/base_footprint,0,1.64950470768967E+018,v/m1vw10zy74w/map,-11.6316402056,-1.8140707401,0,0,0,-0.720855945142,0.693084920016,0,65.5877990723,35.6120834351,44.8684120178,96.6876907349,46.5671005249,46.5671005249,65.5877990723,65.5877990723,30.4199714661,0.871957540512,0,0.00111253990326,0.0996615067124,0.0278484150767,0.0289609562606,-2.46614837646,-0.0744027420878,-0.799125671387,-0.00833390001208,0.917903900146,0.0193303953856,-10.4384231567,-0.522403120995,33.14593505864,95.888565063513,47.485004425046,19.9815483094,1736
1.64950470778985E+018,49,1.64950470778985E+018,r1000913c5/base_footprint,0,1.64950470778985E+018,v/m1vw10zy74w/map,-11.6291513196,-1.70854023304,0,0,0,-0.720249851914,0.693714747442,0,65.6158981323,36.6515846252,45.2403030396,96.3820571899,46.7929077148,46.7929077148,65.6158981323,65.6158981323,31.2526054382,0.925349771976,0,0.000918520032428,0.0884924903512,0.0251134522259,0.0260319728404,-3.319480896,-0.0995881035924,-0.487937927246,-0.00508829858154,0.721752166748,0.0151900947094,-10.294511795,-0.491195052862,33.3321037292,95.894119262654,47.514659881548,20.9580936432,1764
1.64950470789033E+018,50,1.64950470789033E+018,r1000913c5/base_footprint,0,1.64950470789033E+018,v/m1vw10zy74w/map,-11.6291513196,-1.70854023304,0,0,0,-0.720249851914,0.693714747442,0,65.5890884399,35.9743881226,45.5454406738,96.3820571899,46.8775634766,46.8775634766,65.5890884399,65.5890884399,32.6495285034,0.798105835915,0,0.000846482464112,0.0804993063211,0.0251854900271,0.0260319728404,-2.64228439331,-0.0792714580894,-0.487937927246,-0.00508829858154,0.637096405029,0.0134084178135,-11.6914348602,-0.557848215103,33.33210372929,95.894119262654,47.514659881629,20.9580936432,1764
1.64950470799188E+018,51,1.64950470799188E+018,r1000913c5/base_footprint,0,1.64950470799188E+018,v/m1vw10zy74w/map,-11.6239556793,-1.6121747819,0,0,0,-0.719133681219,0.694871749704,0,65.9653549194,32.6571998596,45.734500885,96.371887207,46.9615287781,46.9615287781,65.9653549194,65.9653549194,26.746919632,0.919313728809,0,0.000820016080979,0.0711338371038,0.025211956352,0.0260319728404,0.787132263184,0.0235355943441,-0.473602294922,-0.00493858987466,0.568340301514,0.0119575401768,-5.66348838806,-0.2686226964,33.444332122784,95.898284912078,47.529869079614,21.08343124394,1768
1.64950470808964E+018,52,1.64950470808964E+018,r1000913c5/base_footprint,0,1.64950470808964E+018,v/m1vw10zy74w/map,-11.6239556793,-1.6121747819,0,0,0,-0.719133681219,0.694871749704,0,65.7902145386,33.2498970032,45.9622993469,96.371887207,46.8951644897,46.8951644897,65.7902145386,65.7902145386,29.1827526093,0.857131302357,0,0.000816254003439,0.0666818022728,0.0252157188952,0.0260319728404,0.194435119629,0.00581369409338,-0.473602294922,-0.00493858987466,0.634704589844,0.0133538050577,-8.09932136536,-0.384155750275,33.444332122829,95.898284912078,47.529869079544,21.08343124394,1768
1.64950470828962E+018,53,1.64950470828962E+018,r1000913c5/base_footprint,0,1.64950470828962E+018,v/m1vw10zy74w/map,-11.6239556793,-1.6121747819,0,0,0,-0.719133681219,0.694871749704,0,65.7638015747,34.0842704773,46.1438102722,96.371887207,46.8694763184,46.8694763184,65.7638015747,65.7638015747,29.3806552887,0.96374809742,0,0.000812301703263,0.0652150511742,0.0252196714282,0.0260319728404,-0.639938354492,-0.0191344339401,-0.473602294922,-0.00493858987466,0.66039276123,0.0138942683116,-8.2972240448,-0.393542408943,33.444332122808,95.898284912078,47.52986907963,21.0834312439,1768
1.64950470839665E+018,54,1.64950470839665E+018,r1000913c5/base_footprint,0,1.64950470839665E+018,v/m1vw10zy74w/map,-11.6224133977,-1.49636826655,0,0,0,-0.718483579478,0.695543920985,0,65.7551574707,30.2520999908,46.2712478638,96.508605957,46.8325309753,46.8325309753,65.7551574707,65.7551574707,29.6295509338,0.803970336914,0,0.000800908834208,0.0623937286437,0.0252310633659,0.0260319728404,2.98484992981,0.0898051708937,-0.596046447754,-0.00621447758749,0.691181182861,0.014543922618,-7.96312141418,-0.3675327003,33.23694992061,95.912559509246,47.523712158161,21.66642951962,1759
1.64950470859046E+018,55,1.64950470859046E+018,r1000913c5/base_footprint,0,1.64950470859046E+018,v/m1vw10zy74w/map,-11.6224133977,-1.49636826655,0,0,0,-0.718483579478,0.695543920985,0,65.5497131348,32.2894630432,46.4883079529,96.508605957,46.7312927246,46.7312927246,65.5497131348,65.5497131348,32.2341117859,0.796809256077,0,0.000777848996222,0.0595838353038,0.0252541229129,0.0260319728404,0.947486877441,0.0285070352256,-0.596046447754,-0.00621447758749,0.792419433594,0.0166741907597,-10.5676822662,-0.487744510174,33.236949920641,95.912559509246,47.523712158194,21.6664295197,1759
1.64950470869126E+018,56,1.64950470869126E+018,r1000913c5/base_footprint,0,1.64950470869126E+018,v/m1vw10zy74w/map,-11.6224133977,-1.49636826655,0,0,0,-0.718483579478,0.695543920985,0,65.4459075928,25.518409729,46.7801322937,96.508605957,46.6955718994,46.6955718994,65.4459075928,65.4459075928,33.7167663574,0.763769865036,0,0.000763430958614,0.0581475570798,0.025268541649,0.0260319728404,7.71854019165,0.232227697968,-0.596046447754,-0.00621447758749,0.828140258789,0.01742583327,-12.0503368378,-0.556175470352,33.23694992065,95.912559509246,47.523712158189,21.6664295196,1759
1.64950470878983E+018,57,1.64950470878983E+018,r1000913c5/base_footprint,0,1.64950470878983E+018,v/m1vw10zy74w/map,-11.6224133977,-1.49636826655,0,0,0,-0.718483579478,0.695543920985,0,65.2393264771,24.9061317444,47.0563392639,96.508605957,46.5905532837,46.5905532837,65.2393264771,65.2393264771,36.3010292053,0.690708100796,0,0.000750496750697,0.0567607916892,0.0252814758569,0.0260319728404,8.33081817627,0.250649303198,-0.596046447754,-0.00621447758749,0.933158874512,0.0196356475353,-14.6345996857,-0.675450444221,33.23694992067,95.912559509246,47.523712158212,21.6664295196,1759
1.64950470898979E+018,58,1.64950470898979E+018,r1000913c5/base_footprint,0,1.64950470898979E+018,v/m1vw10zy74w/map,-11.6224133977,-1.49636826655,0,0,0,-0.718483579478,0.695543920985,0,65.2370910645,29.4117641449,47.3831481934,96.508605957,46.6050682068,46.6050682068,65.2370910645,65.2370910645,36.4981002808,0.719416320324,0,0.000592572498135,0.0537923462689,0.0251460317522,0.0257386043668,3.82518577576,0.115088351071,-0.596046447754,-0.00621447758749,0.918643951416,0.0193302221596,-14.8316707611,-0.684546172619,33.23694992066,95.912559509246,47.523712158216,21.6664295197,1759
1.64950470908974E+018,59,1.64950470908974E+018,r1000913c5/base_footprint,0,1.64950470908974E+018,v/m1vw10zy74w/map,-11.6161314372,-1.37610033615,0,0,0,-0.720329148742,0.693632408032,0,65.160949707,29.4117641449,47.7480926514,96.0364685059,46.4881362915,46.4881362915,65.160949707,65.160949707,34.9060440063,0.700091362,0,0.000460230774479,0.0507345721126,0.024995714426,0.0254559442401,6.19917488098,0.174080640078,-0.538932800293,-0.00564342085272,0.984375,0.0207356847823,-6.76315689087,-0.24031496048,35.61093902588,95.497535705607,47.4725112915,28.14288711543,989
1.64950470919628E+018,60,1.64950470919628E+018,r1000913c5/base_footprint,0,1.64950470919628E+018,v/m1vw10zy74w/map,-11.6167859624,-1.36130953514,0,0,0,-0.719920006159,0.694057047174,0,65.1875915527,26.5748844147,48.0666313171,96.1026153564,46.4719467163,46.4719467163,65.1875915527,65.1875915527,34.4898109436,0.614945888519,0,0.000456361507531,0.0492213703692,0.02499958314,0.0254559442401,9.03605461121,0.253743797541,-0.605079650879,-0.00633607618511,1.0005645752,0.02107671462,-6.34692382812,-0.22552497685,35.61093902591,95.497535705521,47.4725112915,28.14288711548,989
1.64950470928963E+018,61,1.64950470928963E+018,r1000913c5/base_footprint,0,1.64950470928963E+018,v/m1vw10zy74w/map,-11.6167859624,-1.36130953514,0,0,0,-0.719920006159,0.694057047174,0,65.1013412476,31.9327735901,48.2449836731,96.1026153564,46.3961791992,46.3961791992,65.1013412476,65.1013412476,35.2239646912,0.694825530052,0,0.000437011651229,0.0450420193374,0.0250189322978,0.0254559442401,3.67816543579,0.103287518024,-0.605079650879,-0.00633607618511,1.07633209229,0.0226727444679,-7.08107757568,-0.251611620188,35.61093902589,95.497535705521,47.47251129149,28.14288711552,989
1.64950470939036E+018,62,1.64950470939036E+018,r1000913c5/base_footprint,0,1.64950470939036E+018,v/m1vw10zy74w/map,-11.6167859624,-1.36130953514,0,0,0,-0.719920006159,0.694057047174,0,65.3343582153,28.057554245,48.4233398438,96.1026153564,46.3184318542,46.3184318542,65.3343582153,65.3343582153,30.1900444031,0.659693002701,0,0.000449824990937,0.0408358126879,0.0250061191618,0.0254559442401,7.55338478088,0.212108552456,-0.605079650879,-0.00633607618511,1.15407943726,0.024310477078,-2.0471572876,-0.0727415531874,35.61093902588,95.497535705521,47.47251129146,28.1428871155,989
1.64950470949108E+018,63,1.64950470949108E+018,r1000913c5/base_footprint,0,1.64950470949108E+018,v/m1vw10zy74w/map,-11.6152472062,-1.2390085735,0,0,0,-0.718540548612,0.695485068136,0,65.1351165771,29.4117641449,48.5828895569,95.9544448853,46.2508735657,46.2508735657,65.1351165771,65.1351165771,32.5133857727,0.682910084724,0,0.000420912605477,0.0351849608123,0.0250350311399,0.0254559442401,4.30496406555,0.127680361271,-0.488731384277,-0.00511944433674,1.01155471802,0.0214029364288,-3.58278274536,-0.123840585351,33.71672821045,95.465713501023,47.26242828372,28.93060302734,1014
1.64950470958982E+018,64,1.64950470958982E+018,r1000913c5/base_footprint,0,1.64950470958982E+018,v/m1vw10zy74w/map,-11.6152472062,-1.2390085735,0,0,0,-0.718540548612,0.695485068136,0,65.0196990967,35.2941169739,48.6550827026,95.9544448853,46.2386436462,46.2386436462,65.0196990967,65.0196990967,34.4588241577,0.577331006527,0,0.000478338741232,0.0143534066156,0.0249776057899,0.0254559442401,-1.57738876343,-0.0467835664749,-0.488731384277,-0.00511944433674,1.02378463745,0.0216617025435,-5.52822113037,-0.191085577011,33.71672821047,95.465713501023,47.26242828365,28.93060302733,1014
1.64950470968963E+018,65,1.64950470968963E+018,r1000913c5/base_footprint,0,1.64950470968963E+018,v/m1vw10zy74w/map,-11.6108148199,-1.13429344382,0,0,0,-0.718565704673,0.695459077206,0,65.052986145,33.1358451843,49.0353469849,95.7868499756,46.1773681641,46.1773681641,65.052986145,65.052986145,32.594493866,0.530072629452,0,0.000245089002419,0.0805889964104,0.0233541559428,0.0235992446542,-3.68790817261,-0.125234857202,-0.718101501465,-0.00755349686369,1.31455612183,0.0276795718819,-1.92697715759,-0.0628344714642,29.44793701169,95.068748474135,47.49192428593,30.66751670841,1802
1.64950470978975E+018,66,1.64950470978975E+018,r1000913c5/base_footprint,0,1.64950470978975E+018,v/m1vw10zy74w/map,-11.6108148199,-1.13429344382,0,0,0,-0.718565704673,0.695459077206,0,65.0001373291,32.773109436,49.9524002075,95.7868499756,46.146774292,46.146774292,65.0001373291,65.0001373291,33.2153053284,0.521718978882,0,0.000538422376849,0.127844035625,0.0160872414708,0.0166256651282,-3.32517242432,-0.112916991115,-0.718101501465,-0.00755349686369,1.3451499939,0.0283237621188,-2.54778862,-0.0830777585506,29.44793701168,95.068748474135,47.4919242859,30.6675167084,1802
1.64950470988961E+018,67,1.64950470988961E+018,r1000913c5/base_footprint,0,1.64950470988961E+018,v/m1vw10zy74w/map,-11.6080614946,-1.03508820605,0,0,0,-0.718141814391,0.695896784317,0,64.885017395,33.5038375854,48.7202262878,95.5616073608,46.1284751892,46.1284751892,64.885017395,64.885017395,34.2790298462,0.444585680962,0,0.000530187331606,0.139748051763,0.0125987483189,0.0131289353594,-5.83912277222,-0.211067527533,-0.577949523926,-0.0060847257264,1.32886505127,0.0280012544245,-2.93854904175,-0.0937620922923,27.66471481318,94.983657836874,47.45734024047,31.34048080445,2065
1.64950470998958E+018,68,1.64950470998958E+018,r1000913c5/base_footprint,0,1.64950470998958E+018,v/m1vw10zy74w/map,-11.6080614946,-1.03508820605,0,0,0,-0.718141814391,0.695896784317,0,64.7680130005,33.7690620422,48.6582450867,95.5616073608,45.9919242859,45.9919242859,64.7680130005,64.7680130005,34.9103775024,0.420576542616,0,0.000446022168035,0.150740385056,0.0103622470051,0.010808268562,-6.104347229,-0.22065462172,-0.577949523926,-0.0060847257264,1.46541595459,0.0308785941452,-3.569896698,-0.113906890154,27.6647148132,94.983657836874,47.45734024049,31.3404808044,2065
1.64950471008969E+018,69,1.64950471008969E+018,r1000913c5/base_footprint,0,1.64950471008969E+018,v/m1vw10zy74w/map,-11.6058234203,-0.93195942997,0,0,0,-0.719328463573,0.694670109832,0,64.6804428101,28.571428299,49.5221710205,95.2861633301,46.0070152283,46.0070152283,64.6804428101,64.6804428101,35.6580123901,0.319126337767,0,0.000432986213127,0.150832042098,0.00735160289332,0.00778458919376,-1.77158927917,-0.0661044716835,-0.307670593262,-0.00323937111534,1.51797485352,0.0319405607879,-4.0957736969,-0.129768162966,26.79983901983,94.978492736838,47.52499008182,31.5622386932,2129
1.64950471018996E+018,70,1.64950471018996E+018,r1000913c5/base_footprint,0,1.64950471018996E+018,v/m1vw10zy74w/map,-11.6058234203,-0.93195942997,0,0,0,-0.719328463573,0.694670109832,0,64.5209960938,30.596698761,54.363243103,95.2861633301,45.8876113892,45.8876113892,64.5209960938,64.5209960938,37.2384223938,0.324951946735,0,8.11808131402E-05,0.147358804941,0.00304555660114,0.00312673742883,-3.79685974121,-0.141674727201,-0.307670593262,-0.00323937111534,1.63737869263,0.0344530045986,-5.67618370056,-0.179840967059,26.79983901979,94.978492736838,47.52499008183,31.56223869324,2129
1.64950471029068E+018,71,1.64950471029068E+018,r1000913c5/base_footprint,0,1.64950471029068E+018,v/m1vw10zy74w/map,-11.6051933124,-0.834230543511,0,0,0,-0.720982917747,0.692952835564,0,64.9425888062,22.4030036926,56.976978302,94.967124939,45.7541694641,45.7541694641,64.9425888062,64.9425888062,27.0600452423,0.340322464705,0,6.16973993601E-05,0.146144628525,0.00144470366649,0.00138300622348,3.74158668518,0.14311131835,-0.00863647460938,-9.09500013222E-05,1.79862213135,0.0378236919641,4.65390396118,0.146746277809,26.14459037778,94.9584884643906,47.55279159545,31.71394920348,2148
1.64950471038963E+018,72,1.64950471038963E+018,r1000913c5/base_footprint,0,1.64950471038963E+018,v/m1vw10zy74w/map,-11.6051933124,-0.834230543511,0,0,0,-0.720982917747,0.692952835564,0,64.5964355469,19.6354598999,61.1665992737,94.967124939,45.6146659851,45.6146659851,64.5964355469,64.5964355469,31.7841625214,0.322720468044,0,2.58574546024E-05,0.146392166615,0.00110255007166,0.00107669259887,6.50913047791,0.248966634274,-0.00863647460938,-9.09500013222E-05,1.93812561035,0.0407573468983,-0.0702133178711,-0.00221395702101,26.14459037781,94.9584884643906,47.55279159545,31.7139492035289,2148
1.64950471048945E+018,73,1.64950471048945E+018,r1000913c5/base_footprint,0,1.64950471048945E+018,v/m1vw10zy74w/map,-11.6022465815,-0.719497853407,0,0,0,-0.719158516026,0.694846046853,0,64.4621276855,22.4030036926,65.3547210693,95.1720809937,45.4780235291,45.4780235291,64.4621276855,64.4621276855,33.4638938904,0.230812802911,0,2.16930729948E-05,0.146780773997,0.00109838566277,0.00107669259887,3.18732452393,0.124551922083,-0.243446350098,-0.00256451964378,2.11544418335,0.0444482043386,-1.54315757751,-0.0483434200287,25.59032821653,94.928634643602,47.59346771245,31.92073631289,2059
1.64950471058968E+018,74,1.64950471058968E+018,r1000913c5/base_footprint,0,1.64950471058968E+018,v/m1vw10zy74w/map,-11.6022465815,-0.719497853407,0,0,0,-0.719158516026,0.694846046853,0,64.4691543579,16.5623703003,65.2773513794,95.1720809937,45.3727722168,45.3727722168,64.4691543579,64.4691543579,32.2006950378,0.279647618532,0,2.36177475017E-05,0.146652296185,0.00110031035729,0.00107669259887,9.02795791626,0.35278788209,-0.243446350098,-0.00256451964378,2.22069549561,0.0466596707702,-0.279958724976,-0.00877043418586,25.59032821656,94.928634643602,47.59346771241,31.920736312824,2059
1.64950471068953E+018,75,1.64950471068953E+018,r1000913c5/base_footprint,0,1.64950471068953E+018,v/m1vw10zy74w/map,-11.5973500484,-0.601568680625,0,0,0,-0.718016180414,0.696026410895,0,63.934513092,11.5561113358,61.6240081787,94.8938903809,45.2035827637,45.2035827637,63.934513092,63.934513092,38.9954681396,0.171551570296,0,3.62459031749E-05,0.146580323577,0.00111293850932,0.00107669259887,13.1999483109,0.53320068121,-0.0171432495117,-0.000180689690751,2.41146087646,0.0506449379027,-6.77546310425,-0.210287466645,24.7560596467,94.8767471313883,47.61504364016,32.22000503535,1864
1.64950471078963E+018,76,1.64950471078963E+018,r1000913c5/base_footprint,0,1.64950471078963E+018,v/m1vw10zy74w/map,-11.5973500484,-0.601568680625,0,0,0,-0.718016180414,0.696026410895,0,64.3750915527,16.2082099915,61.7255516052,94.8938903809,45.1227912903,45.1227912903,64.3750915527,64.3750915527,30.1924591064,0.255955696106,0,0.00012265429541,0.146078586578,0.000954038347118,0.00107669259887,8.54784965515,0.345283120871,-0.0171432495117,-0.000180689690751,2.49225234985,0.0523416996002,2.02754592896,0.0629281699657,24.75605964665,94.8767471313883,47.61504364015,32.22000503536,1864
1.6495047108896E+018,77,1.6495047108896E+018,r1000913c5/base_footprint,0,1.6495047108896E+018,v/m1vw10zy74w/map,-11.5973500484,-0.601568680625,0,0,0,-0.718016180414,0.696026410895,0,64.2387771606,19.8998756409,62.0375289917,94.8938903809,45.0594482422,45.0594482422,64.2387771606,64.2387771606,31.9621009827,0.20138835907,0,0.000488976365887,0.145908400416,0.000587716291193,0.00107669259887,4.85618400574,0.196161434054,-0.0171432495117,-0.000180689690751,2.55559539795,0.053672015667,0.257904052734,0.00800446979702,24.75605964664,94.8767471313883,47.61504364015,32.220005035434,1864
1.64950471099005E+018,78,1.64950471099005E+018,r1000913c5/base_footprint,0,1.64950471099005E+018,v/m1vw10zy74w/map,-11.5892203536,-0.48695690306,0,0,0,-0.720952610615,0.692984367246,0,64.0611495972,16.806722641,62.5601844788,95.1997451782,44.8820762634,44.8820762634,64.0611495972,64.0611495972,34.3448143005,0.0158055052161,0,0.000478881265735,0.145868182182,0.00059781136224,0.00107669259887,7.6493434906,0.31277897954,-0.344535827637,-0.00363222882152,2.75299453735,0.0577934384346,-2.12872314453,-0.0660763978958,24.4560661316,94.855209350563,47.63507080075,32.21609115597,1720
1.6495047123895E+018,79,1.6495047123895E+018,r1000913c5/base_footprint,0,1.6495047123895E+018,v/m1vw10zy74w/map,-11.5790617599,-0.366823882736,0,0,0,-0.719417162572,0.694578250593,0,64.2266769409,17.0545921326,61.0040740967,95.2013092041,44.7888336182,44.7888336182,64.2266769409,64.2266769409,30.3639564514,0.21153268218,0,0.00109333440196,0.217371374369,0.0266653224826,0.0255719870329,7.35056114197,0.301188886166,-0.364791870117,-0.00384653382935,2.83311843872,0.0594918578863,1.8224067688,0.0566204637289,24.40515327457,94.836517333983,47.62195205692,32.1863632202,1576
1.6495047124897E+018,80,1.6495047124897E+018,r1000913c5/base_footprint,0,1.6495047124897E+018,v/m1vw10zy74w/map,-11.5790617599,-0.366823882736,0,0,0,-0.719417162572,0.694578250593,0,64.0944824219,19.8998756409,60.5522079468,95.2013092041,44.6028556824,44.6028556824,64.0944824219,64.0944824219,30.7348670959,0.28624266386,0,0.00190151191782,0.214419767261,0.0515042766929,0.04960276559,4.50527763367,0.184603542089,-0.364791870117,-0.00384653382935,3.01909637451,0.063397154212,1.45149612427,0.045096617192,24.40515327457,94.836517333983,47.62195205691,32.18636322017,1576
1.64950471259034E+018,81,1.64950471259034E+018,r1000913c5/base_footprint,0,1.64950471259034E+018,v/m1vw10zy74w/map,-11.5735203542,-0.411674882095,0,0,0,-0.68295720783,0.730458385039,0,63.6090011597,20.1373977661,59.6073532104,95.3630142212,44.5206718445,44.5206718445,63.6090011597,63.6090011597,39.1680717468,0.0927127227187,0,0.00264908489771,0.211006969213,0.0914490297437,0.0887999460101,4.28476715088,0.175445839763,-0.505546569824,-0.00532953906804,3.07780838013,0.0646619051695,-6.94069290161,-0.215366348624,24.42216491698,94.857467651376,47.59848022463,32.22737884519,1668
1.64950471269053E+018,82,1.64950471269053E+018,r1000913c5/base_footprint,0,1.64950471269053E+018,v/m1vw10zy74w/map,-11.5620919054,-0.477108520847,0,0,0,-0.639270758043,0.768981727944,0,64.0011138916,13.6690645218,59.1457519531,95.2504730225,44.2578125,44.2578125,64.0011138916,64.0011138916,28.8659667969,0.187843814492,0,0.0030785324052,0.207891330123,0.110642597079,0.10756406188,10.8446054459,0.442390114069,-0.377593994141,-0.00397999910638,3.353515625,0.0704352483153,3.34735488892,0.103912129998,24.5136699677,94.872879028359,47.611328125,32.21332168582,1742
1.64950471278966E+018,83,1.64950471278966E+018,r1000913c5/base_footprint,0,1.64950471278966E+018,v/m1vw10zy74w/map,-11.5506848844,-0.524200157121,0,0,0,-0.59309899141,0.805129546339,0,63.759223938,10.6912841797,59.5845870972,95.0816421509,43.9356842041,43.9356842041,63.759223938,63.759223938,29.1333007812,0.0983310416341,0,0.00350943394005,0.203719809651,0.142170220613,0.138660788536,13.9041748047,0.56531471014,-0.196670532227,-0.00207272591069,3.67934036255,0.0772726759315,3.09953689575,0.0961608439684,24.5954589844,94.884971618673,47.61502456665,32.23283767695,1801
1.64950471288965E+018,84,1.64950471288965E+018,r1000913c5/base_footprint,0,1.64950471288965E+018,v/m1vw10zy74w/map,-11.5506848844,-0.524200157121,0,0,0,-0.59309899141,0.805129546339,0,63.5693969727,11.764705658,61.3917732239,95.0816421509,43.7499275208,43.7499275208,63.5693969727,63.5693969727,30.5439529419,0.245752811432,0,0.00460078753531,0.197272405028,0.164910331368,0.160309538245,12.8307533264,0.521671652794,-0.196670532227,-0.00207272591069,3.8650970459,0.0811738967896,1.68888473511,0.052396401763,24.5954589844,94.884971618673,47.6150245667,32.23283767701,1801
1.6495047129897E+018,85,1.6495047129897E+018,r1000913c5/base_footprint,0,1.6495047129897E+018,v/m1vw10zy74w/map,-11.5137049861,-0.602381722321,0,0,0,-0.481592225124,0.876395418005,0,63.8617286682,8.70588207245,54.7063293457,94.9432373047,43.5709342957,43.5709342957,63.8617286682,63.8617286682,22.8505973816,0.345425248146,0,0.00618818029761,0.190553292632,0.183377623558,0.177189439535,16.0756263733,0.648694396019,-0.040885925293,-0.000430821004556,4.08102798462,0.0856423899531,9.45062637329,0.292577952147,24.78150844575,94.902351379407,47.65196228032,32.30122375489,1900
1.64950471308945E+018,86,1.64950471308945E+018,r1000913c5/base_footprint,0,1.64950471308945E+018,v/m1vw10zy74w/map,-11.4894104854,-0.629403802498,0,0,0,-0.437706413626,0.899117954147,0,63.5752334595,14.7058820724,48.5274963379,95.0050048828,43.4413414001,43.4413414001,63.5752334595,63.5752334595,26.8302764893,0.159215286374,0,0.00731364777312,0.186074972153,0.169539362192,0.162225723267,10.2332849503,0.410329848528,-0.0879669189453,-0.000926776905544,4.2158164978,0.0884613469243,5.39228439331,0.167345002294,24.9391670227,94.9170379638547,47.6571578979,32.22256088261,1954
1.64950471318948E+018,87,1.64950471318948E+018,r1000913c5/base_footprint,0,1.64950471318948E+018,v/m1vw10zy74w/map,-11.454742526,-0.661750886654,0,0,0,-0.371495383144,0.92843480132,0,63.3565101624,11.2825460434,48.0377578735,95.2894210815,43.2070426941,43.2070426941,63.3565101624,63.3565101624,29.2607917786,0.234866857529,0,0.00785809569061,0.181957557797,0.12923976779,0.121381670237,13.6974687576,0.548337101936,-0.388137817383,-0.00408991100267,4.41100311279,0.0926330164075,2.984375,0.0925526320934,24.980014801,94.901283264117,47.61804580689,32.2451667786,2016
1.64950471328976E+018,88,1.64950471328976E+018,r1000913c5/base_footprint,0,1.64950471328976E+018,v/m1vw10zy74w/map,-11.4262337944,-0.685617271545,0,0,0,-0.31935681204,0.947634542745,0,63.0317802429,13.6622390747,47.553943634,95.1628875732,43.0806922913,43.0806922913,63.0317802429,63.0317802429,33.2858009338,0.217092201114,0,0.00718554761261,0.178706616163,0.104810722172,0.0976251736283,11.27094841,0.45204603672,-0.255439758301,-0.00269146170467,4.60054397583,0.0964854136109,-0.977066040039,-0.0302415452898,24.9331874847,94.907447814899,47.68123626713,32.308734893761,2024
1.64950471338993E+018,89,1.64950471338993E+018,r1000913c5/base_footprint,0,1.64950471338993E+018,v/m1vw10zy74w/map,-11.3736962034,-0.711056427566,0,0,0,-0.245422616857,0.969416184688,0,62.839717865,11.0473461151,47.1180305481,95.188117981,42.9644927979,42.9644927979,62.839717865,62.839717865,35.5788269043,0.323171794415,0,0.00613795034587,0.140084534883,0.0529080554843,0.0467701070011,14.0183372498,0.55926412344,-0.27165222168,-0.00286201364361,4.6866569519,0.0983534902334,-3.26416397095,-0.10101184994,25.0656833649,94.91646575932,47.6511497498,32.31466293335,2068
1.64950471349051E+018,90,1.64950471349051E+018,r1000913c5/base_footprint,0,1.64950471349051E+018,v/m1vw10zy74w/map,-11.3051907063,-0.739025107899,0,0,0,-0.177627593724,0.984097778652,0,62.6952400208,13.0004940033,46.5640487671,95.0997314453,42.9663619995,42.9663619995,62.6952400208,62.6952400208,37.8814430237,0.236352324486,0,0.00605836650357,0.113171376288,0.0345767773688,0.0285184085369,11.9589118958,0.479134470224,-0.203285217285,-0.00214217952453,4.7254524231,0.0990830883384,-5.45642852783,-0.168278366327,24.9594058991,94.896446228015,47.6918144226,32.42501449587,2063
1.64950471358965E+018,91,1.64950471358965E+018,r1000913c5/base_footprint,0,1.64950471358965E+018,v/m1vw10zy74w/map,-11.2309977158,-0.763054197659,0,0,0,-0.131437657809,0.99132443837,0,62.7256736755,20.5630970001,45.9516563416,95.1948928833,43.2449417114,43.2449417114,62.7256736755,62.7256736755,40.6848449707,0.376143276691,0,0.00444808602333,0.0575583390892,0.0151234846562,0.0195715706795,4.35953140259,0.17492261529,-0.332672119141,-0.00350689794868,4.49390029907,0.0941350907087,-8.0391960144,-0.246256276965,24.92262840269,94.862220764159,47.73884201047,32.6456489563,1988
1.64950471368968E+018,92,1.64950471368968E+018,r1000913c5/base_footprint,0,1.64950471368968E+018,v/m1vw10zy74w/map,-11.1476034154,-0.781526368188,0,0,0,-0.0832623070933,0.996527665556,0,63.1651268005,25.420167923,45.5670089722,94.9158248901,43.8597335815,43.8597335815,63.1651268005,63.1651268005,38.4098205566,0.33593198657,0,0.00420383503661,0.0478775538504,0.0331189148128,0.0373227484524,-0.460525512695,-0.0184508059174,-0.0539855957031,-0.000569097057451,4.29633331299,0.0892168655992,-5.52503204346,-0.168011784554,24.959642410305,94.8618392943969,48.15606689449,32.88478851314,1998
1.64950471378977E+018,93,1.64950471378977E+018,r1000913c5/base_footprint,0,1.64950471378977E+018,v/m1vw10zy74w/map,-11.1346084533,-0.779823814436,0,0,0,-0.0751892099434,0.99716928488,0,63.4420433044,22.6006183624,45.2761154175,95.0248336792,44.5702514648,44.5702514648,63.4420433044,63.4420433044,41.4913253784,0.229518473148,0,0.00380745530128,0.0440672524273,0.0586652159691,0.0624726712704,2.48295211792,0.0989871919155,-0.191864013672,-0.00202317838557,3.87768173218,0.0800381228328,-8.27899169922,-0.249274611473,25.08357048032,94.832969665528,48.44793319698,33.21233367918,1771
1.64950471388952E+018,94,1.64950471388952E+018,r1000913c5/base_footprint,0,1.64950471388952E+018,v/m1vw10zy74w/map,-11.0008354763,-0.787639868382,0,0,0,-0.0147125274972,0.99989176491,0,64.1157608032,20.9558830261,44.5383491516,94.8908081055,45.1093177795,45.1093177795,64.1157608032,64.1157608032,34.703792572,0.227350234985,0,0.00285361846909,0.0413788892329,0.0891727879643,0.0920264050364,4.50032234192,0.176786854863,-0.128074645996,-0.00135152961593,4.43282318115,0.0894758105278,-0.842716217041,-0.0248874612153,25.45620536802,94.762733459504,49.54214096065,33.861076354959,1126
1.64950471398951E+018,95,1.64950471398951E+018,r1000913c5/base_footprint,0,1.64950471398951E+018,v/m1vw10zy74w/map,-10.883027718,-0.781692267417,0,0,0,0.0185260619367,0.999828377787,0,64.3916168213,18.6200790405,43.8922042847,94.9950637817,45.5434989929,45.5434989929,64.3916168213,64.3916168213,34.802986145,0.282740265131,0,0.00174695672467,0.0374539233744,0.105246439576,0.10699339211,6.8465461731,0.268843859434,-0.351776123047,-0.00371686299331,4.4896812439,0.0897340774536,-0.361175537109,-0.0104865431786,25.4666252136,94.643287658653,50.0331802368,34.441810607891,925
1.64950471408951E+018,96,1.64950471408951E+018,r1000913c5/base_footprint,0,1.64950471408951E+018,v/m1vw10zy74w/map,-10.7570079762,-0.775164404622,0,0,0,0.0298638903781,0.999553974556,0,64.055015564,3.7433154583,43.5562362671,94.6728134155,46.1050605774,46.1050605774,64.055015564,64.055015564,45.7664375305,0.505332112312,0,0.00122209568508,0.032321151346,0.11318295449,0.114405050874,22.2945175171,0.856235563755,0.0382537841797,0.000403899844969,4.23083114624,0.0840519741178,-11.643196106,-0.341210156679,26.0378329754,94.7110671996797,50.33589172364,34.1232414245,884
1.64950471418974E+018,97,1.64950471418974E+018,r1000913c5/base_footprint,0,1.64950471418974E+018,v/m1vw10zy74w/map,-10.634974884,-0.781608712123,0,0,0,0.0382014200221,0.999270059347,0,65.2669219971,12.4281291962,43.5185432434,94.7603378296,46.7516975403,46.7516975403,65.2669219971,65.2669219971,31.2509117126,0.735139191151,0,0.000714626454283,0.0255118440837,0.115954943001,0.11666957289,13.5276126862,0.521179974079,0.00504302978516,5.32159501745E-05,3.45294952393,0.0687774866819,2.59218597412,0.0765942260623,25.9557418824,94.7653808593852,50.20464706423,33.84309768672,950
1.64950471429072E+018,98,1.64950471429072E+018,r1000913c5/base_footprint,0,1.64950471429072E+018,v/m1vw10zy74w/map,-10.5108929472,-0.770903236696,0,0,0,0.0390042518595,0.999239044642,0,65.5704498291,11.764705658,43.6870193481,94.987487793,47.3662338257,47.3662338257,65.5704498291,65.5704498291,33.2421226501,0.663169324398,0,0.000566712755244,0.018381703645,0.118825130165,0.119391843677,14.0492095947,0.544249475002,-0.106719970703,-0.0011247798102,2.32213592529,0.0467339940369,-0.203098297119,-0.00614722445607,25.8139152527,94.880767822297,49.68836975099,33.039024352981,1135
1.6495047143897E+018,99,1.6495047143897E+018,r1000913c5/base_footprint,0,1.6495047143897E+018,v/m1vw10zy74w/map,-10.3669782301,-0.757314122944,0,0,0,0.039399200961,0.999223550045,0,66.0250701904,14.8375768661,43.9573059082,95.0937042236,47.8811035156,47.8811035156,66.0250701904,66.0250701904,31.0019512177,0.773293077946,0,0.000483788782731,0.00230033928528,0.135639682412,0.136123478413,10.9070558548,0.423663288355,-0.143333435059,-0.00150956166908,1.62727737427,0.0328687243164,1.7231464386,0.05265519768,25.7446327209,94.950370788541,49.50838088987,32.7250976563,1255
1.64950471448952E+018,100,1.64950471448952E+018,r1000913c5/base_footprint,0,1.64950471448952E+018,v/m1vw10zy74w/map,-10.2255796779,-0.746374634043,0,0,0,0.037887146129,0.999282024335,0,66.1515884399,14.5969495773,44.4506263733,94.8776702881,48.3078079224,48.3078079224,66.1515884399,66.1515884399,32.5553398132,0.976860404015,0,3.49706715497E-05,0.0143441995606,0.14808100462,0.148046031594,10.3027982712,0.413771182299,-0.0197219848633,-0.000207910721656,0.634922027588,0.0129727544263,0.0309448242188,0.000949627254158,24.8997478485,94.8579483032367,48.942729949988,32.5862846374188,1213
1.64950471458974E+018,101,1.64950471458974E+018,r1000913c5/base_footprint,0,1.64950471458974E+018,v/m1vw10zy74w/map,-10.0213487437,-0.634641935979,0,0,0,0.0289449429358,0.999581007362,0,66.0426483154,11.3257246017,44.8781433105,94.3810577393,48.5606079102,48.5606079102,66.0426483154,66.0426483154,35.4586524963,0.744991242886,0,0.000505134172272,0.0265142004937,0.157132580876,0.156627446413,12.6549959183,0.527715444565,0.471801757812,0.00497403834015,0.384307861328,0.00785184465349,-2.50565338135,-0.0760371908545,23.98072052,94.852859497112,48.944915771528,32.95299911495,1158
