%time,field.header.seq,field.header.stamp,field.header.frame_id,field.pose.header.seq,field.pose.header.stamp,field.pose.header.frame_id,field.pose.pose.position.x,field.pose.pose.position.y,field.pose.pose.position.z,field.pose.pose.orientation.x,field.pose.pose.orientation.y,field.pose.pose.orientation.z,field.pose.pose.orientation.w,field.label,field.main_output,field.scan_score,field.pose_score,field.cov_score,field.lhood_map_score,field.lhood_robot_score,field.lhood_map_score_all,field.lhood_robot_score_all,field.point_angle_diff,field.average_orientation,field.map_average_orientation,field.sensor_div,field.odom_div_x,field.odom_div_w,field.imu_div_w,field.kdtree_div,field.kdtree_div_p,field.cov_div,field.cov_div_p,field.likelihood_div,field.likelihood_div_p,field.normal_diff_div,field.normal_diff_div_p,field.kdtree_average,field.cov_average,field.likelihood_average,field.normal_diff_average,field.map_update_count
1.64951883515056E+018,0,1.64951883515056E+018,r1000913c5/base_footprint,0,1.64951883515057E+018,v/m1vw10zy74w/map,-8.73102771272,-2.37778164988,0,0,0,-0.705705902055,0.70850489046,0,60.4457702637,13.8359565735,100,96.028427124,39.3450698853,39.3450698853,60.4457702637,60.4457702637,42.6052360535,0.856450498104,0,0.000871513737366,0.134914308786,0.0177545063198,0.0186260193586,-2.5022726059,-0.22078192234,-0.637954711914,-0.00668782414868,0.998569488525,0.0247515961528,-15.8429088593,-0.591985464096,11.3336839676,95.390472412086,40.343639373825,26.7623271942,163
1.64951883525029E+018,1,1.64951883525029E+018,r1000913c5/base_footprint,0,1.64951883525029E+018,v/m1vw10zy74w/map,-8.73102771272,-2.37778164988,0,0,0,-0.705705902055,0.70850489046,0,60.7495689392,9.77443599701,62.4646911621,96.028427124,39.565448761,39.565448761,60.7495689392,60.7495689392,39.5169639587,1.2545208931,0,0.000731775071472,0.165498539805,0.020374186337,0.0211059600115,1.55924797058,0.137576445937,-0.637954711914,-0.00668782414868,0.778190612793,0.0192890539765,-12.7546367645,-0.476589232683,11.33368396759,95.390472412086,40.343639373793,26.7623271942,163
1.64951883535043E+018,2,1.64951883535043E+018,r1000913c5/base_footprint,0,1.64951883535043E+018,v/m1vw10zy74w/map,-8.73102771272,-2.37778164988,0,0,0,-0.705705902055,0.70850489046,0,60.9653968811,9.77443599701,66.6352767944,96.028427124,39.5592803955,39.5592803955,60.9653968811,60.9653968811,35.5654144287,1.66855669022,0,0.00294541218318,0.199842378497,0.0212489571422,0.0241943690926,1.55924797058,0.137576445937,-0.637954711914,-0.00668782414868,0.784358978271,0.0194419492036,-8.8030872345,-0.328935801983,11.33368396759,95.390472412086,40.343639373771,26.7623271942,163
1.64951883545157E+018,3,1.64951883545157E+018,r1000913c5/base_footprint,0,1.64951883545158E+018,v/m1vw10zy74w/map,-8.73102771272,-2.37778164988,0,0,0,-0.705705902055,0.70850489046,0,61.2481613159,9.77443599701,71.8485183716,96.028427124,39.5838050842,39.5838050842,61.2481613159,61.2481613159,30.7405166626,1.50006651878,0,0.00707480404526,0.203914731741,0.0404910370708,0.04756584391,1.55924797058,0.137576445937,-0.637954711914,-0.00668782414868,0.759834289551,0.0188340544701,-3.97818946838,-0.14864885807,11.33368396759,95.390472412086,40.343639373751,26.76232719422,163
1.64951883555091E+018,4,1.64951883555091E+018,r1000913c5/base_footprint,0,1.64951883555091E+018,v/m1vw10zy74w/map,-8.73102771272,-2.37778164988,0,0,0,-0.705705902055,0.70850489046,0,61.7139930725,14.5154466629,75.9774017334,96.028427124,39.689453125,39.689453125,61.7139930725,61.7139930725,23.4965686798,1.56431424618,0,0.00633063120767,0.194342404604,0.0490083545446,0.055338986218,-3.18176269531,-0.280735075474,-0.637954711914,-0.00668782414868,0.654186248779,0.0162153504789,3.2657585144,0.122028194368,11.33368396759,95.390472412086,40.343639373779,26.7623271942,163
1.64951883565094E+018,5,1.64951883565094E+018,r1000913c5/base_footprint,0,1.64951883565094E+018,v/m1vw10zy74w/map,-8.74587587114,-2.22322061109,0,0,0,-0.720202968805,0.693763420572,0,61.3212242126,15.1260499954,79.1470489502,96.0545425415,39.7333641052,39.7333641052,61.3212242126,61.3212242126,31.1346206665,1.35959231853,0,0.00642002653331,0.177308157086,0.0526494681835,0.0590694956481,-3.10705280304,-0.258511811495,-0.64266204834,-0.00673566060141,0.697818756104,0.0172594189644,-2.50638771057,-0.087549507618,12.01899719236,95.41188049316,40.431182861304,28.62823295593,204
1.64951883575102E+018,6,1.64951883575102E+018,r1000913c5/base_footprint,0,1.64951883575102E+018,v/m1vw10zy74w/map,-8.74587587114,-2.22322061109,0,0,0,-0.720202968805,0.693763420572,0,61.4497756958,13.224864006,81.6153564453,96.0545425415,39.6266937256,39.6266937256,61.4497756958,61.4497756958,27.668712616,1.28196811676,0,0.00662436150014,0.171094328165,0.0516425706446,0.0582669302821,-1.20586681366,-0.100330069661,-0.64266204834,-0.00673566060141,0.804489135742,0.0198977384716,0.959520339966,0.033516574651,12.01899719234,95.41188049316,40.431182861342,28.628232955966,204
1.64951883585029E+018,7,1.64951883585029E+018,r1000913c5/base_footprint,0,1.64951883585029E+018,v/m1vw10zy74w/map,-8.72731060381,-2.09299109129,0,0,0,-0.722118649732,0.691769221424,0,61.120059967,14.9849720001,83.7089385986,96.0832061768,39.6654853821,39.6654853821,61.120059967,61.120059967,34.1256904602,1.11615252495,0,0.00557064265013,0.146929547191,0.046073757112,0.0516443997622,-2.28349304199,-0.179781660438,-0.719802856445,-0.00754799880087,0.911315917969,0.0224590376019,-3.83171272278,-0.126484304667,12.70147895811,95.363403320355,40.576801300069,30.29397773742,255
1.64951883595133E+018,8,1.64951883595133E+018,r1000913c5/base_footprint,0,1.64951883595133E+018,v/m1vw10zy74w/map,-8.72731060381,-2.09299109129,0,0,0,-0.722118649732,0.691769221424,0,61.7092704773,16.0899658203,75.5563659668,96.0832061768,39.7548179626,39.7548179626,61.7092704773,61.7092704773,24.4847431183,0.989389896393,0,0.00872136931866,0.128640919924,0.039885211736,0.048606581986,-3.38848686218,-0.266778916121,-0.719802856445,-0.00754799880087,0.821983337402,0.0202574692667,5.80923461914,0.191762030125,12.70147895812,95.363403320355,40.576801300002,30.29397773744,255
1.6495188360504E+018,9,1.6495188360504E+018,r1000913c5/base_footprint,0,1.6495188360504E+018,v/m1vw10zy74w/map,-8.72731060381,-2.09299109129,0,0,0,-0.722118649732,0.691769221424,0,61.2374038696,16.0899658203,70.795715332,96.0832061768,39.8940429688,39.8940429688,61.2374038696,61.2374038696,34.4819259644,0.844892919064,0,0.00789266917855,0.122824370861,0.0391410700977,0.0470337383449,-3.38848686218,-0.266778916121,-0.719802856445,-0.00754799880087,0.682758331299,0.0168263223022,-4.18794822693,-0.138243585825,12.70147895812,95.363403320355,40.576801300099,30.29397773747,255
1.64951883615072E+018,10,1.64951883615072E+018,r1000913c5/base_footprint,0,1.64951883615072E+018,v/m1vw10zy74w/map,-8.72582446127,-1.95812466093,0,0,0,-0.723436913278,0.69039049277,0,61.4793930054,17.8200683594,62.2939186096,95.8344192505,40.119342804,40.119342804,61.4793930054,61.4793930054,31.6637172699,0.647124111652,0,0.00617388356477,0.102023072541,0.0346132926643,0.0407871752977,-4.79013061523,-0.36762496829,-0.515838623047,-0.00541173201054,0.554401397705,0.0136304488406,-0.0794658660889,-0.00251599657349,13.02993774417,95.318580627453,40.673744201705,31.5842514038111,302
1.64951883625159E+018,11,1.64951883625159E+018,r1000913c5/base_footprint,0,1.64951883625159E+018,v/m1vw10zy74w/map,-8.72582446127,-1.95812466093,0,0,0,-0.723436913278,0.69039049277,0,61.3349266052,15.6010227203,57.194984436,95.8344192505,40.4363975525,40.4363975525,61.3349266052,61.3349266052,37.6883010864,0.812427461147,0,0.00678311521187,0.0895465090871,0.0313440077007,0.0381271243095,-2.5710849762,-0.197321355343,-0.515838623047,-0.00541173201054,0.23734664917,0.00583537761122,-6.10404968262,-0.193262442946,13.0299377441,95.318580627453,40.67374420167,31.58425140378,302
1.6495188364509E+018,12,1.6495188364509E+018,r1000913c5/base_footprint,0,1.6495188364509E+018,v/m1vw10zy74w/map,-8.72538004372,-1.83324713231,0,0,0,-0.723022449293,0.690824534754,0,61.3908195496,18.0827884674,50.8356971741,95.6066360474,40.6779403687,40.6779403687,61.3908195496,61.3908195496,38.4708862305,0.82213640213,0,0.0065515707247,0.0802620276809,0.0305587947369,0.0371103659272,-4.45985507965,-0.327378481627,-0.296401977539,-0.00310986512341,0.0915603637695,0.0022458054591,-5.83002853394,-0.178611382842,13.62293338775,95.310234069861,40.7695007324695,32.64085769656,307
1.64951883655123E+018,13,1.64951883655123E+018,r1000913c5/base_footprint,0,1.64951883655123E+018,v/m1vw10zy74w/map,-8.72538004372,-1.83324713231,0,0,0,-0.723022449293,0.690824534754,0,61.4871368408,20.9961357117,47.3773612976,95.6066360474,40.8590507507,40.8590507507,61.4871368408,61.4871368408,38.6931610107,0.729519844055,0,0.00617853086442,0.074346087873,0.0309318341315,0.0371103659272,-7.37320232391,-0.54123455286,-0.296401977539,-0.00310986512341,-0.0895500183105,-0.00219649542123,-6.05230331421,-0.185421094298,13.62293338779,95.310234069861,40.7695007323895,32.64085769649,307
1.64951883665048E+018,14,1.64951883665048E+018,r1000913c5/base_footprint,0,1.64951883665048E+018,v/m1vw10zy74w/map,-8.72538004372,-1.83324713231,0,0,0,-0.723022449293,0.690824534754,0,61.4341087341,19.8257083893,47.2008590698,95.6066360474,41.0242576599,41.0242576599,61.4341087341,61.4341087341,41.431930542,0.652333140373,0,0.00607578130439,0.0717359557748,0.0310345832258,0.0371103659272,-6.20277500153,-0.455318599939,-0.296401977539,-0.00310986512341,-0.25475692749,-0.006248713471,-8.79107284546,-0.269327253103,13.62293338777,95.310234069861,40.76950073241,32.64085769654,307
1.6495188367502E+018,15,1.6495188367502E+018,r1000913c5/base_footprint,0,1.6495188367502E+018,v/m1vw10zy74w/map,-8.72538004372,-1.83324713231,0,0,0,-0.723022449293,0.690824534754,0,61.6066589355,16.0899658203,47.0247764587,95.6066360474,41.0887451172,41.0887451172,61.6066589355,61.6066589355,39.0224876404,0.788517892361,0,0.00604881066829,0.0673827007413,0.0310615543276,0.0371103659272,-2.46703243256,-0.181094065309,-0.296401977539,-0.00310986512341,-0.319244384766,-0.0078304708004,-6.38162994385,-0.195510491729,13.62293338774,95.310234069861,40.769500732434,32.64085769655,307
1.64951883685029E+018,16,1.64951883685029E+018,r1000913c5/base_footprint,0,1.64951883685029E+018,v/m1vw10zy74w/map,-8.71536468454,-1.69322339602,0,0,0,-0.723552028385,0.690269847393,0,61.3508224487,19.2786598206,46.9082794189,95.4686050415,41.1528625488,41.1528625488,61.3508224487,61.3508224487,43.8230895996,0.746718227863,0,0.00620899815112,0.0589536838233,0.0309013668448,0.0371103659272,-4.5707950592,-0.310772180557,-0.22241973877,-0.0023352089338,-0.196743011475,-0.00480375112966,-9.17436218262,-0.264782071114,14.7078647614,95.24618530273,40.956119537325,34.64872741698,309
1.64951883695136E+018,17,1.64951883695136E+018,r1000913c5/base_footprint,0,1.64951883695137E+018,v/m1vw10zy74w/map,-8.71536468454,-1.69322339602,0,0,0,-0.723552028385,0.690269847393,0,61.4387359619,13.3986930847,46.8417854309,95.4686050415,41.1195220947,41.1195220947,61.4387359619,61.4387359619,41.8805465698,0.569730401039,0,0.00627577211708,0.0525371059775,0.0308345928788,0.0371103659272,1.30917167664,0.0890116766095,-0.22241973877,-0.0023352089338,-0.163402557373,-0.00398969836533,-7.23181915283,-0.208718180656,14.70786476134,95.24618530273,40.956119537327,34.64872741697,309
1.64951883705132E+018,18,1.64951883705132E+018,r1000913c5/base_footprint,0,1.64951883705132E+018,v/m1vw10zy74w/map,-8.71536468454,-1.69322339602,0,0,0,-0.723552028385,0.690269847393,0,61.6884078979,15.6186609268,46.8060493469,95.4686050415,41.0723953247,41.0723953247,61.6884078979,61.6884078979,36.8775138855,0.536219418049,0,0.00658221822232,0.0478071458638,0.0305281467736,0.0371103659272,-0.910796165466,-0.061925791204,-0.22241973877,-0.0023352089338,-0.116275787354,-0.00283903325908,-2.22878646851,-0.0643252059817,14.707864761334,95.24618530273,40.956119537346,34.64872741699,309
1.64951883715098E+018,19,1.64951883715098E+018,r1000913c5/base_footprint,0,1.64951883715098E+018,v/m1vw10zy74w/map,-8.71394018189,-1.55064303222,0,0,0,-0.721889729206,0.69200810607,0,61.5865058899,15.966386795,46.7305145264,95.259552002,41.0127754211,41.0127754211,61.5865058899,61.5865058899,37.3152732849,0.62073469162,0,0.00663728220388,0.0417276285589,0.0304730832577,0.0371103659272,-0.515892982483,-0.0333900637925,-0.0642166137695,-0.000674577313475,0.113231658936,0.00275328592397,-1.39294052124,-0.0387764498591,15.450493812517,95.1953353882305,41.126007080036,35.92233276366,314
1.64951883725101E+018,20,1.64951883725101E+018,r1000913c5/base_footprint,0,1.64951883725101E+018,v/m1vw10zy74w/map,-8.71394018189,-1.55064303222,0,0,0,-0.721889729206,0.69200810607,0,60.9370384216,15.075963974,46.5391616821,95.259552002,40.9432868958,40.9432868958,60.9370384216,60.9370384216,48.2551879883,0.494225859642,0,0.00661577656865,0.037093386054,0.0304945874959,0.0371103659272,0.374529838562,0.0242406390607,-0.0642166137695,-0.000674577313475,0.182720184326,0.00444293534383,-12.3328552246,-0.343320012093,15.450493812562,95.1953353882305,41.126007080126,35.9223327637,314
1.64951883735117E+018,21,1.64951883735117E+018,r1000913c5/base_footprint,0,1.64951883735117E+018,v/m1vw10zy74w/map,-8.70249371236,-1.41875703568,0,0,0,-0.721625214463,0.692283937305,0,61.1304168701,15.7392683029,46.6381797791,95.0771865845,40.8577423096,40.8577423096,61.1304168701,61.1304168701,43.1940116882,0.450728595257,0,0.00657985685393,0.0323764160275,0.030530506745,0.0371103659272,-0.0439319610596,-0.00279904552735,0.108108520508,0.00113576918375,0.36792755127,0.00892471987754,-6.95449829102,-0.191903740168,15.6953363418404,95.185295105008,41.22566986087,36.23951339718,315
1.64951883745053E+018,22,1.64951883745053E+018,r1000913c5/base_footprint,0,1.64951883745053E+018,v/m1vw10zy74w/map,-8.70838446014,-1.42746262682,0,0,0,-0.723103062955,0.690740153998,0,61.1465950012,13.5654258728,46.8368682861,95.0445098877,40.7644844055,40.7644844055,61.1465950012,61.1465950012,41.7779541016,0.370481431484,0,0.00649361638352,0.0261867493391,0.0300346184522,0.036528237164,2.12991046906,0.135703399777,0.140785217285,0.00147906481288,0.461185455322,0.0111868521199,-5.53844070435,-0.152828782797,15.69533634186,95.185295104985,41.225669860822,36.23951339725,315
1.64951883755059E+018,23,1.64951883755059E+018,r1000913c5/base_footprint,0,1.64951883755059E+018,v/m1vw10zy74w/map,-8.70838446014,-1.42746262682,0,0,0,-0.723103062955,0.690740153998,0,60.939956665,17.4836597443,47.1852035522,95.0445098877,40.6672019958,40.6672019958,60.939956665,60.939956665,44.4467811584,0.379917383194,0,0.00669275224209,0.0186758060008,0.0295890402049,0.0362817905843,-1.7883234024,-0.113939791918,0.140785217285,0.00147906481288,0.55846786499,0.0135466046631,-8.20726776123,-0.226472899318,15.6953363419,95.185295104985,41.22566986079,36.23951339717,315
1.64951883765063E+018,24,1.64951883765063E+018,r1000913c5/base_footprint,0,1.64951883765064E+018,v/m1vw10zy74w/map,-8.69857883753,-1.29698453917,0,0,0,-0.721279930566,0.692643675899,0,61.3881950378,13.6157960892,50.633846283,94.9974060059,40.7004814148,40.7004814148,61.3881950378,61.3881950378,36.5683326721,0.634334385395,0,0.00663304748014,0.0144759584218,0.0293938089162,0.0360268577933,2.59228610992,0.159937873483,0.158737182617,0.00166817591526,0.741176605225,0.0178848206997,-0.568866729736,-0.0158020872623,16.20808219912,95.156143188517,41.441658020025,35.999465942364,325
1.64951883775128E+018,25,1.64951883775128E+018,r1000913c5/base_footprint,0,1.64951883775128E+018,v/m1vw10zy74w/map,-8.69857883753,-1.29698453917,0,0,0,-0.721279930566,0.692643675899,0,61.5557518005,13.224864006,57.0883979797,94.9974060059,40.7772407532,40.7772407532,61.5557518005,61.5557518005,34.3813171387,0.578869640827,0,0.00680356752127,0.0106816384941,0.0292232893407,0.0360268577933,2.98321819305,0.184057444334,0.158737182617,0.00166817591526,0.664417266846,0.0160325933248,1.61814880371,0.0449492447078,16.20808219905,95.156143188517,41.441658020046,35.99946594241,325
1.64951883785259E+018,26,1.64951883785259E+018,r1000913c5/base_footprint,0,1.64951883785259E+018,v/m1vw10zy74w/map,-8.6844413813,-1.15719548786,0,0,0,-0.72241783333,0.691456776731,0,61.2667007446,15.6010227203,64.5565795898,94.8599014282,40.7879257202,40.7879257202,61.2667007446,61.2667007446,39.2046318054,0.479608744383,0,0.0070284451358,0.0526051148772,0.0289984103292,0.0360268577933,2.44445800781,0.135460957885,-0.0914077758789,-0.000964537612163,4.74347686768,0.104180335999,-4.46821212769,-0.128631919622,18.04548072811,94.7684936523211,45.53140258788,34.73641967771,941
1.64951883795112E+018,27,1.64951883795112E+018,r1000913c5/base_footprint,0,1.64951883795112E+018,v/m1vw10zy74w/map,-8.6844413813,-1.15719548786,0,0,0,-0.72241783333,0.691456776731,0,61.3225212097,14.8936166763,71.6990966797,94.8599014282,40.7949485779,40.7949485779,61.3225212097,61.3225212097,38.2756958008,0.536844730377,0,0.00752805545926,0.112664550543,0.0253791231662,0.0329071804881,3.15186405182,0.174662232399,-0.0914077758789,-0.000964537612163,4.73645401001,0.104026094079,-3.53927612305,-0.101889491081,18.04548072812,94.7684936523211,45.53140258791,34.73641967775,941
1.64951883815115E+018,28,1.64951883815115E+018,r1000913c5/base_footprint,0,1.64951883815115E+018,v/m1vw10zy74w/map,-8.6844413813,-1.15719548786,0,0,0,-0.72241783333,0.691456776731,0,61.5535087585,19.8257083893,74.6979904175,94.8599014282,40.9902687073,40.9902687073,61.5535087585,61.5535087585,36.2273902893,0.579858660698,0,0.00544661749154,0.140866234899,0.0260031949729,0.0314498133957,-1.78022766113,-0.0986522734165,-0.0914077758789,-0.000964537612163,4.54113388062,0.099736303091,-1.49097061157,-0.0429224036634,18.04548072817,94.7684936523211,45.53140258792,34.73641967773,941
1.64951883825046E+018,29,1.64951883825046E+018,r1000913c5/base_footprint,0,1.64951883825046E+018,v/m1vw10zy74w/map,-8.67872952972,-1.03241680012,0,0,0,-0.722789924759,0.691067814811,0,62.0156326294,21.8612823486,80.1269226074,95.0007553101,41.0800476074,41.0800476074,62.0156326294,62.0156326294,29.3858394623,0.538650929928,0,0.00184396666009,0.154260247946,0.0176776833832,0.0195216499269,-3.76777076721,-0.208238780499,-0.372650146484,-0.00393804954365,4.92041778564,0.10696452111,5.39999961853,0.155235573649,18.09351158139,94.628105163616,46.00046539304,34.78583908083,1080
1.64951883835069E+018,30,1.64951883835069E+018,r1000913c5/base_footprint,0,1.64951883835069E+018,v/m1vw10zy74w/map,-8.67439336017,-0.904955376301,0,0,0,-0.722891349423,0.69096171886,0,62.4102325439,19.5501728058,82.2515563965,94.813331604,41.450717926,41.450717926,62.4102325439,62.4102325439,25.6115283966,0.605695009232,0,0.00124689773656,0.159178212285,0.00113180780318,0.00237870565616,-1.42642021179,-0.0787044614553,-0.239753723145,-0.00253510265611,4.86929702759,0.105122961104,9.10996437073,0.262372493744,18.12375259401,94.573577880855,46.32001495359,34.72149276733,1191
1.64951883845034E+018,31,1.64951883845034E+018,r1000913c5/base_footprint,0,1.64951883845034E+018,v/m1vw10zy74w/map,-8.67439336017,-0.904955376301,0,0,0,-0.722891349423,0.69096171886,0,62.2265586853,20.4152240753,84.3794403076,94.813331604,41.7600593567,41.7600593567,62.2265586853,62.2265586853,32.258605957,0.316138654947,0,0.000697175448295,0.153851300478,0.00236020842567,0.00166303303558,-2.29147148132,-0.126434713602,-0.239753723145,-0.00253510265611,4.55995559692,0.0984446033835,2.4628868103,0.0709326267242,18.12375259398,94.573577880855,46.32001495362,34.7214927673,1191
1.64951883855109E+018,32,1.64951883855109E+018,r1000913c5/base_footprint,0,1.64951883855109E+018,v/m1vw10zy74w/map,-8.67269478921,-0.784850400166,0,0,0,-0.723074380645,0.690770178898,0,62.4298706055,17.2113285065,84.3245544434,94.9417953491,42.0055351257,42.0055351257,62.4298706055,62.4298706055,31.7125988007,0.288128972054,0,0.000125003658468,0.15353628993,0.00178803666495,0.00166303303558,1.03594970703,0.0567728355527,-0.379829406738,-0.00401672488078,4.54515838623,0.0976388975978,2.96370124817,0.0854676291347,18.24727821353,94.561965942362,46.55069351193,34.67630004887,1182
1.64951883865114E+018,33,1.64951883865114E+018,r1000913c5/base_footprint,0,1.64951883865114E+018,v/m1vw10zy74w/map,-8.67010796092,-0.7933819682,0,0,0,-0.723655717589,0.690161142344,0,62.6772994995,21.2802772522,84.3635101318,95.217300415,42.281452179,42.281452179,62.6772994995,62.6772994995,31.2305622101,0.279441148043,0,0.000134567773785,0.153873413801,0.00180839165114,0.00194295938127,-3.0329990387,-0.166216522455,-0.655334472656,-0.0069302120246,4.26924133301,0.0917116627097,3.44573783875,0.0993686690927,18.2472782135,94.561965942344,46.55069351201,34.67630004885,1182
1.64951883875092E+018,34,1.64951883875092E+018,r1000913c5/base_footprint,0,1.64951883875092E+018,v/m1vw10zy74w/map,-8.67010796092,-0.7933819682,0,0,0,-0.723655717589,0.690161142344,0,62.9051170349,17.8200683594,84.3897857666,95.217300415,42.459186554,42.459186554,62.9051170349,62.9051170349,29.0493907928,0.184242457151,0,0.00038087143912,0.154893621802,0.00183050113264,0.00221137260087,0.427209854126,0.0234122499824,-0.655334472656,-0.0069302120246,4.09150695801,0.0878935754299,5.62690925598,0.162269592285,18.247278213526,94.561965942344,46.55069351201,34.67630004878,1182
1.64951883885131E+018,35,1.64951883885131E+018,r1000913c5/base_footprint,0,1.64951883885131E+018,v/m1vw10zy74w/map,-8.66678074367,-0.683503365654,0,0,0,-0.720893466704,0.693045892898,0,62.613155365,22.4400863647,84.3987503052,94.9034500122,42.7177124023,42.7177124023,62.613155365,62.613155365,35.9669113159,0.214074268937,0,0.00112426630221,0.154529318213,0.00108710641507,0.00221137260087,-4.21785736084,-0.231467694044,-0.369255065918,-0.00390604767017,3.99506759644,0.0855240821838,-1.32420349121,-0.0382245965302,18.22222900386,94.534194946282,46.71277999874,34.64270782469,1145
1.64951883895108E+018,36,1.64951883895108E+018,r1000913c5/base_footprint,0,1.64951883895108E+018,v/m1vw10zy74w/map,-8.66678074367,-0.683503365654,0,0,0,-0.720893466704,0.693045892898,0,62.3737182617,19.5501728058,83.9681625366,94.9034500122,42.941532135,42.941532135,62.3737182617,62.3737182617,42.6940002441,0.193661391735,0,0.00124333600979,0.153970822692,0.000686341314577,0.00192967732437,-1.32794380188,-0.0728749409318,-0.369255065918,-0.00390604767017,3.77124786377,0.0807326808572,-8.05129241943,-0.232409447432,18.22222900392,94.534194946282,46.71277999877,34.64270782467,1145
1.64951883905063E+018,37,1.64951883905063E+018,r1000913c5/base_footprint,0,1.64951883905063E+018,v/m1vw10zy74w/map,-8.65505493604,-0.544513880357,0,0,0,-0.723018448243,0.690828722261,0,62.7217063904,23.3115463257,83.5235443115,94.6336975098,43.094783783,43.094783783,62.7217063904,62.7217063904,37.114276886,0.257237046957,0,0.00197955593467,0.154342636466,0.000896047160495,0.00108350871596,-5.07894325256,-0.278563797474,-0.1162109375,-0.00122951786034,3.69428253174,0.078956104815,-2.50531387329,-0.0723891630769,18.23260307314,94.5174865723,46.78906631474,34.60896301271,1050
1.64951883915043E+018,38,1.64951883915043E+018,r1000913c5/base_footprint,0,1.64951883915043E+018,v/m1vw10zy74w/map,-8.65505493604,-0.544513880357,0,0,0,-0.723018448243,0.690828722261,0,62.9837799072,10.8734407425,77.7906341553,94.6336975098,43.1428833008,43.1428833008,62.9837799072,62.9837799072,32.916431427,0.00834131985903,0,0.00211260723881,0.154050201178,0.00102909852285,0.00108350871596,7.35916233063,0.403626531363,-0.1162109375,-0.00122951786034,3.64618301392,0.077928096056,1.69253158569,0.0489044301212,18.23260307313,94.5174865723,46.78906631472,34.60896301269,1050
1.64951884125109E+018,39,1.64951884125109E+018,r1000913c5/base_footprint,0,1.64951884125109E+018,v/m1vw10zy74w/map,-8.64826301578,-0.421930679145,0,0,0,-0.722786184905,0.691071726314,0,62.9831504822,9.77443599701,73.255645752,94.632270813,43.1188201904,43.1188201904,62.9831504822,62.9831504822,32.6627159119,0.110905125737,0,0.00252083572559,0.189115077257,0.0232207793742,0.0206999443471,8.23097896576,0.457139074802,-0.141342163086,-0.00149582780432,3.59706497192,0.0769987553358,1.82995605469,0.0530534721911,18.00541496277,94.490928649914,46.71588516232,34.49267196659,943
1.64951884135042E+018,40,1.64951884135042E+018,r1000913c5/base_footprint,0,1.64951884135042E+018,v/m1vw10zy74w/map,-8.64826301578,-0.421930679145,0,0,0,-0.722786184905,0.691071726314,0,62.949256897,11.0911540985,72.498916626,94.632270813,42.9382362366,42.9382362366,62.949256897,62.949256897,31.3224639893,0.0727045983076,0,0.00304880179465,0.18609662354,0.0650328993797,0.0619840994477,6.91426086426,0.384010076523,-0.141342163086,-0.00149582780432,3.77764892578,0.0808643326163,3.17020797729,0.091909609735,18.00541496276,94.490928649914,46.71588516238,34.49267196659,943
1.64951884145026E+018,41,1.64951884145026E+018,r1000913c5/base_footprint,0,1.64951884145026E+018,v/m1vw10zy74w/map,-8.65001604527,-0.488553052326,0,0,0,-0.686652466844,0.726985825018,0,63.2973213196,10.0346021652,72.2237854004,94.2117538452,42.7127952576,42.7127952576,63.2973213196,63.2973213196,21.1086902618,0.29393646121,0,0.00260030082427,0.180742397904,0.0917722284794,0.0891719311476,8.07011699677,0.445746600628,0.295600891113,0.00312780821696,4.01648330688,0.0859521776438,13.445810318,0.389118939638,18.10471916197,94.507354736313,46.72927856448,34.5545005798,1004
1.64951884155051E+018,42,1.64951884155051E+018,r1000913c5/base_footprint,0,1.64951884155051E+018,v/m1vw10zy74w/map,-8.65001604527,-0.488553052326,0,0,0,-0.686652466844,0.726985825018,0,62.9931030273,10.8734407425,72.1134262085,94.2117538452,42.4437866211,42.4437866211,62.9931030273,62.9931030273,23.6793632507,0.0462089404464,0,0.000906529370695,0.176962479949,0.116064056754,0.116970583797,7.23127841949,0.399414002895,0.295600891113,0.00312780821696,4.28549194336,0.0917089283466,10.8751373291,0.314724206924,18.10471916199,94.507354736313,46.72927856446,34.5545005798,1004
1.64951884165058E+018,43,1.64951884165058E+018,r1000913c5/base_footprint,0,1.64951884165058E+018,v/m1vw10zy74w/map,-8.64369253411,-0.539804896243,0,0,0,-0.645811594853,0.763496813323,0,62.5126609802,8.69183540344,71.4188919067,94.2919998169,42.2501564026,42.2501564026,62.5126609802,62.5126609802,30.5249595642,-0.0309076793492,0,0.00120805832557,0.171595722437,0.129534929991,0.13074298203,9.54076766968,0.523280620575,0.225486755371,0.00238566170447,4.53890991211,0.0970079153776,4.08400344849,0.118004210293,18.23260307312,94.517486572271,46.78906631471,34.60896301269,1050
1.64951884175088E+018,44,1.64951884175088E+018,r1000913c5/base_footprint,0,1.64951884175088E+018,v/m1vw10zy74w/map,-8.63016551132,-0.590907868879,0,0,0,-0.591427843843,0.806357926437,0,62.1726074219,7.69230747223,68.9613494873,94.257774353,42.1343688965,42.1343688965,62.1726074219,62.1726074219,35.2722358704,0.0446081161499,0,0.000677747942973,0.163208171725,0.148463577032,0.149141311646,10.5373334885,0.578032970428,0.266036987305,0.00281449710019,4.61720657349,0.0987604483962,-0.553913116455,-0.0159544888884,18.22964096073,94.523811340305,46.75157546999,34.718322753945,1095
1.6495188418516E+018,45,1.6495188418516E+018,r1000913c5/base_footprint,0,1.6495188418516E+018,v/m1vw10zy74w/map,-8.60796572985,-0.619799914238,0,0,0,-0.530891617064,0.84743972702,0,61.6675033569,9.98217487335,66.2909622192,94.2157897949,42.0679016113,42.0679016113,61.6675033569,61.6675033569,43.4951248169,-0.195998102427,0,0.000696753384545,0.156451463699,0.160513818264,0.159817054868,8.22332286835,0.451694488525,0.318450927734,0.00336863053963,4.70217514038,0.100538112223,-8.73871994019,-0.251427620649,18.2054977417,94.534240722634,46.77007675168,34.75640487671,1120
1.64951884195088E+018,46,1.64951884195088E+018,r1000913c5/base_footprint,0,1.64951884195088E+018,v/m1vw10zy74w/map,-8.58154107095,-0.663698638664,0,0,0,-0.464868797971,0.885379579996,0,62.0594406128,6.9359087944,61.8708534241,94.9437408447,41.9961891174,41.9961891174,62.0594406128,62.0594406128,38.286365509,0.275574743748,0,0.0011686978396,0.149243354797,0.142529979348,0.141361281276,11.228805542,0.618165791035,-0.402320861816,-0.00425549829379,4.70299911499,0.100708372891,-3.43107223511,-0.0984376221895,18.1647143364,94.541419982884,46.69918823239,34.85529327389,1144
1.64951884205094E+018,47,1.64951884205094E+018,r1000913c5/base_footprint,0,1.64951884205095E+018,v/m1vw10zy74w/map,-8.52844386363,-0.714196076693,0,0,0,-0.355150505847,0.934809134635,0,61.7774200439,5.01089334488,56.8222351074,95.0129089355,41.8861999512,41.8861999512,61.7774200439,61.7774200439,42.4238624573,-0.0659195408225,0,0.000225835407036,0.143545642495,0.0866439566016,0.0864181220531,13.2725067139,0.725932121277,-0.448181152344,-0.00473941164091,4.78348922729,0.102496698499,-7.44807815552,-0.212949573994,18.28340005878,94.564727783156,46.66968917849,34.97578430178,1174
1.64951884215128E+018,48,1.64951884215128E+018,r1000913c5/base_footprint,0,1.64951884215128E+018,v/m1vw10zy74w/map,-8.48992245518,-0.735460734909,0,0,0,-0.287408714337,0.957808034485,0,61.5388717651,8.59077453613,56.5566253662,94.8717041016,41.6191596985,41.6191596985,61.5388717651,61.5388717651,43.3253555298,-0.0860252082348,0,0.00122261035722,0.136853143573,0.0403954200447,0.0416180305183,9.69262504578,0.53013253212,-0.306976318359,-0.00324620306492,5.05052947998,0.108218625188,-8.34957122803,-0.238724350929,18.28339958191,94.564727783241,46.66968917848,34.97578430177,1174
1.64951884225036E+018,49,1.64951884225036E+018,r1000913c5/base_footprint,0,1.64951884225036E+018,v/m1vw10zy74w/map,-8.44802385764,-0.756535646335,0,0,0,-0.231982081125,0.97272005944,0,61.6537132263,5.6956114769,55.0667419434,94.9957580566,41.4262924194,41.4262924194,61.6537132263,61.6537132263,39.6218795776,-0.0378254503012,0,9.21809769352E-05,0.129782542586,0.000593184609897,0.000685365579557,12.483915329,0.686701893806,-0.458961486816,-0.00485484488308,5.24493789673,0.11238053441,-4.421043396,-0.125594839454,18.1795268059,94.536796569784,46.67123031613,35.2008361816,1190
1.64951884235038E+018,50,1.64951884235038E+018,r1000913c5/base_footprint,0,1.64951884235038E+018,v/m1vw10zy74w/map,-8.38971186992,-0.774548315493,0,0,0,-0.166278999275,0.986078746551,0,61.0910301208,10.5493440628,53.0754928589,95.3963470459,41.174571991,41.174571991,61.0910301208,61.0910301208,48.4737129211,-0.21848885715,0,0.00287399208173,0.11566323787,0.0359287783504,0.0330547876656,7.56117725372,0.41750189662,-0.881309509277,-0.00932454317808,5.38637924194,0.115684479475,-13.2381134033,-0.375702798367,18.11052131652,94.515037536623,46.56095123294,35.2355995178,1211
1.64951884245122E+018,51,1.64951884245122E+018,r1000913c5/base_footprint,0,1.64951884245122E+018,v/m1vw10zy74w/map,-8.3179020793,-0.78972464798,0,0,0,-0.113292953345,0.993561627038,0,61.1525993347,7.06870985031,49.3330802917,95.4735717773,40.9495506287,40.9495506287,61.1525993347,61.1525993347,45.2132339478,-0.104039467871,0,0.00374258914962,0.0653676763177,0.0682754144073,0.0645328313112,10.889333725,0.606376349926,-0.960144042969,-0.0101588107646,5.77858734131,0.123663976789,-9.73508071899,-0.27439647913,17.95804357531,94.513427734331,46.72813797001,35.47815322881,1182
1.64951884255127E+018,52,1.64951884255127E+018,r1000913c5/base_footprint,0,1.64951884255127E+018,v/m1vw10zy74w/map,-8.22858804845,-0.798537638189,0,0,0,-0.0568993296775,0.998379920813,0,60.9900398254,8.49673175812,47.2007255554,95.5045776367,40.8614349365,40.8614349365,60.9900398254,60.9900398254,47.2993011475,-0.197587952018,0,0.00486150663346,0.0357439592481,0.0997448116541,0.0948833078146,10.1587247849,0.544544398785,-1.09590148926,-0.011608059518,6.77163314819,0.142162442207,-11.0998497009,-0.306630343199,18.65545654302,94.40867614744,47.63306808469,36.1994514466,985
1.64951884265123E+018,53,1.64951884265123E+018,r1000913c5/base_footprint,0,1.64951884265123E+018,v/m1vw10zy74w/map,-8.0987676055,-0.804982003307,0,0,0,-0.00690587545744,0.999976154158,0,61.2829322815,10.5882349014,46.976184845,95.3541717529,40.9696922302,40.9696922302,61.2829322815,61.2829322815,42.6548919678,0.307920724154,0,0.00793440733105,0.0231648404151,0.129957064986,0.122022651136,7.6848154068,0.420554608107,-1.00755310059,-0.0106792710721,7.11360931396,0.147943452001,-5.69123840332,-0.153968498111,18.2730503082,94.34661865231,48.08330154416,36.96365356448,877
1.64951884275097E+018,54,1.64951884275097E+018,r1000913c5/base_footprint,0,1.64951884275097E+018,v/m1vw10zy74w/map,-8.0987676055,-0.804982003307,0,0,0,-0.00690587545744,0.999976154158,0,61.3008918762,9.64705848694,46.7377815247,95.3541717529,41.3135223389,41.3135223389,61.3008918762,61.3008918762,46.0449905396,0.354083895683,0,0.00940565951169,0.0194492004812,0.142532110214,0.133126437664,8.62599182129,0.472060859203,-1.00755310059,-0.0106792710721,6.76977920532,0.14079272747,-9.0813369751,-0.245682880282,18.27305030823,94.34661865231,48.08330154422,36.9636535645,877
1.6495188428508E+018,55,1.6495188428508E+018,r1000913c5/base_footprint,0,1.6495188428508E+018,v/m1vw10zy74w/map,-7.95402380596,-0.797810966972,0,0,0,0.0197744382273,0.99980446668,0,62.7145957947,13.6029415131,46.5990867615,95.3089447021,41.8267021179,41.8267021179,62.7145957947,62.7145957947,25.9778881073,0.19378939271,0,0.00986024737358,0.0160496998578,0.148422151804,0.13856190443,3.82054519653,0.219275578856,-1.05201721191,-0.0111611662433,6.42217254639,0.133105129004,11.520658493,0.307229459286,17.42348670963,94.25692749019,48.24887466429,37.4985466003,817
1.64951884295103E+018,56,1.64951884295103E+018,r1000913c5/base_footprint,0,1.64951884295103E+018,v/m1vw10zy74w/map,-7.79097120712,-0.787793968911,0,0,0,0.0336333860621,0.999434237627,0,62.4268417358,9.77443599701,46.4074058533,95.1807937622,42.3086929321,42.3086929321,62.4268417358,62.4268417358,35.9015541077,0.285504639149,0,0.0105752162635,0.00902602262795,0.160213932395,0.149638727307,6.80796718597,0.410553723574,-0.93921661377,-0.00996605399996,5.97481918335,0.123744502664,1.65885543823,0.0441650003195,16.58240318298,94.24157714843,48.28351211545,37.56040954593,784
1.6495188430504E+018,57,1.6495188430504E+018,r1000913c5/base_footprint,0,1.6495188430504E+018,v/m1vw10zy74w/map,-7.79097120712,-0.787793968911,0,0,0,0.0336333860621,0.999434237627,0,62.9527549744,13.3126935959,46.2952804565,95.1807937622,42.8139152527,42.8139152527,62.9527549744,62.9527549744,31.8915462494,0.383939772844,0,0.0107548674569,0.000945593288634,0.163220793009,0.152465924621,3.2697095871,0.197179481387,-0.93921661377,-0.00996605399996,5.46959686279,0.113280840218,5.66886329651,0.150926560163,16.582403183,94.24157714843,48.28351211549,37.56040954591,784
1.64951884315043E+018,58,1.64951884315043E+018,r1000913c5/base_footprint,0,1.64951884315043E+018,v/m1vw10zy74w/map,-7.64229846696,-0.775249609315,0,0,0,0.0354979282038,0.999369749939,0,62.5438117981,15.1846780777,46.4114761353,94.8881149292,43.3914375305,43.3914375305,62.5438117981,62.5438117981,44.4361114502,0.0190215613693,0,0.0101250624284,0.010819433257,0.169093266129,0.158968195319,0.587574958801,0.0372537113726,-0.481407165527,-0.00509929005057,3.71397781372,0.0788439661264,-7.7781829834,-0.212182834744,15.772253036501,94.406707763673,47.10541534422,36.6579284668,1024
1.6495188433504E+018,59,1.6495188433504E+018,r1000913c5/base_footprint,0,1.6495188433504E+018,v/m1vw10zy74w/map,-7.4721672848,-0.760352783335,0,0,0,0.035657045198,0.99936408537,0,63.151184082,20.0367641449,46.6280059814,94.4080047607,43.948387146,43.948387146,63.151184082,63.151184082,37.7900810242,0.530388593674,0,0.0097116753459,0.0209892988205,0.17101188004,0.161300197244,-4.13099575043,-0.259716838598,0.116035461426,0.00122757616919,2.48112869263,0.0534386076033,-1.7227897644,-0.0477659851313,15.90576839447,94.524040222126,46.42951583863,36.0672912598,1208
1.64951884345268E+018,60,1.64951884345268E+018,r1000913c5/base_footprint,0,1.64951884345268E+018,v/m1vw10zy74w/map,-7.4721672848,-0.760352783335,0,0,0,0.035657045198,0.99936408537,0,63.7026367188,22.4806194305,46.7988739014,94.4080047607,44.525642395,44.525642395,63.7026367188,63.7026367188,34.098274231,0.439241200686,0,0.00980026833713,0.0244977250695,0.171895042062,0.162094771862,-6.57485103607,-0.413362681866,0.116035461426,0.00122757616919,1.9038734436,0.0410056710243,1.96901702881,0.0545928739011,15.90576839443,94.524040222126,46.4295158386,36.06729125981,1208
1.64951884355212E+018,61,1.64951884355212E+018,r1000913c5/base_footprint,0,1.64951884355213E+018,v/m1vw10zy74w/map,-7.32558599115,-0.760867429178,0,0,0,0.0289036906218,0.999582201056,0,64.213180542,15.966386795,47.0165901184,94.0460510254,45.0460929871,45.0460929871,64.213180542,64.213180542,29.2263851166,0.648679077625,0,0.00944040901959,0.031761482358,0.173514947295,0.164074540138,-0.107459068298,-0.00677593518049,0.484687805176,0.00512730376795,1.20203399658,0.0259909760207,6.74575614929,0.187527239323,15.858927726702,94.530738830576,46.24812698368,35.97214126589,1252
1.64951884365107E+018,62,1.64951884365107E+018,r1000913c5/base_footprint,0,1.64951884365107E+018,v/m1vw10zy74w/map,-7.31986673856,-0.750362161918,0,0,0,0.0280436472459,0.999606699582,0,64.8555526733,23.0769233704,47.3024406433,94.4119720459,45.5522537231,45.5522537231,64.8555526733,64.8555526733,24.4475021362,0.683979153633,0,0.00873482786119,0.0431020595133,0.176887065172,0.168152227998,-7.15965747833,-0.449804484844,0.10498046875,0.00111070519779,0.788112640381,0.0170070435852,11.4525527954,0.319012135267,15.91726589207,94.51695251465,46.340366363481,35.9000549316,1231
1.64951884375686E+018,63,1.64951884375686E+018,r1000913c5/base_footprint,0,1.64951884375686E+018,v/m1vw10zy74w/map,-7.31986673856,-0.750362161918,0,0,0,0.0280436472459,0.999606699582,0,65.2806930542,18.7675075531,47.6570396423,94.4119720459,45.9295692444,45.9295692444,65.2806930542,65.2806930542,20.8699684143,0.707581698895,0,0.00904537178576,0.0474488288164,0.18297816813,0.173932805657,-2.85024166107,-0.179066032171,0.10498046875,0.00111070519779,0.410797119141,0.00886477902532,15.0300865173,0.418664723635,15.91726589203,94.51695251465,46.340366363541,35.9000549316,1231
1.64951884385085E+018,64,1.64951884385085E+018,r1000913c5/base_footprint,0,1.64951884385085E+018,v/m1vw10zy74w/map,-7.13526284308,-0.736881783236,0,0,0,0.023465951343,0.999724636651,0,65.3660202026,13.8490037918,49.3154144287,94.3659744263,46.1980285645,46.1980285645,65.3660202026,65.3660202026,22.0679168701,0.639228463173,0,0.00966972950846,0.065154671669,0.212788924575,0.203119188547,2.21245861053,0.137749508023,0.143157958984,0.00151475262828,0.0313987731934,0.000679194519762,13.6403083801,0.381993442774,16.06146240233,94.509132385284,46.2294273376934,35.7082252502,1241
1.64951884395142E+018,65,1.64951884395142E+018,r1000913c5/base_footprint,0,1.64951884395142E+018,v/m1vw10zy74w/map,-6.97515799972,-0.728454166516,0,0,0,0.0180627849533,0.999836854592,0,64.9057922363,17.8337993622,51.8446273804,94.3820724487,46.5171127319,46.5171127319,64.9057922363,64.9057922363,33.8560523987,0.493991851807,0,0.00999820325524,0.0773880183697,0.233367040753,0.223368838429,-1.34866142273,-0.0818107426167,0.12841796875,0.0013587694848,-0.177074432373,-0.00382119743153,2.0111618042,0.0560724288225,16.48513793947,94.51049041745,46.340038299527,35.8672142029,1257
1.64951884405063E+018,66,1.64951884405063E+018,r1000913c5/base_footprint,0,1.64951884405063E+018,v/m1vw10zy74w/map,-6.83212703878,-0.702031091714,0,0,0,0.0128961972862,0.99991684059,0,65.2724304199,11.2978525162,52.9055976868,94.3086776733,46.6725463867,46.6725463867,65.2724304199,65.2724304199,28.6710548401,0.502047598362,0,0.0107809556648,0.0924501419067,0.251947253942,0.241166308522,5.43812465668,0.324936181307,0.144874572754,0.00153381819837,-0.177234649658,-0.00381188211031,7.342212677,0.203875213861,16.73597717288,94.453552246054,46.495311737042,36.0132675171,1218
1.64951884415064E+018,67,1.64951884415064E+018,r1000913c5/base_footprint,0,1.64951884415064E+018,v/m1vw10zy74w/map,-6.66053150109,-0.692814865052,0,0,0,0.00975651266292,0.999952404098,0,65.0803527832,18.117647171,53.3153152466,94.822013855,46.787689209,46.787689209,65.0803527832,65.0803527832,35.2199363708,0.414369940758,0,0.00953758042306,0.102958530188,0.268635451794,0.259097874165,-1.28424263,-0.0762913152575,-0.568939208984,-0.00603629322723,0.679698944092,0.0143192829564,1.87005615234,0.0504194274545,16.833404541,94.253074646016,47.467388153092,37.08999252314,919
1.64951884425127E+018,68,1.64951884425127E+018,r1000913c5/base_footprint,0,1.64951884425127E+018,v/m1vw10zy74w/map,-6.48674586657,-0.686153540724,0,0,0,0.00118106982928,0.999999302537,0,65.3067703247,17.8337993622,55.7713623047,94.9021453857,46.9224128723,46.9224128723,65.3067703247,65.3067703247,32.8878517151,0.540298819542,0,0.00598667468876,0.117250964046,0.294308304787,0.288321644068,-1.69725799561,-0.105181023479,-0.719573974609,-0.00764020299539,0.683891296387,0.0143655613065,4.47338104248,0.11973322928,16.13654136659,94.182571411091,47.606304168687,37.36123275758,849
1.6495188443505E+018,69,1.6495188443505E+018,r1000913c5/base_footprint,0,1.6495188443505E+018,v/m1vw10zy74w/map,-6.48674586657,-0.686153540724,0,0,0,0.00118106982928,0.999999302537,0,65.0555114746,16.9000930786,57.5920639038,94.9021453857,46.9071578979,46.9071578979,65.0555114746,65.0555114746,37.2458610535,0.327098965645,0,0.00723095331341,0.127404630184,0.309504508972,0.302273541689,-0.763551712036,-0.0473181754351,-0.719573974609,-0.00764020299539,0.699146270752,0.0146860014647,0.115371704102,0.00308800581843,16.136541366564,94.182571411091,47.606304168652,37.361232757602,849
1.64951884445091E+018,70,1.64951884445091E+018,r1000913c5/base_footprint,0,1.64951884445091E+018,v/m1vw10zy74w/map,-6.16318697218,-0.684184848524,0,0,0,-0.0147420800517,0.999891329633,0,65.1742782593,13.8490037918,56.7976760864,94.6040802002,46.8471488953,46.8471488953,65.1742782593,65.1742782593,33.3868370056,0.207689866424,0,0.00733265420422,0.139579102397,0.315740585327,0.30840793252,0.528480529785,0.0367575101554,-0.518142700195,-0.00550712179393,0.808483123779,0.0169651117176,4.21049880981,0.111989289522,14.377484321585,94.085937500005,47.655632019079,37.59733581541,799
1.649518844551E+018,71,1.649518844551E+018,r1000913c5/base_footprint,0,1.64951884455101E+018,v/m1vw10zy74w/map,-6.00781079255,-0.693213810997,0,0,0,-0.02167911231,0.999764980428,0,65.1854934692,12.4705886841,50.8629074097,94.5063781738,46.8656349182,46.8656349182,65.1854934692,65.1854934692,33.0329399109,0.243408724666,0,0.00892412662506,0.152053326368,0.310923397541,0.301999270916,1.06996822357,0.0790195167065,-0.458396911621,-0.0048740748316,0.69803237915,0.0146757476032,4.11159515381,0.110691793263,13.54055690767,94.047981262179,47.56366729735,37.14453506471,776
1.64951884465085E+018,72,1.64951884465085E+018,r1000913c5/base_footprint,0,1.64951884465085E+018,v/m1vw10zy74w/map,-5.84310884681,-0.70550022918,0,0,0,-0.0250106403409,0.999687185008,0,65.6386032104,12.4705886841,47.1095733643,95.0007858276,46.9814720154,46.9814720154,65.6386032104,65.6386032104,27.9078197479,0.329764127731,0,0.00950292963535,0.16568826139,0.255371630192,0.245868682861,0.49419593811,0.0381183288991,-0.959129333496,-0.0101989833638,0.562114715576,0.0118231447414,8.56974601746,0.234931960702,12.96478462221,94.041656494104,47.543586730976,36.47756576536,757
1.64951884475051E+018,73,1.64951884475051E+018,r1000913c5/base_footprint,0,1.64951884475051E+018,v/m1vw10zy74w/map,-5.54833545585,-0.723347347341,0,0,0,-0.0214815642728,0.999769244574,0,65.1264648438,10.0346021652,46.6191177368,94.3847961426,46.8261795044,46.8261795044,65.1264648438,65.1264648438,33.2316093445,0.28413656354,0,0.00744255073369,0.186923459172,0.181637063622,0.174194514751,2.36514377594,0.190741315484,-0.373008728027,-0.00396768050268,0.716464996338,0.0150699438527,2.59887313843,0.0725324600935,12.39974594114,94.011787414573,47.542644500738,35.83048248293,762
1.64951884485119E+018,74,1.64951884485119E+018,r1000913c5/base_footprint,0,1.64951884485119E+018,v/m1vw10zy74w/map,-5.53612512541,-0.723301329292,0,0,0,-0.0204623016438,0.999790625187,0,64.8343505859,4.1028175354,46.3146629333,94.751449585,46.4418830872,46.4418830872,64.8343505859,64.8343505859,35.6592750549,0.501870214939,0,0.00809526629746,0.19408300519,0.164000064135,0.1559047997,8.29692840576,0.669120848179,-0.73966217041,-0.00786776002496,1.10076141357,0.0231531374156,0.171207427979,0.00477826176211,12.39974594116,94.01178741459,47.54264450077,35.830482482879,762
1.64951884495119E+018,75,1.64951884495119E+018,r1000913c5/base_footprint,0,1.6495188449512E+018,v/m1vw10zy74w/map,-5.3732821058,-0.727678572341,0,0,0,-0.0129661043501,0.999915936536,0,64.8454589844,6.09821891785,46.1142234802,94.7147979736,46.5343933105,46.5343933105,64.8454589844,64.8454589844,36.3265228271,0.260555326939,0,0.00518012559041,0.216650784016,0.1195236817,0.114343561232,5.94545078278,0.49365773797,-0.698097229004,-0.00742524722591,1.10166168213,0.0231266357005,-0.175422668457,-0.00485248491168,12.04366970063,94.016700744596,47.63605499263,36.151100158643,749
1.64951884505179E+018,76,1.64951884505179E+018,r1000913c5/base_footprint,0,1.64951884505179E+018,v/m1vw10zy74w/map,-5.18566921731,-0.726124164063,0,0,0,-0.00606272671519,0.999981621504,0,64.6094741821,9.97442436218,46.1025733948,94.7227859497,46.5705184937,46.5705184937,64.6094741821,64.6094741821,40.9931144714,0.27301889658,0,0.00443697301671,0.223902150989,0.108786702156,0.104349724948,1.47486591339,0.128817230463,-0.763854980469,-0.00812966842204,0.971122741699,0.0204267818481,-4.32468032837,-0.117940142751,11.44929027557,93.958930969231,47.541641235399,36.66843414303,734
1.6495188451514E+018,77,1.6495188451514E+018,r1000913c5/base_footprint,0,1.6495188451514E+018,v/m1vw10zy74w/map,-5.03653035036,-0.725376916706,0,0,0,-0.00107719441585,0.999999419826,0,64.3240966797,11.02323246,46.12707901,94.7389755249,46.6176681519,46.6176681519,64.3240966797,64.3240966797,46.697429657,0.564365684986,0,0.003925842233,0.2328145504,0.0898013189435,0.0858754739165,-0.283425331116,-0.0263901688159,-0.850486755371,-0.00905847735703,0.891647338867,0.0187678430229,-9.51761627197,-0.255988806486,10.739807128884,93.888488769529,47.509315490767,37.17981338503,741
1.64951884525147E+018,78,1.64951884525147E+018,r1000913c5/base_footprint,0,1.64951884525147E+018,v/m1vw10zy74w/map,-4.81760023354,-0.72522634515,0,0,0,0.00154203184204,0.999998811068,0,64.4233627319,8.27517414093,46.1822891235,94.3774185181,46.441493988,46.441493988,64.4233627319,64.4233627319,41.7062492371,0.618125259876,0,0.00296770827845,0.244647756219,0.0655220374465,0.0625543296337,1.74386692047,0.174055278301,-0.325988769531,-0.00346606923267,-1.21306610107,-0.0268208775669,-6.99401092529,-0.201485455036,10.0190410614,94.051429748569,45.22842788693,34.71223831181,1040
1.64951884535085E+018,79,1.64951884535085E+018,r1000913c5/base_footprint,0,1.64951884535085E+018,v/m1vw10zy74w/map,-4.67111267632,-0.717220626575,0,0,0,-0.000134951942809,0.999999990894,0,65.3087234497,4.47461032867,46.3348197937,94.6002349854,46.4289703369,46.4289703369,65.3087234497,65.3087234497,26.4366989136,0.743349254131,0,0.00149114604574,0.257522910833,0.0414083488286,0.0399172008038,5.13908004761,0.534558534622,-0.599502563477,-0.00637763692066,-2.37128448486,-0.0538222678006,6.94384765625,0.208020791411,9.61369037628,94.000732421923,44.05768585204,33.38054656985,1250
1.64951884545088E+018,80,1.64951884545088E+018,r1000913c5/base_footprint,0,1.64951884545089E+018,v/m1vw10zy74w/map,-4.51554200236,-0.723976601143,0,0,0,-0.00395399906591,0.999992182915,0,64.9708099365,10.7505073547,46.5095977783,94.5219345093,46.4541740417,46.4541740417,64.9708099365,64.9708099365,32.5094833374,0.720575332642,0,0.0003852515365,0.267272353172,0.0300407204777,0.0304259713739,-1.18253517151,-0.123593084514,-0.515602111816,-0.00548475934193,-2.66497802734,-0.060859259218,0.341781616211,0.0104039106518,9.56797218319,94.006332397484,43.78919601436,32.851264953611,1362
1.64951884555097E+018,81,1.64951884555097E+018,r1000913c5/base_footprint,0,1.64951884555097E+018,v/m1vw10zy74w/map,-4.3547819387,-0.719799308926,0,0,0,-0.00325692379183,0.99999469621,0,64.8123016357,10.2691926956,46.7626419067,94.4739837646,46.2757072449,46.2757072449,64.8123016357,64.8123016357,33.2625389099,1.03777217865,0,0.00167650682852,0.280261963606,0.0345955602825,0.0362720675766,-0.773830413818,-0.0814956203103,-0.48120880127,-0.00511963618919,-2.72703552246,-0.062620408833,-0.844703674316,-0.0260567571968,9.495362281782,93.99277496333,43.54867172244,32.417835235584,1390
1.64951884615135E+018,82,1.64951884615135E+018,r1000913c5/base_footprint,0,1.64951884615135E+018,v/m1vw10zy74w/map,-3.19613889767,-0.838844756597,0,0,0,-0.0945353348615,0.995521506781,0,64.7418670654,6.06475162506,71.4546508789,94.7190475464,45.8410568237,45.8410568237,64.7418670654,64.7418670654,30.718421936,0.810977935791,0,0.00423312978819,0.349921256304,0.00554822850972,0.00131509860512,1.84332275391,0.233093753457,-0.882522583008,-0.00940489396453,0.0363159179688,0.00079158670269,4.48701858521,0.127452418208,7.90807437897,93.836524963392,45.8773727416688,35.20544052121,782
1.6495188462513E+018,83,1.6495188462513E+018,r1000913c5/base_footprint,0,1.6495188462513E+018,v/m1vw10zy74w/map,-3.05194630011,-0.859055424861,0,0,0,-0.106410009821,0.994322336976,0,63.8589515686,3.05882358551,72.3379974365,94.3388137817,45.5153503418,45.5153503418,63.8589515686,63.8589515686,41.724395752,0.023232344538,0,0.00421853223816,0.357903331518,0.00958576891571,0.0053672362119,5.13037776947,0.626480817795,-0.476989746094,-0.00508182914928,0.525032043457,0.0114037292078,-6.50494766235,-0.184697598219,8.18920135498,93.861824035606,46.040382385257,35.21944808965,780
1.6495188463509E+018,84,1.6495188463509E+018,r1000913c5/base_footprint,0,1.6495188463509E+018,v/m1vw10zy74w/map,-2.69469576382,-0.947840116357,0,0,0,-0.125784560256,0.992057581192,0,64.0958557129,1.32827329636,72.7582931519,94.0135345459,45.3339767456,45.3339767456,64.0958557129,64.0958557129,34.3302993774,1.1641780138,0,0.00586719112471,0.369705766439,0.00831394549459,0.00244675436988,8.35013198853,0.862759113312,-0.246421813965,-0.00262801954523,0.840366363525,0.0181998554617,-0.698905944824,-0.0207813549787,9.67840528489,93.767112731935,46.174343109125,33.631393432576,745
1.64951884645128E+018,85,1.64951884645128E+018,r1000913c5/base_footprint,0,1.64951884645128E+018,v/m1vw10zy74w/map,-2.50684107933,-0.995100635709,0,0,0,-0.13317475877,0.991092570665,0,63.9257202148,1.96078431606,69.6732406616,94.1787109375,45.3039131165,45.3039131165,63.9257202148,63.9257202148,37.6627006531,1.09164142609,0,0.00621259398758,0.388504445553,0.0124758249149,0.00626323092729,8.30226039886,0.808947145939,-0.424598693848,-0.00452885404229,1.03532409668,0.0223422776908,-4.67993164062,-0.141890197992,10.26304471492,93.754112243652,46.33923721318,32.98276901248,726
1.64951884655061E+018,86,1.64951884655061E+018,r1000913c5/base_footprint,0,1.64951884655061E+018,v/m1vw10zy74w/map,-2.22267442853,-1.0800997104,0,0,0,-0.142287307364,0.989825399837,0,64.7047653198,4.58545637131,65.4103240967,94.5269317627,45.4026565552,45.4026565552,64.7047653198,64.7047653198,25.9598350525,1.23234426975,0,0.0061649964191,0.399265378714,0.017177881673,0.0110128857195,5.79824113846,0.558398485184,-0.732643127441,-0.00781117007136,1.15539169312,0.024816153571,6.82890319824,0.208269774914,10.38369750977,93.794288635259,46.55804824832,32.78873825074,729
1.649518846651E+018,87,1.649518846651E+018,r1000913c5/base_footprint,0,1.649518846651E+018,v/m1vw10zy74w/map,-2.13238367718,-1.10029832452,0,0,0,-0.147732427893,0.989027365521,0,64.6113510132,1.35746610165,63.3684883118,94.9046173096,45.7500839233,45.7500839233,64.6113510132,64.6113510132,32.7531547546,1.46995818615,0,0.0062885847874,0.412747293711,0.0246184524149,0.0183298662305,9.18989181519,0.871298015118,-1.11938476562,-0.011935618706,0.8522605896,0.0182879343629,-0.0339775085449,-0.00103845854755,10.54735791684,93.78523254398,46.6023445129,32.7191772460551,730
1.64951884675104E+018,88,1.64951884675104E+018,r1000913c5/base_footprint,0,1.64951884675104E+018,v/m1vw10zy74w/map,-1.8306051941,-1.2012444452,0,0,0,-0.153828625426,0.988097542755,0,64.3961029053,10.8159389496,59.6656532288,93.6024246216,45.9266891479,45.9266891479,64.3961029053,64.3961029053,33.84715271,1.32177019119,0,0.00654812902212,0.420856565237,0.0319606997073,0.0254125706851,-0.44455242157,-0.0428633540869,-0.0907669067383,-0.000970648019575,0.777008056641,0.0166369713843,-0.608978271484,-0.0183216519654,10.37138652803,93.5116577148617,46.703697204541,33.238174438516,727
1.64951884685088E+018,89,1.64951884685088E+018,r1000913c5/base_footprint,0,1.64951884685088E+018,v/m1vw10zy74w/map,-1.78412292996,-1.21043440001,0,0,0,-0.154824293265,0.987942021687,0,64.6619415283,11.2825460434,55.2524833679,93.6544876099,46.1086082458,46.1086082458,64.6619415283,64.6619415283,31.2142353058,1.48367643356,0,0.00641400460154,0.426623135805,0.0327204726636,0.0263064671308,-0.832307815552,-0.0796448662877,-0.204765319824,-0.00219118176028,0.672866821289,0.0143831893802,2.12061882019,0.0636156648397,10.450238227848,93.449722290076,46.781475067089,33.33485412599,737
1.64951884695056E+018,90,1.64951884695056E+018,r1000913c5/base_footprint,0,1.64951884695056E+018,v/m1vw10zy74w/map,-1.69186321446,-1.25157439236,0,0,0,-0.153628003552,0.988128755034,0,64.5942687988,9.80392169952,47.8160820007,93.124382019,46.3510818481,46.3510818481,64.5942687988,64.5942687988,33.1425628662,1.52780282497,0,0.00656183250248,0.43265709281,0.0326118133962,0.0260499808937,0.544143676758,0.0525840967894,0.347763061523,0.00372049934231,0.476440429688,0.0101743675768,0.297340393066,0.00889178365469,10.348065376278,93.472145080523,46.827522277788,33.439903259266,735
1.64951884705159E+018,91,1.64951884705159E+018,r1000913c5/base_footprint,0,1.64951884705159E+018,v/m1vw10zy74w/map,-1.5796915619,-1.29306789967,0,0,0,-0.153998044332,0.988071152469,0,64.7677230835,10.7843141556,47.545085907,92.9253005981,46.3918075562,46.3918075562,64.7677230835,64.7677230835,29.7435894012,1.65760421753,0,0.00677859736606,0.442460656166,0.0234329830855,0.0166543852538,-0.545287132263,-0.0532557554543,0.637519836426,0.00681381579489,0.642105102539,0.0136519605294,4.23944664001,0.124751850963,10.239027023337,93.562820434526,47.033912658739,33.98303604121,691
1.64951884715056E+018,92,1.64951884715056E+018,r1000913c5/base_footprint,0,1.64951884715056E+018,v/m1vw10zy74w/map,-1.25171183989,-1.41135793107,0,0,0,-0.155021070859,0.987911163815,0,64.7977600098,13.5243844986,47.3780097961,92.3184661865,46.4663009644,46.4663009644,64.7977600098,64.7977600098,27.8229084015,1.6278283596,0,0.00676437234506,0.446091324091,0.0160912722349,0.00932690035552,-2.78901100159,-0.259796351194,1.22914123535,0.0131392050534,0.753677368164,0.0159609857947,6.00796318054,0.177588194609,10.73537349701,93.54760742185,47.219978332564,33.83087158204,697
1.64951884725097E+018,93,1.64951884725097E+018,r1000913c5/base_footprint,0,1.64951884725097E+018,v/m1vw10zy74w/map,-1.08624443737,-1.45309590845,0,0,0,-0.15499579305,0.987915130027,0,64.5790252686,12.9603061676,47.3246269226,92.5280609131,46.4936561584,46.4936561584,64.5790252686,64.5790252686,32.8100852966,1.47032165527,0,0.00705390516669,0.461025089025,0.0214202236384,0.0284741278738,-2.32608604431,-0.218735933304,1.0492401123,0.0112125491723,0.871627807617,0.0184022504836,0.726699829102,0.0216687377542,10.63422012329,93.5773010254,47.365283966017,33.536785125702,700
1.6495188473507E+018,94,1.6495188473507E+018,r1000913c5/base_footprint,0,1.6495188473507E+018,v/m1vw10zy74w/map,-0.883003353008,-1.52637906823,0,0,0,-0.162832335507,0.986653754117,0,65.2825546265,6.66018486023,47.2346343994,92.3608322144,46.3104057312,46.3104057312,65.2825546265,65.2825546265,17.5653762817,1.33586287498,0,0.00592201948166,0.474593579769,0.0611697360873,0.067091755569,3.88259029388,0.368270248175,1.34442138672,0.0143473427743,1.20604324341,0.0253815948963,15.2630500793,0.46493396163,10.54277515411,93.70525360112,47.51644897461,32.828426361,705
1.64951884745136E+018,95,1.64951884745136E+018,r1000913c5/base_footprint,0,1.64951884745136E+018,v/m1vw10zy74w/map,-0.816072592007,-1.55046147509,0,0,0,-0.16760394911,0.985854409253,0,64.7927322388,11.5367078781,47.2493667603,92.5801315308,46.1793632507,46.1793632507,64.7927322388,64.7927322388,25.7564735413,1.38205313683,0,0.00597201194614,0.484574347734,0.0869964510202,0.0929684638977,-1.13602256775,-0.109225742519,1.12582397461,0.0120144337416,1.34199905396,0.0282399114221,7.07602310181,0.215518891811,10.40068531035,93.70595550541,47.52136230466,32.83249664311,704
1.64951884755101E+018,96,1.64951884755101E+018,r1000913c5/base_footprint,0,1.64951884755101E+018,v/m1vw10zy74w/map,-0.479943561692,-1.66468742084,0,0,0,-0.202720213924,0.979236700122,0,63.6169700623,1.63934421539,47.3428039551,92.3482589722,45.5761833191,45.5761833191,63.6169700623,63.6169700623,39.5710830688,1.11348354816,0,0.00729547580704,0.495430469513,0.112318500876,0.119613975286,8.63577079773,0.840454876423,1.41320800781,0.015072375536,2.04593276978,0.04296182096,-6.84384536743,-0.209117725492,10.27511501312,93.76146698001,47.62211608888,32.72723770137,715
1.64951884765106E+018,97,1.64951884765106E+018,r1000913c5/base_footprint,0,1.64951884765106E+018,v/m1vw10zy74w/map,-0.273406475692,-1.75619822392,0,0,0,-0.233969539908,0.972243927415,0,63.4362373352,0.826446294785,51.2187080383,92.7374954224,45.0879859924,45.0879859924,63.4362373352,63.4362373352,38.9529953003,1.12289869785,0,0.00804790109396,0.501106500626,0.121342152357,0.129390046,9.63004589081,0.920963287354,1.02429199219,0.010924407281,2.50036621094,0.0525415576994,-5.70850372314,-0.171712771058,10.456492185595,93.76178741459,47.58835220334,33.24449157716,694
1.64951884775083E+018,98,1.64951884775083E+018,r1000913c5/base_footprint,0,1.64951884775083E+018,v/m1vw10zy74w/map,-0.0772288524963,-1.8640075782,0,0,0,-0.272025133452,0.962290146874,0,63.022190094,2.77102565765,54.1703987122,92.7092971802,44.5849723816,44.5849723816,63.022190094,63.022190094,40.8717803955,1.19829046726,0,0.00838080327958,0.506142914295,0.12193582952,0.130316630006,8.18883895874,0.747166097164,1.02240753174,0.0109078092501,2.99476242065,0.0629419758916,-6.48411560059,-0.188559353352,10.95986461639,93.73170471194,47.57973480225,34.38766479491,669
1.64951884785104E+018,99,1.64951884785104E+018,r1000913c5/base_footprint,0,1.64951884785104E+018,v/m1vw10zy74w/map,0.137086836633,-2.04480536409,0,0,0,-0.327123930259,0.944981446512,0,63.2521018982,12.5455493927,57.2453422546,92.5672225952,44.4326705933,44.4326705933,63.2521018982,63.2521018982,34.577003479,1.30331349373,0,0.00876508839428,0.522904098034,0.0658606737852,0.0746257603168,-0.948680877686,-0.0818049162626,1.12483978271,0.0120057109743,3.00283432007,0.0633035153151,0.28426361084,0.00815413892269,11.596868515014,93.69206237791,47.43550491337,34.86126708984,672
1.64951884795153E+018,100,1.64951884795153E+018,r1000913c5/base_footprint,0,1.64951884795153E+018,v/m1vw10zy74w/map,0.303036050491,-2.18403494094,0,0,0,-0.362973589242,0.931799427727,0,63.2462997437,8.25688076019,56.7044334412,93.491859436,44.3875694275,44.3875694275,63.2462997437,63.2462997437,37.5230484009,1.28559756279,0,0.00776356970891,0.528490841389,0.0370131507516,0.0447767190635,3.51036167145,0.298316419125,0.172630310059,0.00184307107702,3.03277206421,0.0639550834894,-1.72186660767,-0.0480952449143,11.76724243164,93.664489746059,47.42034149171,35.80118179323,667
1.64951884805037E+018,101,1.64951884805037E+018,r1000913c5/base_footprint,0,1.64951884805037E+018,v/m1vw10zy74w/map,0.44585747328,-2.32587580145,0,0,0,-0.392239321673,0.91986320425,0,63.2479782104,12.8151264191,56.9434700012,93.4002838135,44.2318458557,44.2318458557,63.2479782104,63.2479782104,35.4813842773,1.57168447971,0,0.0051236897707,0.553961038589,0.0141214067116,0.00899771694094,-0.800581932068,-0.0666343942285,0.341133117676,0.00363908638246,3.18255996704,0.0671222135425,0.590572357178,0.0163720641285,12.014544487032,93.741416931176,47.41440582274,36.071956634478,653
