%time,field.header.seq,field.header.stamp,field.header.frame_id,field.pose.header.seq,field.pose.header.stamp,field.pose.header.frame_id,field.pose.pose.position.x,field.pose.pose.position.y,field.pose.pose.position.z,field.pose.pose.orientation.x,field.pose.pose.orientation.y,field.pose.pose.orientation.z,field.pose.pose.orientation.w,field.label,field.main_output,field.scan_score,field.pose_score,field.cov_score,field.lhood_map_score,field.lhood_robot_score,field.lhood_map_score_all,field.lhood_robot_score_all,field.point_angle_diff,field.average_orientation,field.map_average_orientation,field.sensor_div,field.odom_div_x,field.odom_div_w,field.imu_div_w,field.kdtree_div,field.kdtree_div_p,field.cov_div,field.cov_div_p,field.likelihood_div,field.likelihood_div_p,field.normal_diff_div,field.normal_diff_div_p,field.kdtree_average,field.cov_average,field.likelihood_average,field.normal_diff_average,field.map_update_count
1.64950429839159E+018,0,1.64950429839159E+018,r1000913c5/base_footprint,0,1.6495042983916E+018,v/m1vw10zy74w/map,-8.72280933275,-0.78830901424,0,0,0,-0.824586825683,0.565735421297,0,65.0581665039,8.97380828857,100,94.8510360718,46.9343070984,46.9343070984,65.0581665039,65.0581665039,37.3072738647,0.361836344004,0,0.00478122476488,0.277932733297,0.0406084172428,0.0453896410763,9.23775482178,0.507246673107,-0.296897888184,-0.00313997780904,-0.389350891113,-0.00836504995823,-2.7128944397,-0.0784200951457,18.21156311035,94.554138183616,46.544956207287,34.594379425,1176
1.64950429849096E+018,1,1.64950429849096E+018,r1000913c5/base_footprint,0,1.64950429849096E+018,v/m1vw10zy74w/map,-8.72109776922,-0.788334237228,0,0,0,-0.78976082202,0.613414903635,0,64.6038360596,13.224864006,39.3651237488,94.5348129272,46.1139259338,46.1139259338,64.6038360596,64.6038360596,35.4866218567,0.151114046574,0,0.00357507006265,0.211278811097,0.0574763044715,0.0610513724387,4.98669910431,0.273820489645,0.0193252563477,0.000204382973607,0.431030273438,0.00926051475108,-0.892242431641,-0.0257915426046,18.21156311031,94.5541381835477,46.544956207238,34.594379425059,1176
1.64950429859017E+018,2,1.64950429859017E+018,r1000913c5/base_footprint,0,1.64950429859017E+018,v/m1vw10zy74w/map,-8.72109776922,-0.788334237228,0,0,0,-0.78976082202,0.613414903635,0,64.0470962524,10.5560035706,40.2611083984,94.5348129272,45.3545875549,45.3545875549,64.0470962524,64.0470962524,37.3071098328,0.134369894862,0,0.00338542601094,0.183631941676,0.0622522644699,0.0656376928091,7.65555953979,0.420368075371,0.0193252563477,0.000204382973607,1.19036865234,0.025574600324,-2.71273040771,-0.0784153491259,18.21156311039,94.5541381835477,46.54495620724,34.59437942509,1176
1.64950430129069E+018,3,1.64950430129069E+018,r1000913c5/base_footprint,0,1.64950430129069E+018,v/m1vw10zy74w/map,-8.72014679992,-0.792764093903,0,0,0,-0.717304625094,0.696759696609,0,63.4173812866,13.7792100906,41.895904541,93.7737121582,44.6547470093,44.6547470093,63.4173812866,63.4173812866,38.3437423706,0.1322594136,0,0.0011537107639,0.00151458359323,0.20544500649,0.204291298985,4.43235301971,0.243381246924,0.780426025391,0.00825374759734,1.890209198,0.0406103990972,-3.74936294556,-0.108380697668,18.21156311031,94.554138183591,46.5449562073,34.59437942504,1176
1.64950430139159E+018,4,1.64950430139159E+018,r1000913c5/base_footprint,0,1.64950430139159E+018,v/m1vw10zy74w/map,-8.72014679992,-0.792764093903,0,0,0,-0.717304625094,0.696759696609,0,63.018245697,12.1568632126,42.7195320129,93.7737121582,44.056602478,44.056602478,63.018245697,63.018245697,39.0682449341,0.0919327735901,0,0.00240412261337,0.0777672305703,0.175900757313,0.173496633768,6.05469989777,0.33246460557,0.780426025391,0.00825374759734,2.48835372925,0.0534612983465,-4.47386550903,-0.129323482513,18.21156311037,94.554138183591,46.54495620725,34.59437942507,1176
1.64950430149124E+018,5,1.64950430149124E+018,r1000913c5/base_footprint,0,1.64950430149124E+018,v/m1vw10zy74w/map,-8.72014679992,-0.792764093903,0,0,0,-0.717304625094,0.696759696609,0,62.5972671509,11.1803665161,42.7195320129,93.7737121582,43.4529304504,43.4529304504,62.5972671509,62.5972671509,40.1261901855,0.234657332301,0,0.00149722001515,0.110525138676,0.169344305992,0.167847082019,7.03119659424,0.386084198952,0.780426025391,0.00825374759734,3.09202575684,0.0664309486747,-5.5318107605,-0.159904897213,18.21156311034,94.554138183591,46.54495620724,34.594379425,1176
1.64950430159103E+018,6,1.64950430159103E+018,r1000913c5/base_footprint,0,1.64950430159103E+018,v/m1vw10zy74w/map,-8.71949040969,-0.902930588017,0,0,0,-0.685387778409,0.728178270211,0,62.6008682251,11.5673112869,42.7195320129,93.7254257202,42.9156913757,42.9156913757,62.6008682251,62.6008682251,34.085357666,0.17520584166,0,0.00190648029093,0.120440728962,0.183646485209,0.181740000844,6.57071018219,0.362261682749,0.860328674316,0.00909575354308,3.44255447388,0.0742598101497,0.5680809021,0.016393205151,18.13802146909,94.585754394516,46.35824584958,34.6534385681,1181
1.64950430169105E+018,7,1.64950430169105E+018,r1000913c5/base_footprint,0,1.64950430169105E+018,v/m1vw10zy74w/map,-8.72002900371,-0.903137200065,0,0,0,-0.684568285793,0.728948737626,0,62.0014724731,13.7792100906,42.7195320129,94.037979126,42.4960403442,42.4960403442,62.0014724731,62.0014724731,41.4674453735,0.0851179659367,0,0.00224108505063,0.114387400448,0.200091898441,0.197850808501,4.35881137848,0.240313500166,0.547775268555,0.00579130835831,3.86220550537,0.0833121612668,-6.81400680542,-0.196632921696,18.13802146908,94.585754394555,46.35824584957,34.65343856808,1181
1.6495043017903E+018,8,1.6495043017903E+018,r1000913c5/base_footprint,0,1.6495043017903E+018,v/m1vw10zy74w/map,-8.72002900371,-0.903137200065,0,0,0,-0.684568285793,0.728948737626,0,61.7877807617,12.1789560318,42.7195320129,94.037979126,42.1408004761,42.1408004761,61.7877807617,61.7877807617,41.4772796631,0.149691581726,0,0.00407151924446,0.105957902968,0.194392964244,0.190321445465,5.95906543732,0.328539997339,0.547775268555,0.00579130835831,4.21744537354,0.0909750834107,-6.82384109497,-0.196916714311,18.13802146912,94.585754394555,46.35824584964,34.65343856813,1181
1.64950430189034E+018,9,1.64950430189034E+018,r1000913c5/base_footprint,0,1.64950430189034E+018,v/m1vw10zy74w/map,-8.71470353773,-1.03390888619,0,0,0,-0.68601474604,0.727587636107,0,61.7998123169,10.7777338028,43.625793457,93.8848266602,41.7220230103,41.7220230103,61.7998123169,61.7998123169,36.1865921021,0.177713692188,0,0.00420587603003,0.0996286571026,0.181893825531,0.177687942982,7.14636898041,0.398701637983,0.743362426758,0.00785561278462,4.32783126831,0.0939814299345,-1.43062973022,-0.0411621369421,17.92410278321,94.628189086958,46.04985427861,34.75596237188,1079
1.64950430199036E+018,10,1.64950430199036E+018,r1000913c5/base_footprint,0,1.64950430199036E+018,v/m1vw10zy74w/map,-8.71470353773,-1.03390888619,0,0,0,-0.68601474604,0.727587636107,0,61.4322624207,10.5882349014,43.625793457,93.8848266602,41.2898216248,41.2898216248,61.4322624207,61.4322624207,38.1347351074,0.347045451403,0,0.00456102704629,0.0949656814337,0.170859739184,0.16629871726,7.33586788177,0.409273922443,0.743362426758,0.00785561278462,4.76003265381,0.103366941214,-3.3787727356,-0.097214192152,17.92410278317,94.628189086958,46.04985427861,34.7559623718,1079
1.6495043020906E+018,11,1.6495043020906E+018,r1000913c5/base_footprint,0,1.6495043020906E+018,v/m1vw10zy74w/map,-8.70969314666,-1.16563114585,0,0,0,-0.708175595319,0.70603634906,0,61.0328903198,9.80392169952,43.625793457,93.8087844849,40.8301734924,40.8301734924,61.0328903198,61.0328903198,40.0854492188,0.283258140087,0,0.00488879159093,0.0888922736049,0.14766022563,0.142771422863,8.19859409332,0.455413788557,1.06777191162,0.011254328303,4.37269973755,0.0967349931598,-5.48740768433,-0.158604577184,18.00251579284,94.87655639652,45.20287322995,34.59804153447,763
1.64950430219066E+018,12,1.64950430219066E+018,r1000913c5/base_footprint,0,1.64950430219066E+018,v/m1vw10zy74w/map,-8.70969314666,-1.16563114585,0,0,0,-0.708175595319,0.70603634906,0,60.8441505432,12.3568887711,44.3886833191,93.8087844849,40.4384307861,40.4384307861,60.8441505432,60.8441505432,39.2519836426,0.661199450493,0,0.00485204812139,0.0795828700066,0.104742415249,0.0998903661966,5.64562702179,0.313602119684,1.06777191162,0.011254328303,4.76444244385,0.105401322246,-4.65394210815,-0.13451461494,18.00251579289,94.87655639652,45.20287322995,34.59804153445,763
1.64950430229114E+018,13,1.64950430229114E+018,r1000913c5/base_footprint,0,1.64950430229114E+018,v/m1vw10zy74w/map,-8.71304050318,-1.28662723389,0,0,0,-0.728439520494,0.685110111576,0,60.8833007812,7.45098018646,44.3886833191,94.5236816406,40.1432533264,40.1432533264,60.8833007812,60.8833007812,37.9330177307,0.71681958437,0,0.00389313627966,0.0741230472922,0.0811673030257,0.0772741660476,8.75710201263,0.540292322636,0.632461547852,0.00664656562731,1.2984046936,0.0313309058547,-1.93355178833,-0.0537105686963,16.20808219909,95.156143188452,41.44165802,35.99946594237,325
1.64950430239008E+018,14,1.64950430239008E+018,r1000913c5/base_footprint,0,1.64950430239008E+018,v/m1vw10zy74w/map,-8.71906574669,-1.39798774722,0,0,0,-0.731307137578,0.682048290466,0,60.5835037231,10.7777338028,45.0254325867,94.6761322021,39.8900032043,39.8900032043,60.5835037231,60.5835037231,41.1430549622,0.236452311277,0,0.00289574125782,0.063425026834,0.0537798218429,0.0508840791881,4.97656345367,0.315886110067,0.489372253418,0.00514232832938,1.33921051025,0.0324820764363,-4.86416625977,-0.134077042341,15.75429725647,95.165504455518,41.22921371455,36.27888870243,324
1.64950430249019E+018,15,1.64950430249019E+018,r1000913c5/base_footprint,0,1.64950430249019E+018,v/m1vw10zy74w/map,-8.71931336528,-1.39716075925,0,0,0,-0.730275104158,0.683153183588,0,60.8655891418,8.94439983368,45.57264328,95.1943893433,39.6886749268,39.6886749268,60.8655891418,60.8655891418,35.7568893433,0.347744256258,0,0.00240952242166,0.0605008564889,0.0303562879562,0.0279467646033,6.80989742279,0.432256489992,-0.0288848876953,-0.000303522654576,1.54053878784,0.0373652242124,0.521999359131,0.014388515614,15.75429725647,95.1655044556047,41.22921371464,36.278888702431,324
1.64950430689107E+018,16,1.64950430689107E+018,r1000913c5/base_footprint,0,1.64950430689107E+018,v/m1vw10zy74w/map,-8.73342707177,-2.32381656933,0,0,0,-0.709137849825,0.705069861748,0,60.8816642761,9.37996864319,45.6831665039,95.2543258667,39.4745368958,39.4745368958,60.8816642761,60.8816642761,33.3706016541,0.572421967983,0,0.000282936962321,0.0191296041012,0.0064765335992,0.00675947079435,2.21270465851,0.190870955586,0.157302856445,0.00164867588319,0.906326293945,0.0224444512278,-5.83570098877,-0.211938336492,11.5926733017,95.411628723145,40.380863189745,27.53490066533,181
1.64950430869079E+018,17,1.64950430869079E+018,r1000913c5/base_footprint,0,1.64950430869079E+018,v/m1vw10zy74w/map,-8.73442734965,-2.43880208206,0,0,0,-0.710406986664,0.70379110061,0,61.4056739807,10.6912841797,43.9630775452,95.0916137695,39.3197822571,39.3197822571,61.4056739807,61.4056739807,21.6813526154,1.54037439823,0,0.00183999619912,0.109272070229,0.00840050727129,0.0102405035868,0.467885017395,0.0419283024967,0.263145446777,0.00275964662433,0.961502075195,0.0238696970046,4.92242240906,0.185027211905,11.159169197095,95.354759216277,40.281284332295,26.60377502446,156
1.64950430879087E+018,18,1.64950430879087E+018,r1000913c5/base_footprint,0,1.64950430879087E+018,v/m1vw10zy74w/map,-8.73442734965,-2.43880208206,0,0,0,-0.710406986664,0.70379110061,0,60.2091064453,3.59477114677,42.5864906311,95.0916137695,39.048915863,39.048915863,60.2091064453,60.2091064453,40.2942085266,1.06703805923,0,0.00179596012458,0.154157608747,0.00812173448503,0.00991769414395,7.56439781189,0.677863895893,0.263145446777,0.00275964662433,1.23236846924,0.0305940713733,-13.6904335022,-0.514604926109,11.15916895866,95.354759216277,40.28128433224,26.6037750244,156
1.64950430889085E+018,19,1.64950430889085E+018,r1000913c5/base_footprint,0,1.64950430889085E+018,v/m1vw10zy74w/map,-8.73442734965,-2.43880208206,0,0,0,-0.710406986664,0.70379110061,0,59.9450759888,4.41176462173,42.5864906311,95.0916137695,38.8204116821,38.8204116821,59.9450759888,59.9450759888,42.5788803101,1.23560333252,0,0.00184530834667,0.198717355728,0.00391582911834,0.00576113769785,6.74740457535,0.604651153088,0.263145446777,0.00275964662433,1.46087265015,0.036266785115,-15.9751052856,-0.600482642651,11.15916919708,95.354759216277,40.28128433225,26.6037750245,156
1.6495043089902E+018,20,1.6495043089902E+018,r1000913c5/base_footprint,0,1.6495043089902E+018,v/m1vw10zy74w/map,-8.73442734965,-2.43880208206,0,0,0,-0.710406986664,0.70379110061,0,60.0062789917,5.55095291138,42.5864906311,95.0916137695,38.6447105408,38.6447105408,60.0062789917,60.0062789917,39.5796966553,1.17668473721,0,0.000286213879008,0.222640663385,0.0171747412533,0.0168885271996,5.60821628571,0.502565741539,0.263145446777,0.00275964662433,1.6365737915,0.0406286381185,-12.9759216309,-0.487747371197,11.15916919709,95.354759216277,40.2812843323,26.6037750244,156
1.64950430909071E+018,21,1.64950430909071E+018,r1000913c5/base_footprint,0,1.64950430909071E+018,v/m1vw10zy74w/map,-8.73442734965,-2.43880208206,0,0,0,-0.710406986664,0.70379110061,0,59.7223052979,6.52699422836,42.5864906311,95.0916137695,38.4131164551,38.4131164551,59.7223052979,59.7223052979,42.1899986267,1.63677895069,0,0.000665103609208,0.219578027725,0.0264748688787,0.0258097667247,4.63217496872,0.415100336075,0.263145446777,0.00275964662433,1.8681678772,0.0463780611753,-15.5862236023,-0.585865139961,11.15916919708,95.354759216277,40.2812843323,26.6037750244,156
1.64950430919091E+018,22,1.64950430919091E+018,r1000913c5/base_footprint,0,1.64950430919091E+018,v/m1vw10zy74w/map,-8.73107455078,-2.32464733147,0,0,0,-0.72126112871,0.692663254556,0,60.0347213745,5.88235282898,42.5864906311,95.4724273682,38.2400817871,38.2400817871,60.0347213745,60.0347213745,36.0686340332,1.66612517834,0,0.000926773180254,0.207204699516,0.0317551456392,0.030828371644,5.71032047272,0.492580115795,-0.0607986450195,-0.000637224700768,2.14078140259,0.0530147515237,-8.53373336792,-0.309924244881,11.5926733017,95.4116287231805,40.38086318969,27.53490066528,181
1.64950430929048E+018,23,1.64950430929048E+018,r1000913c5/base_footprint,0,1.64950430929048E+018,v/m1vw10zy74w/map,-8.73107455078,-2.32464733147,0,0,0,-0.72126112871,0.692663254556,0,59.7160377502,5.71547746658,42.5864906311,95.4724273682,38.2040138245,38.2040138245,59.7160377502,59.7160377502,41.4153823853,1.33652675152,0,0.000788720091805,0.196880251169,0.0306996107101,0.0299108922482,5.87719583511,0.506974995136,-0.0607986450195,-0.000637224700768,2.17684936523,0.0539079457521,-13.88048172,-0.50410503149,11.59267330169,95.4116287231805,40.38086318973,27.5349006653,181
1.64950430939107E+018,24,1.64950430939107E+018,r1000913c5/base_footprint,0,1.64950430939107E+018,v/m1vw10zy74w/map,-8.7222566858,-2.21413475867,0,0,0,-0.721114050188,0.692816372945,0,60.0035247803,10.924369812,42.5864906311,95.686340332,38.1486129761,38.1486129761,60.0035247803,60.0035247803,36.4123916626,1.39599895477,0,0.000206404438359,0.174935743213,0.0289356764406,0.0287292711437,1.18021678925,0.0975016206503,-0.272369384766,-0.002854607068,2.29963302612,0.0568537153304,-7.70833396912,-0.268545091152,12.10458660125,95.413970947234,40.44824600222,28.70405769348,206
1.64950430949091E+018,25,1.64950430949091E+018,r1000913c5/base_footprint,0,1.64950430949091E+018,v/m1vw10zy74w/map,-8.7222566858,-2.21413475867,0,0,0,-0.721114050188,0.692816372945,0,59.8676681519,7.56302499771,41.7126922607,95.686340332,38.0694656372,38.0694656372,59.8676681519,59.8676681519,38.0030212402,1.37629210949,0,0.00119092816021,0.148318558931,0.0393560826778,0.0405470095575,4.54156160355,0.375193446875,-0.272369384766,-0.002854607068,2.37878036499,0.0588104687631,-9.29896354675,-0.323959887028,12.10458660126,95.413970947234,40.44824600219,28.70405769345,206
1.64950430959143E+018,26,1.64950430959143E+018,r1000913c5/base_footprint,0,1.64950430959143E+018,v/m1vw10zy74w/map,-8.71528488643,-2.07281119396,0,0,0,-0.722415887425,0.691458809761,0,59.782371521,7.85684919357,41.7126922607,95.4194869995,37.9611206055,37.9611206055,59.782371521,59.782371521,37.4075393677,1.16003239155,0,0.000468353799079,0.138458117843,0.0414232909679,0.0418916456401,4.84462976456,0.381422489882,-0.0560836791992,-0.00058810482733,2.61568069458,0.0644624680281,-7.11356163025,-0.234817683697,12.70147895813,95.3634033203008,40.57680130008,30.29397773745,255
1.64950430969142E+018,27,1.64950430969142E+018,r1000913c5/base_footprint,0,1.64950430969142E+018,v/m1vw10zy74w/map,-8.71528488643,-2.07281119396,0,0,0,-0.722415887425,0.691458809761,0,59.6691169739,4.6801199913,40.973865509,95.4194869995,38.0226745605,38.0226745605,59.6691169739,59.6691169739,40.1109657288,0.766571462154,0,0.000872180971783,0.118512310088,0.0443557314575,0.0452279113233,8.02135848999,0.631529510021,-0.0560836791992,-0.00058810482733,2.5541267395,0.0629454925656,-9.81698799133,-0.324057400227,12.70147848129,95.3634033203008,40.5768013,30.29397773747,255
1.6495043097911E+018,28,1.6495043097911E+018,r1000913c5/base_footprint,0,1.6495043097911E+018,v/m1vw10zy74w/map,-8.71227563483,-1.97419313282,0,0,0,-0.72501612493,0.688731891661,0,59.910320282,9.83254623413,40.5091629028,95.6036453247,38.164932251,38.164932251,59.910320282,59.910320282,37.9686317444,0.556208372116,0,0.000798397581093,0.112429618835,0.045107703656,0.0459061041474,3.04115772247,0.23623020947,-0.270195007324,-0.00283420993946,2.47942733765,0.0610029883683,-6.85714912415,-0.220405727625,12.8737039566,95.333450317376,40.64435958865,31.11148262025,290
1.64950430989074E+018,29,1.64950430989074E+018,r1000913c5/base_footprint,0,1.64950430989074E+018,v/m1vw10zy74w/map,-8.71227563483,-1.97419313282,0,0,0,-0.72501612493,0.688731891661,0,60.0203056335,6.22335910797,40.2537269592,95.6036453247,38.3839454651,38.3839454651,60.0203056335,60.0203056335,38.3542366028,0.346420556307,0,0.0010013661813,0.0981528162956,0.0461479462683,0.0471493117511,6.65034484863,0.516583621502,-0.270195007324,-0.00283420993946,2.26041412354,0.0556144602597,-7.24275398254,-0.232800021768,12.8737039566,95.333450317376,40.64435958864,31.11148262026,290
1.64950430999027E+018,30,1.64950430999027E+018,r1000913c5/base_footprint,0,1.64950430999027E+018,v/m1vw10zy74w/map,-8.69885809153,-1.82935459332,0,0,0,-0.72239414671,0.691481523108,0,59.8589401245,15.0326795578,40.2537269592,95.5393218994,38.5552749634,38.5552749634,59.8589401245,59.8589401245,42.8776359558,0.616432905197,0,0.000897086109035,0.0873721688986,0.0462522245944,0.0471493117511,-1.40974617004,-0.103483304381,-0.22908782959,-0.00240360153839,2.21422576904,0.0543108396232,-10.2367782593,-0.313618540764,13.62293338776,95.31023406981,40.76950073244,32.6408576965,307
1.64950431009069E+018,31,1.64950431009069E+018,r1000913c5/base_footprint,0,1.64950431009069E+018,v/m1vw10zy74w/map,-8.69885809153,-1.82935459332,0,0,0,-0.72239414671,0.691481523108,0,59.7809944153,12.9411764145,40.3754577637,95.5393218994,38.6290779114,38.6290779114,59.7809944153,59.7809944153,45.0777053833,0.554681837559,0,0.000912739604246,0.0817487314343,0.0462365746498,0.0471493117511,0.681756973267,0.0500448010862,-0.22908782959,-0.00240360153839,2.14042282104,0.052500590682,-12.4368476868,-0.381020873785,13.622933387767,95.31023406981,40.76950073244,32.6408576965,307
1.64950431019132E+018,32,1.64950431019132E+018,r1000913c5/base_footprint,0,1.64950431019133E+018,v/m1vw10zy74w/map,-8.6984738107,-1.7368861591,0,0,0,-0.724154315815,0.689637967985,0,60.067615509,12.910618782,40.3754577637,95.7842407227,38.7408485413,38.7408485413,60.067615509,60.067615509,42.0073738098,0.871457219124,0,0.000912721909117,0.0757235214114,0.046236589551,0.0471493117511,1.42432308197,0.0993602275848,-0.531440734863,-0.00557926623151,2.09363174438,0.051271174103,-7.90741348267,-0.231889232993,14.33494186397,95.252799987837,40.83448028568,34.09996032713,311
1.64950431029081E+018,33,1.64950431029081E+018,r1000913c5/base_footprint,0,1.64950431029082E+018,v/m1vw10zy74w/map,-8.6984738107,-1.7368861591,0,0,0,-0.724154315815,0.689637967985,0,59.7397956848,9.85485076904,40.2887191772,95.7842407227,38.871307373,38.871307373,59.7397956848,59.7397956848,49.3170661926,0.602921485901,0,0.000917356170248,0.0653014853597,0.0462319552898,0.0471493117511,4.48009109497,0.312529414892,-0.531440734863,-0.00557926623151,1.9631729126,0.0480763539672,-15.2171058655,-0.446249961853,14.33494186401,95.252799987837,40.8344802856,34.0999603271,311
1.64950431039084E+018,34,1.64950431039084E+018,r1000913c5/base_footprint,0,1.64950431039084E+018,v/m1vw10zy74w/map,-8.69755035745,-1.60902986174,0,0,0,-0.723809831396,0.689999513025,0,59.9007072449,11.1803665161,40.2887191772,96.2260131836,38.9583473206,38.9583473206,59.9007072449,59.9007072449,48.9510955811,0.567994773388,0,0.000919417710975,0.0606800317764,0.0462298952043,0.0471493117511,3.90810394287,0.25901260972,-1.00958251953,-0.0106030283496,2.05191040039,0.0500340759754,-13.4476623535,-0.378770768642,15.08847045897,95.21643066407,41.01025772099,35.5034332276,311
1.64950431049106E+018,35,1.64950431049106E+018,r1000913c5/base_footprint,0,1.64950431049106E+018,v/m1vw10zy74w/map,-8.69755035745,-1.60902986174,0,0,0,-0.723809831396,0.689999513025,0,59.6983146667,6.50564861298,40.4086761475,96.2260131836,38.8876800537,38.8876800537,59.6983146667,59.6983146667,51.8309364319,0.632088065147,0,0.000871705182362,0.0523076429963,0.0462776087224,0.0471493117511,8.58282184601,0.568833112717,-1.00958251953,-0.0106030283496,2.12257766724,0.0517572388053,-16.3275032043,-0.459885179996,15.08847045899,95.21643066407,41.01025772094,35.5034332276,311
1.64950431059015E+018,36,1.64950431059015E+018,r1000913c5/base_footprint,0,1.64950431059015E+018,v/m1vw10zy74w/map,-8.69152100718,-1.50578609817,0,0,0,-0.724358516718,0.689423483251,0,59.8015403748,6.34674930573,40.4086761475,95.8842468262,38.7699661255,38.7699661255,59.8015403748,59.8015403748,47.4711647034,0.745150327682,0,0.000876010162756,0.0484357178211,0.0462733022869,0.0471493117511,9.26866149902,0.593558609486,-0.702972412109,-0.00738561665639,2.38039016724,0.0578461624682,-11.2307243347,-0.309894800186,15.61541080475,95.181274414091,41.15035629274,36.2404403687,309
1.64950431069017E+018,37,1.64950431069017E+018,r1000913c5/base_footprint,0,1.64950431069017E+018,v/m1vw10zy74w/map,-8.69152100718,-1.50578609817,0,0,0,-0.724358516718,0.689423483251,0,60.1377105713,7.45098018646,40.5315284729,95.8842468262,38.6523017883,38.6523017883,60.1377105713,60.1377105713,40.1493606567,0.490945667028,0,0.000877685029991,0.0427265278995,0.0462716259062,0.0471493117511,8.16443061829,0.522844433784,-0.702972412109,-0.00738561665639,2.49805450439,0.0607055388391,-3.90892028809,-0.107860729098,15.61541080475,95.181274414091,41.15035629269,36.24044036861,309
1.64950431079043E+018,38,1.64950431079043E+018,r1000913c5/base_footprint,0,1.64950431079043E+018,v/m1vw10zy74w/map,-8.68380120407,-1.38052472072,0,0,0,-0.726089112476,0.68760061136,0,60.1740341187,4.46111345291,40.5315284729,95.8489379883,38.5837135315,38.5837135315,60.1740341187,60.1740341187,38.6276741028,0.731423914433,0,0.000994580215774,0.0382532589138,0.0461547337472,0.0471493117511,11.2931842804,0.716831982136,-0.683433532715,-0.00718152569607,2.64550018311,0.06416567415,-2.34878540039,-0.0647424831986,15.75429773331,95.165504455585,41.22921371461,36.27888870241,324
1.649504310891E+018,39,1.649504310891E+018,r1000913c5/base_footprint,0,1.649504310891E+018,v/m1vw10zy74w/map,-8.68380120407,-1.38052472072,0,0,0,-0.726089112476,0.68760061136,0,59.9066886902,7.45098018646,40.7342720032,95.8489379883,38.6266784668,38.6266784668,59.9066886902,59.9066886902,43.9038887024,0.46967869997,0,0.000987139064819,0.0338741540909,0.046162173152,0.0471493117511,8.30331707001,0.52705091238,-0.683433532715,-0.00718152569607,2.6025352478,0.0631235688925,-7.625,-0.210177332163,15.75429725647,95.165504455585,41.2292137146,36.2788887024,324
1.64950431099236E+018,40,1.64950431099236E+018,r1000913c5/base_footprint,0,1.64950431099236E+018,v/m1vw10zy74w/map,-8.68471699756,-1.27475966578,0,0,0,-0.725649690852,0.688064332869,0,60.0739021301,9.01960754395,40.7342720032,95.8015670776,38.5633430481,38.5633430481,60.0739021301,60.0739021301,40.0394897461,0.485835403204,0,0.00102903461084,0.00442383158952,0.0461202785373,0.0471493117511,7.21788787842,0.444519788027,-0.648231506348,-0.00681249378249,2.87936401367,0.0694781839848,-3.9602394104,-0.109765015543,16.23749542237,95.153335571252,41.44270706177,36.0792503357,321
1.64950431109077E+018,41,1.64950431109077E+018,r1000913c5/base_footprint,0,1.64950431109078E+018,v/m1vw10zy74w/map,-8.68471699756,-1.27475966578,0,0,0,-0.725649690852,0.688064332869,0,60.1093635559,5.7265291214,41.1457061768,95.8015670776,38.5242271423,38.5242271423,60.1093635559,60.1093635559,38.9787826538,0.497356832027,0,0.00082730903523,0.0703373625875,0.0441210642457,0.0449483729899,10.510966301,0.647326827049,-0.648231506348,-0.00681249378249,2.91847991943,0.0704220384359,-2.89953231812,-0.0803656503558,16.2374954224,95.153335571252,41.44270706173,36.07925033568,321
1.64950431119105E+018,42,1.64950431119105E+018,r1000913c5/base_footprint,0,1.64950431119105E+018,v/m1vw10zy74w/map,-8.68471699756,-1.27475966578,0,0,0,-0.725649690852,0.688064332869,0,59.9941482544,9.98815631866,41.1457061768,95.8015670776,38.4993209839,38.4993209839,59.9941482544,59.9941482544,40.7836685181,0.347730964422,0,0.000827318406664,0.092557772994,0.0417425073683,0.0425698272884,6.2493391037,0.384870886803,-0.648231506348,-0.00681249378249,2.94338607788,0.071023017168,-4.70441818237,-0.13039124012,16.23749542236,95.153335571252,41.44270706178,36.07925033573,321
1.64950431129058E+018,43,1.64950431129058E+018,r1000913c5/base_footprint,0,1.64950431129058E+018,v/m1vw10zy74w/map,-8.68313656308,-1.17116231427,0,0,0,-0.722913902992,0.69093812231,0,59.5382614136,8.23529434204,41.1457061768,95.2522583008,38.4633903503,38.4633903503,59.5382614136,59.5382614136,46.6240348816,0.331247210503,0,0.000919720274396,0.110937260091,0.0417335256934,0.0426532439888,9.79235267639,0.543185293674,-0.345642089844,-0.00364191783592,6.73104095459,0.148935183883,-11.9221038818,-0.343557357788,18.02764701843,94.906616210956,45.19443130489,34.7019309998,787
1.64950431139019E+018,44,1.64950431139019E+018,r1000913c5/base_footprint,0,1.64950431139019E+018,v/m1vw10zy74w/map,-8.67805529301,-1.15609227248,0,0,0,-0.723523679654,0.69029956177,0,59.4936790466,9.01960754395,41.8025093079,95.4354095459,38.3570518494,38.3570518494,59.4936790466,59.4936790466,46.9373970032,0.2826372087,0,0.000193213330931,0.13324213028,0.0317897535861,0.0319829694927,9.0258731842,0.50017362833,-0.666915893555,-0.00703731644899,7.17435073853,0.157569289207,-12.2009773254,-0.351244539022,18.04548072815,94.768493652345,45.53140258793,34.7364196778,941
1.64950431149236E+018,45,1.64950431149236E+018,r1000913c5/base_footprint,0,1.64950431149236E+018,v/m1vw10zy74w/map,-8.67805529301,-1.15609227248,0,0,0,-0.723523679654,0.69029956177,0,59.1382064819,3.67153573036,42.460647583,95.4354095459,38.2830886841,38.2830886841,59.1382064819,59.1382064819,52.5371208191,0.130235299468,0,7.08761872374E-05,0.137964785099,0.0284590572119,0.0283881817013,14.3739452362,0.796539902687,-0.666915893555,-0.00703731644899,7.24831390381,0.159193739295,-17.8007011414,-0.512450635433,18.04548096656,94.768493652345,45.53140258791,34.7364196777,941
1.64950431159056E+018,46,1.64950431159056E+018,r1000913c5/base_footprint,0,1.64950431159056E+018,v/m1vw10zy74w/map,-8.67805529301,-1.15609227248,0,0,0,-0.723523679654,0.69029956177,0,59.6089859009,10.4012470245,42.460647583,95.4354095459,38.213722229,38.213722229,59.6089859009,59.6089859009,43.3138961792,0.277914762497,0,0.000275075406535,0.141519352794,0.0246839430183,0.0244088675827,7.64423370361,0.423609316349,-0.666915893555,-0.00703731644899,7.31768035889,0.160717219114,-8.57747650146,-0.246930360794,18.04548072811,94.768493652345,45.53140258789,34.73641967774,941
1.64950431169042E+018,47,1.64950431169042E+018,r1000913c5/base_footprint,0,1.64950431169043E+018,v/m1vw10zy74w/map,-8.67805529301,-1.15609227248,0,0,0,-0.723523679654,0.69029956177,0,59.7252464294,5.88235282898,42.460647583,95.4354095459,38.1796836853,38.1796836853,59.7252464294,59.7252464294,40.8535919189,0.48052200675,0,0.000375786272343,0.147745743394,0.0127509357408,0.0123751489446,12.1631278992,0.674026250839,-0.666915893555,-0.00703731644899,7.35171890259,0.16146479547,-6.11717224121,-0.176102548838,18.04548072818,94.768493652345,45.53140258789,34.73641967769,941
1.64950431179083E+018,48,1.64950431179083E+018,r1000913c5/base_footprint,0,1.64950431179084E+018,v/m1vw10zy74w/map,-8.6705123106,-1.02805838676,0,0,0,-0.724463212849,0.689313465144,0,59.6521720886,9.44272422791,43.5822982788,95.3428039551,38.093952179,38.093952179,59.6521720886,59.6521720886,40.9096450806,0.301823109388,0,0.000104517603177,0.150164216757,0.00639923196286,0.00629471475258,8.65078735352,0.478115439415,-0.714698791504,-0.00755271175876,7.90651321411,0.17187897861,-6.12380599976,-0.176043078303,18.09351158143,94.628105163596,46.00046539311,34.78583908084,1080
1.64950431189077E+018,49,1.64950431189077E+018,r1000913c5/base_footprint,0,1.64950431189077E+018,v/m1vw10zy74w/map,-8.66357636019,-0.910960112067,0,0,0,-0.724959796757,0.688791182497,0,59.9676246643,6.66666650772,44.6471862793,95.3291702271,38.0565567017,38.0565567017,59.9676246643,59.9676246643,34.7785682678,0.273845076561,0,0.000422584125772,0.148734897375,0.00632310798392,0.00674569234252,11.4801616669,0.632626354694,-0.724952697754,-0.00766300596297,8.14813995361,0.176348730922,-0.0450057983398,-0.00129574385937,18.14682817462,94.604217529346,46.20469665531,34.7335624694602,1170
1.64950431199079E+018,50,1.64950431199079E+018,r1000913c5/base_footprint,0,1.64950431199079E+018,v/m1vw10zy74w/map,-8.66095332304,-0.897208540773,0,0,0,-0.725142469186,0.688598866818,0,60.3704948425,7.45098018646,45.6790046692,95.4478988647,38.0149002075,38.0149002075,60.3704948425,60.3704948425,27.5044307709,0.282836824656,0,3.32577474182E-05,0.147077620029,0.00286684231833,0.0029001000803,10.6727724075,0.588883161545,-0.874320983887,-0.0092448759824,8.30511474609,0.179298624396,7.21706199646,0.20785574615,18.12375259396,94.573577880813,46.32001495359,34.72149276736,1191
1.64950431209083E+018,51,1.64950431209083E+018,r1000913c5/base_footprint,0,1.64950431209083E+018,v/m1vw10zy74w/map,-8.66095332304,-0.897208540773,0,0,0,-0.725142469186,0.688598866818,0,59.9268989563,11.9594860077,46.750617981,95.4478988647,37.9538078308,37.9538078308,59.9268989563,59.9268989563,34.8293533325,0.314758300781,0,0.00011523244757,0.146474555135,0.00011523244757,0,6.1642665863,0.340120881796,-0.874320983887,-0.0092448759824,8.3662071228,0.180617541075,-0.107860565186,-0.00310644949786,18.123752594,94.573577880813,46.3200149536,34.721492767314,1191
1.6495043121904E+018,52,1.6495043121904E+018,r1000913c5/base_footprint,0,1.6495043121904E+018,v/m1vw10zy74w/map,-8.6557215592,-0.767612468512,0,0,0,-0.724734062538,0.689028692144,0,59.8309555054,6.50564861298,46.750617981,95.2308959961,37.9067726135,37.9067726135,59.8309555054,59.8309555054,35.26720047,0.277569025755,0,6.41901642666E-05,0.146545246243,6.41901642666E-05,0,11.7416296005,0.643472909927,-0.668930053711,-0.00707398634404,8.64392089844,0.185688331723,-0.590900421143,-0.0170404687524,18.24727821348,94.561965942389,46.55069351194,34.676300048857,1182
1.6495043122909E+018,53,1.6495043122909E+018,r1000913c5/base_footprint,0,1.6495043122909E+018,v/m1vw10zy74w/map,-8.6557215592,-0.767612468512,0,0,0,-0.724734062538,0.689028692144,0,59.8466339111,11.9594860077,47.6999473572,95.2308959961,37.8690757751,37.8690757751,59.8466339111,59.8466339111,34.5778236389,0.304237008095,0,7.23883567844E-05,0.146554961801,7.23883567844E-05,0,6.28779220581,0.344587951899,-0.668930053711,-0.00707398634404,8.68161773682,0.186498135328,0.0984764099121,0.00283987657167,18.24727821351,94.561965942389,46.55069351192,34.6763000488121,1182
1.64950431239017E+018,54,1.64950431239017E+018,r1000913c5/base_footprint,0,1.64950431239017E+018,v/m1vw10zy74w/map,-8.6557215592,-0.767612468512,0,0,0,-0.724734062538,0.689028692144,0,59.3741569519,12.5387001038,47.6999473572,95.2308959961,37.8354568481,37.8354568481,59.3741569519,59.3741569519,42.7193336487,0.208586648107,0,4.40697367594E-05,0.146754086018,4.40697367594E-05,0,5.70857810974,0.312845468521,-0.668930053711,-0.00707398634404,8.71523666382,0.187220335007,-8.04303359985,-0.231946125627,18.24727821354,94.561965942389,46.55069351192,34.67630004885,1182
1.64950431249061E+018,55,1.64950431249061E+018,r1000913c5/base_footprint,0,1.64950431249061E+018,v/m1vw10zy74w/map,-8.64806733127,-0.650964106165,0,0,0,-0.725774230798,0.687932966146,0,59.2788200378,7.28476810455,47.6999473572,94.8784561157,37.8380050659,37.8380050659,59.2788200378,59.2788200378,43.1941108704,0.381942152977,0,5.96068712184E-05,0.147408127785,5.96068712184E-05,0,10.9436578751,0.600362181664,-0.358177185059,-0.00378942163661,8.96813201904,0.191601634026,-8.51958465576,-0.245701551437,18.22842597965,94.520278930641,46.80613708494,34.67452621464,1116
1.6495043125916E+018,56,1.6495043125916E+018,r1000913c5/base_footprint,0,1.6495043125916E+018,v/m1vw10zy74w/map,-8.64806733127,-0.650964106165,0,0,0,-0.725774230798,0.687932966146,0,59.7196006775,12.3414068222,48.4624290466,94.8784561157,37.9169464111,37.9169464111,59.7196006775,59.7196006775,36.112651825,0.35078984499,0,0.000255074730376,0.147416219115,0.000255074730376,0,5.88701915741,0.322958171368,-0.358177185059,-0.00378942163661,8.88919067383,0.189915060997,-1.43812561035,-0.0414749905467,18.22842597961,94.520278930641,46.80613708493,34.67452621465,1116
1.64950431269101E+018,57,1.64950431269101E+018,r1000913c5/base_footprint,0,1.64950431269101E+018,v/m1vw10zy74w/map,-8.64498157308,-0.551417911308,0,0,0,-0.723863491475,0.689943219193,0,59.4292144775,14.8606815338,48.4624290466,94.6821289062,37.9443321228,37.9443321228,59.4292144775,59.4292144775,40.9285926819,0.081277616322,0,0.00024807814043,0.147205919027,0.00024807814043,0,3.37192153931,0.18493911624,-0.164642333984,-0.00174192455597,8.84473419189,0.189034208655,-6.31962966919,-0.182600960135,18.23260307311,94.517486572216,46.78906631469,34.60896301271,1050
1.64950431369102E+018,58,1.64950431369102E+018,r1000913c5/base_footprint,0,1.64950431369102E+018,v/m1vw10zy74w/map,-8.63835624727,-0.436666415952,0,0,0,-0.724828294008,0.688929564038,0,59.4190406799,13.5177249908,48.3433876038,94.4858169556,37.9611587524,37.9611587524,59.4190406799,59.4190406799,40.5867462158,0.194310173392,0,0.000102088539279,0.198945060372,0.0510131455958,0.0509110540152,4.48768997192,0.249241128564,0.00511169433594,5.40971959708E-05,8.75472640991,0.187403634191,-6.09407424927,-0.176677361131,18.00541496272,94.4909286499359,46.71588516231,34.49267196653,943
1.64950431379025E+018,59,1.64950431379025E+018,r1000913c5/base_footprint,0,1.64950431379025E+018,v/m1vw10zy74w/map,-8.63835624727,-0.436666415952,0,0,0,-0.724828294008,0.688929564038,0,59.3399353027,3.25077390671,48.3245315552,94.4858169556,37.8907012939,37.8907012939,59.3399353027,59.3399353027,41.2496528625,0.0148094994947,0,0.00192104431335,0.198758244514,0.0909058377147,0.0889847949147,14.7546405792,0.819455742836,0.00511169433594,5.40971959708E-05,8.82518386841,0.18891184032,-6.756980896,-0.19589613378,18.00541448591,94.4909286499359,46.71588516231,34.4926719665,943
1.64950431389018E+018,60,1.64950431389018E+018,r1000913c5/base_footprint,0,1.64950431389018E+018,v/m1vw10zy74w/map,-8.63356248884,-0.494321192239,0,0,0,-0.686945263415,0.726709161269,0,59.8168296814,3.67153573036,48.3245315552,94.304473877,37.8512954712,37.8512954712,59.8168296814,59.8168296814,31.5871715546,0.0596592128277,0,0.00195244757924,0.195453509688,0.113641165197,0.1116887182,14.6000766754,0.79905796051,0.226493835449,0.00239597493783,8.90786743164,0.190505281091,3.01146507263,0.0870399922132,18.27161240576,94.530967712449,46.75916290284,34.59863662723,1007
1.6495043139903E+018,61,1.6495043139903E+018,r1000913c5/base_footprint,0,1.6495043139903E+018,v/m1vw10zy74w/map,-8.63356248884,-0.494321192239,0,0,0,-0.686945263415,0.726709161269,0,60.0866622925,7.790143013,48.3245315552,94.304473877,37.867515564,37.867515564,60.0866622925,60.0866622925,26.9053325653,0.121064938605,0,0.00314618344419,0.189211621881,0.147059679031,0.14391349256,10.4814691544,0.573647737503,0.226493835449,0.00239597493783,8.89164733887,0.190158396959,7.69330406189,0.222358584404,18.2716121674,94.530967712449,46.75916290287,34.59863662719,1007
1.64950431409051E+018,62,1.64950431409051E+018,r1000913c5/base_footprint,0,1.64950431409051E+018,v/m1vw10zy74w/map,-8.61965063552,-0.586420219578,0,0,0,-0.599312747211,0.800514978642,0,60.2344284058,9.5638256073,48.3245315552,94.0662155151,37.9134178162,37.9134178162,60.2344284058,60.2344284058,23.8835887909,0.116316445172,0,0.00404561962932,0.184677556157,0.162106275558,0.158060654998,8.66581535339,0.475369513035,0.457595825195,0.00484106410295,8.83815765381,0.189045131207,10.834733963,0.312075376511,18.22964096069,94.523811340295,46.75157547001,34.7183227539,1095
1.64950431419225E+018,63,1.64950431419225E+018,r1000913c5/base_footprint,0,1.64950431419226E+018,v/m1vw10zy74w/map,-8.62005472873,-0.586992564289,0,0,0,-0.591615282821,0.806220414733,0,60.0552978516,5.56222486496,48.0093002319,93.8341293335,37.8751373291,37.8751373291,60.0552978516,60.0552978516,25.8590202332,0.0907520800829,0,0.00489620538428,0.180329218507,0.174038514495,0.169142305851,12.6674156189,0.694880127907,0.689682006836,0.00729638384655,8.87643814087,0.189863935113,8.85930252075,0.255176573992,18.22964048386,94.523811340336,46.75157546997,34.71832275395,1095
1.64950431429069E+018,64,1.64950431429069E+018,r1000913c5/base_footprint,0,1.64950431429069E+018,v/m1vw10zy74w/map,-8.59970146953,-0.631553232418,0,0,0,-0.551942312534,0.833882296032,0,59.4773864746,5.04201698303,48.0093002319,93.7520523071,37.9390525818,37.9390525818,59.4773864746,59.4773864746,36.6561698914,0.0633580163121,0,0.00598509609699,0.174894660711,0.184109255672,0.178124159575,13.1634807587,0.723049759865,0.782188415527,0.00827412772924,8.83102416992,0.188817828894,-1.89976501465,-0.054659422487,18.20549774173,94.534240722627,46.77007675172,34.75640487675,1120
1.64950431439305E+018,65,1.64950431439305E+018,r1000913c5/base_footprint,0,1.64950431439305E+018,v/m1vw10zy74w/map,-8.58410134685,-0.666538438424,0,0,0,-0.498412320815,0.866940112384,0,59.652381897,4.7224521637,47.8002052307,93.8339920044,37.9852867126,37.9852867126,59.652381897,59.652381897,34.3005752563,0.0894308462739,0,0.00666110683233,0.172150164843,0.18779347837,0.181132361293,13.4422626495,0.740020573139,0.707427978516,0.00748273078352,8.71390151978,0.186596423388,0.554718017578,0.0159148853272,18.1647148132,94.541419982916,46.69918823238,34.855293273878,1144
1.64950431449094E+018,66,1.64950431449094E+018,r1000913c5/base_footprint,0,1.64950431449094E+018,v/m1vw10zy74w/map,-8.58410134685,-0.666538438424,0,0,0,-0.498412320815,0.866940112384,0,59.4736251831,3.06545162201,47.8002052307,93.8339920044,38.0522499084,38.0522499084,59.4736251831,59.4736251831,38.2414093018,0.0873360708356,0,0.00702258897945,0.170722603798,0.182472631335,0.17545004189,15.0992631912,0.831241428852,0.707427978516,0.00748273078352,8.64693832397,0.185162499547,-3.38611602783,-0.0971478298306,18.16471481321,94.541419982916,46.69918823237,34.85529327397,1144
1.64950431459031E+018,67,1.64950431459031E+018,r1000913c5/base_footprint,0,1.64950431459031E+018,v/m1vw10zy74w/map,-8.56794665882,-0.704424106889,0,0,0,-0.43614228612,0.899877717392,0,59.355342865,7.92838859558,47.8592681885,93.0962524414,38.2100715637,38.2100715637,59.355342865,59.355342865,39.4191055298,-0.0289609637111,0,0.00726922368631,0.166901171207,0.149589046836,0.142319828272,10.2363262177,0.563528060913,1.4451675415,0.0152860786766,8.4891166687,0.181782960892,-4.56381225586,-0.13093598187,18.16471481328,94.5414199829,46.6991882324,34.85529327394,1144
1.64950431469013E+018,68,1.64950431469013E+018,r1000913c5/base_footprint,0,1.64950431469013E+018,v/m1vw10zy74w/map,-8.50273415941,-0.750688165644,0,0,0,-0.312846466806,0.949803710357,0,59.1465339661,3.36134457588,47.7115859985,93.1211853027,38.1540641785,38.1540641785,59.1465339661,59.1465339661,42.6625442505,-0.121890775859,0,0.00647167908028,0.162255093455,0.126399934292,0.119928248227,14.9220552444,0.816153228283,1.44354248047,0.0152651257813,8.515625,0.182465866208,-7.68675994873,-0.219773769379,18.28339982028,94.56472778317,46.6696891785,34.97578430177,1174
1.64950431479016E+018,69,1.64950431479016E+018,r1000913c5/base_footprint,0,1.64950431479017E+018,v/m1vw10zy74w/map,-8.45712136676,-0.789939394748,0,0,0,-0.247890342676,0.968788097577,0,59.4133338928,4.56602239609,47.6161575317,92.6514129639,38.010684967,38.010684967,59.4133338928,59.4133338928,34.6204719543,0.0359642244875,0,0.00612793629989,0.154754593968,0.0954124927521,0.0892845541239,13.6140727997,0.748844921589,1.89849090576,0.0200792476535,8.57571411133,0.184081926942,0.575019836426,0.0163378827274,18.18009519579,94.54990386966,46.58639907833,35.195491790726,1195
1.64950431489052E+018,70,1.64950431489052E+018,r1000913c5/base_footprint,0,1.64950431489052E+018,v/m1vw10zy74w/map,-8.39636615897,-0.791867447506,0,0,0,-0.183658908214,0.982990033232,0,58.9009933472,3.6658141613,47.7688179016,93.2801132202,37.7610664368,37.7610664368,58.9009933472,58.9009933472,43.4100379944,-0.0316759236157,0,0.00553215667605,0.148890689015,0.0692129582167,0.0636807978153,14.4447069168,0.797586500645,1.23492431641,0.0130659034476,8.79988479614,0.188997104764,-8.17443847656,-0.231993734837,18.1105210781,94.51503753661,46.56095123294,35.23559951784,1211
1.64950431499131E+018,71,1.64950431499131E+018,r1000913c5/base_footprint,0,1.64950431499131E+018,v/m1vw10zy74w/map,-8.32918323808,-0.794406462577,0,0,0,-0.126939778621,0.991910425696,0,59.4290733337,3.6658141613,47.7567100525,93.4231338501,37.5820617676,37.5820617676,59.4290733337,59.4290733337,32.4862060547,-0.144405841827,0,0.00589383719489,0.126019582152,0.0426461882889,0.0367523506284,14.2922296524,0.795867860317,1.09029388428,0.0115358624607,9.14607620239,0.195729523897,2.99194717407,0.084332101047,17.9580438137,94.51342773438,46.72813796999,35.47815322877,1182
1.64950431509077E+018,72,1.64950431509077E+018,r1000913c5/base_footprint,0,1.64950431509077E+018,v/m1vw10zy74w/map,-8.25562573493,-0.799176878188,0,0,0,-0.074939201476,0.997188104663,0,59.9488639832,8.08823490143,47.8757019043,93.2848968506,37.7457275391,37.7457275391,59.9488639832,59.9488639832,24.3999500275,-0.0084931999445,0,0.00461328914389,0.0632463693619,0.0265717674047,0.0311850570142,9.99113178253,0.55262619257,1.18994140625,0.0125953266397,9.27548217773,0.197261661291,11.3591785431,0.317658156157,18.07936668396,94.47483825685,47.02120971683,35.7591285706,1098
1.64950431519078E+018,73,1.64950431519078E+018,r1000913c5/base_footprint,0,1.64950431519078E+018,v/m1vw10zy74w/map,-8.14826671231,-0.808010092901,0,0,0,-0.0199341739545,0.999801294612,0,60.3132591248,7.42526531219,47.83228302,93.4753494263,38.2555809021,38.2555809021,60.3132591248,60.3132591248,24.0328903198,-0.0646336525679,0,0.00395317189395,0.0525091104209,0.0464940853417,0.050447255373,11.0939264297,0.599050223827,0.910377502441,0.00964528787881,9.61661911011,0.200881078839,12.5623893738,0.343278944492,18.51919174189,94.385726928741,47.87220001221,36.5952796936,919
1.6495043152906E+018,74,1.6495043152906E+018,r1000913c5/base_footprint,0,1.6495043152906E+018,v/m1vw10zy74w/map,-8.14826671231,-0.808010092901,0,0,0,-0.0199341739545,0.999801294612,0,59.8536453247,10.0908660889,47.4905509949,93.4753494263,38.7796173096,38.7796173096,59.8536453247,59.8536453247,37.9654960632,0.379937767982,0,0.00265836971812,0.0414150133729,0.0823916867375,0.0850500613451,8.42832565308,0.455113053322,0.910377502441,0.00964528787881,9.09258270264,0.189934507012,-1.37021636963,-0.0374424345791,18.51919174198,94.385726928741,47.87220001224,36.59527969357,919
1.64950431539031E+018,75,1.64950431539031E+018,r1000913c5/base_footprint,0,1.64950431539031E+018,v/m1vw10zy74w/map,-8.03403851601,-0.811669929533,0,0,0,0.0143728378261,0.999896705432,0,61.0593261719,15.701713562,46.4617729187,93.9913482666,39.3465385437,39.3465385437,61.0593261719,61.0593261719,24.2436161041,0.39890179038,0,0.00151721097063,0.0363278090954,0.0947800204158,0.0962972342968,1.97631454468,0.111794963479,0.274978637695,0.00291703990661,8.82765960693,0.183244556189,13.2516231537,0.353421479464,17.67802810668,94.266326904295,48.17419815063,37.4952392578,800
1.64950431549027E+018,76,1.64950431549027E+018,r1000913c5/base_footprint,0,1.64950431549027E+018,v/m1vw10zy74w/map,-7.9008722241,-0.803224349359,0,0,0,0.0350842406253,0.999384358523,0,60.6610298157,8.30449867249,45.3390769958,94.0108566284,39.8626213074,39.8626213074,60.6610298157,60.6610298157,37.0568618774,0.305026233196,0,0.00128743669484,0.0334529206157,0.102078020573,0.103365458548,8.6340637207,0.509728252888,0.210296630859,0.00223194714636,8.34189605713,0.173052161932,0.440128326416,0.0117376977578,16.93856239319,94.221153259259,48.20451736453,37.496990203816,800
1.64950431559023E+018,77,1.64950431559023E+018,r1000913c5/base_footprint,0,1.64950431559023E+018,v/m1vw10zy74w/map,-7.77076066305,-0.790375540585,0,0,0,0.0451497500085,0.998980230072,0,60.618560791,6.75381278992,45.3390769958,94.076713562,40.3363571167,40.3363571167,60.618560791,60.618560791,43.1747131348,0.0353076383471,0,0.00127497909125,0.0289317853749,0.111936219037,0.113211199641,9.43643760681,0.582846939564,0.168746948242,0.00179050478619,7.73798370361,0.160958707333,-5.66032028198,-0.150883957744,16.19025039673,94.245460510242,48.07434082031,37.51439285282,805
1.64950431569079E+018,78,1.64950431569079E+018,r1000913c5/base_footprint,0,1.64950431569079E+018,v/m1vw10zy74w/map,-7.74696133166,-0.789520137395,0,0,0,0.0479755917714,0.998848508331,0,61.4451904297,8.30449867249,44.6129379272,93.7985610962,40.8769874573,40.8769874573,61.4451904297,61.4451904297,33.132850647,0.344894111156,0,0.00133519957308,0.0217773318291,0.122540660203,0.1238758564,7.88575172424,0.487067937851,0.446899414062,0.00474186660722,7.19735336304,0.149712994695,4.38154220581,0.116796299815,16.19025039673,94.245460510262,48.07434082034,37.51439285281,805
1.64950431579161E+018,79,1.64950431579161E+018,r1000913c5/base_footprint,0,1.64950431579161E+018,v/m1vw10zy74w/map,-7.6017682734,-0.773459126509,0,0,0,0.0496145582351,0.998768439435,0,61.5346641541,6.9359087944,44.2486763,94.2702713013,41.4997367859,41.4997367859,61.5346641541,61.5346641541,39.9461631775,0.165318205953,0,0.000997676397674,0.0157311540097,0.125314638019,0.126312315464,8.87645530701,0.561361670494,0.187149047852,0.00198130588979,5.25984573364,0.112487010658,-3.47205352783,-0.0951922759414,15.81236410141,94.457420349152,46.75958251954,36.47410964967,1095
1.64950431589095E+018,80,1.64950431589095E+018,r1000913c5/base_footprint,0,1.64950431589095E+018,v/m1vw10zy74w/map,-7.45662106643,-0.756882721043,0,0,0,0.0429319615268,0.999077998296,0,62.2805595398,17.1122989655,44.1965408325,94.2284317017,42.1391563416,42.1391563416,62.2805595398,62.2805595398,33.2751541138,0.444529294968,0,0.000843545945827,0.00632700603455,0.129887700081,0.130731254816,-1.19731426239,-0.0752318799496,0.281188964844,0.00297524174675,4.31542205811,0.0928955152631,2.75533676147,0.0764723643661,15.91498470311,94.509620666544,46.45457839971,36.03049087527,1202
1.64950431599089E+018,81,1.64950431599089E+018,r1000913c5/base_footprint,0,1.64950431599089E+018,v/m1vw10zy74w/map,-7.30411791536,-0.726720613736,0,0,0,0.0350134077135,0.999386842659,0,62.8423309326,18.8948307037,44.1965408325,94.9993286133,42.7025146484,42.7025146484,62.8423309326,62.8423309326,32.0227661133,0.425541549921,0,0.000622805440798,0.0103052677587,0.137762397528,0.138385206461,-2.97756481171,-0.187065094709,-0.482376098633,-0.00510359322652,3.63785171509,0.0785028710961,3.87728881836,0.108002312481,15.91726589199,94.516952514667,46.34036636349,35.90005493166,1231
1.64950431609104E+018,82,1.64950431609104E+018,r1000913c5/base_footprint,0,1.64950431609104E+018,v/m1vw10zy74w/map,-7.16453116717,-0.715354765983,0,0,0,0.0280221012344,0.999607303816,0,63.2940673828,20.3619918823,44.3844642639,94.6257476807,43.3607215881,43.3607215881,63.2940673828,63.2940673828,29.655298233,0.627553403378,0,0.000209427380469,0.0308054126799,0.167176663876,0.167386084795,-4.30052947998,-0.267754554749,-0.11661529541,-0.00123390508816,2.86870574951,0.0620536729693,6.05292701721,0.16951072216,16.06146240232,94.50913238529,46.22942733761,35.70822525021,1241
1.64950431619033E+018,83,1.64950431619033E+018,r1000913c5/base_footprint,0,1.64950431619033E+018,v/m1vw10zy74w/map,-7.01823078536,-0.709201083526,0,0,0,0.0157012193228,0.999876728258,0,63.7754020691,21.5686283112,44.5908889771,94.6421737671,44.0421104431,44.0421104431,63.7754020691,63.7754020691,28.4093837738,0.43065276742,0,0.000582455541007,0.0471737645566,0.192859992385,0.192277535796,-5.11485099792,-0.310861796141,-0.107398986816,-0.00113607919775,2.31061172485,0.049848459661,7.35733604431,0.205703407526,16.45377731328,94.534774780284,46.35272216795,35.76671981811,1256
1.64950431629064E+018,84,1.64950431629064E+018,r1000913c5/base_footprint,0,1.64950431629064E+018,v/m1vw10zy74w/map,-6.86670019151,-0.705276153479,0,0,0,0.00410306043669,0.999991582412,0,64.2096633911,22.8235301971,44.862361908,94.3473815918,44.5979003906,44.5979003906,64.2096633911,64.2096633911,25.534029007,0.566317915916,0,0.0015274946345,0.0588171370327,0.206803068519,0.205275565386,-6.14716339111,-0.368615269661,0.128784179688,0.00136313936673,1.90357971191,0.040935896337,10.4019527435,0.289457857609,16.67636680599,94.476165771488,46.50148010251,35.9359817505,1244
1.64950431639034E+018,85,1.64950431639034E+018,r1000913c5/base_footprint,0,1.64950431639034E+018,v/m1vw10zy74w/map,-6.76023802301,-0.721997968573,0,0,0,-0.00357792761774,0.999993599196,0,64.1711273193,19.4071331024,44.9277648926,94.544883728,45.0286598206,45.0286598206,64.1711273193,64.1711273193,31.5908374786,0.500324308872,0,0.00227918056771,0.0739585235715,0.218958988786,0.216679811478,-2.75985527039,-0.165784180164,-0.12671661377,-0.00134207878727,1.62811660767,0.0348956100643,4.68179130554,0.129072293639,16.64727783201,94.41816711423,46.65677642827,36.27262878414,1156
1.64950431649086E+018,86,1.64950431649086E+018,r1000913c5/base_footprint,0,1.64950431649086E+018,v/m1vw10zy74w/map,-6.72635736526,-0.723799409011,0,0,0,-0.00581877954053,0.999983070759,0,63.8901901245,23.1125526428,44.9277648926,94.6506271362,45.3549308777,45.3549308777,63.8901901245,63.8901901245,40.5520782471,0.344558298588,0,0.00189271289855,0.0827267095447,0.233338713646,0.231446012855,-6.32244682312,-0.3765578866,-0.305519104004,-0.00323831429705,1.85755157471,0.0393445007503,-3.77487564087,-0.102641731501,16.79010581968,94.345108032196,47.21248245241,36.77720260623,984
1.64950431659099E+018,87,1.64950431659099E+018,r1000913c5/base_footprint,0,1.64950431659099E+018,v/m1vw10zy74w/map,-6.5736555851,-0.723312386287,0,0,0,-0.00921005798961,0.999957586516,0,63.9352149963,12.9603061676,44.9965324402,94.9668273926,45.606426239,45.606426239,63.9352149963,63.9352149963,43.59608078,0.07157651335,0,0.00236668041907,0.0902512446046,0.245599031448,0.243232354522,3.54516220093,0.214787125587,-0.743919372559,-0.00789531320333,1.97710037231,0.041550103575,-6.33657836914,-0.170066103339,16.50546836853,94.222908020041,47.58352661131,37.25950241086,883
1.64950431669062E+018,88,1.64950431669062E+018,r1000913c5/base_footprint,0,1.64950431669062E+018,v/m1vw10zy74w/map,-6.42916833329,-0.725158537106,0,0,0,-0.00903793840487,0.999959157001,0,64.7001953125,15.5597724915,44.8255462646,95.2225875854,45.7885284424,45.7885284424,64.7001953125,64.7001953125,32.7139205933,0.290566086769,0,0.0036450442858,0.102370359004,0.270268529654,0.266623467207,-0.0108423233032,-0.000697303505149,-1.12020111084,-0.0119040673599,1.74343490601,0.0366792120039,4.78402328491,0.127580955625,15.5489301681968,94.10238647456,47.53196334841,37.49794387821,839
1.64950431679069E+018,89,1.64950431679069E+018,r1000913c5/base_footprint,0,1.64950431679069E+018,v/m1vw10zy74w/map,-6.26650894127,-0.727406636845,0,0,0,-0.00573339522806,0.999983563955,0,64.0590896606,14.7753591537,44.5968856812,95.2116928101,45.719909668,45.719909668,64.0590896606,64.0590896606,43.4734687805,0.106117673218,0,0.00487122684717,0.113614335656,0.285619884729,0.280748665333,0.203119277954,0.0135607421398,-1.11288452148,-0.0118267657235,1.95180130005,0.0409425459802,-5.83230209351,-0.154944777489,14.978478431654,94.09880828862,47.67171096805,37.64116668699,819
1.64950431689008E+018,90,1.64950431689008E+018,r1000913c5/base_footprint,0,1.64950431689008E+018,v/m1vw10zy74w/map,-6.12087054516,-0.728628809823,0,0,0,-0.00370302355532,0.999993143785,0,64.153793335,16.628068924,44.4829292297,95.30052948,45.6967391968,45.6967391968,64.153793335,64.153793335,41.8384246826,0.202894836664,0,0.00689894100651,0.131779104471,0.269504845142,0.262605905533,-2.43225860596,-0.171336367726,-1.21714782715,-0.0129369059578,1.9542427063,0.0410115942359,-4.38049697876,-0.11694445461,14.19581031804,94.08338165285,47.6509819031,37.45792770384,796
1.64950431699063E+018,91,1.64950431699063E+018,r1000913c5/base_footprint,0,1.64950431699063E+018,v/m1vw10zy74w/map,-5.96461439048,-0.726901783003,0,0,0,-0.00272441384716,0.999996288778,0,64.5271911621,12.0038261414,44.2365531921,95.0152816772,45.7124290466,45.7124290466,64.5271911621,64.5271911621,34.2598457336,0.130069285631,0,0.00689163524657,0.138424634933,0.249103873968,0.242212235928,1.31973075867,0.0990524366498,-0.96223449707,-0.0102307638153,1.90888595581,0.0400846973062,2.70682144165,0.0732233002782,13.32355690007,94.05304718013,47.62131500241,36.96666717525,769
1.64950431709004E+018,92,1.64950431709004E+018,r1000913c5/base_footprint,0,1.64950431709004E+018,v/m1vw10zy74w/map,-5.79933292397,-0.705259814779,0,0,0,-0.0022992595418,0.999997356699,0,64.6054458618,11.2825460434,44.1311759949,95.5709228516,45.699382782,45.699382782,64.6054458618,64.6054458618,34.7105979919,0.320509165525,0,0.00656190142035,0.151387855411,0.220200106502,0.213638216257,1.51470375061,0.118361659348,-1.5415802002,-0.0163946710527,1.79666519165,0.0378276780248,1.59772109985,0.0440042689443,12.79724979401,94.0293426514,47.49604797365,36.30831909175,752
1.64950431719033E+018,93,1.64950431719033E+018,r1000913c5/base_footprint,0,1.64950431719033E+018,v/m1vw10zy74w/map,-5.57983773525,-0.708718271669,0,0,0,-0.00441340873169,0.999990260864,0,64.6568069458,3.11418676376,44.2152061462,95.3199386597,45.7622184753,45.7622184753,64.6568069458,64.6568069458,33.5612258911,0.366148203611,0,0.00598971871659,0.168306767941,0.194302618504,0.188312903047,9.29375457764,0.749016702175,-1.30772399902,-0.0139101501554,1.77745056152,0.0373887866735,2.28897857666,0.063848413527,12.4079413414,94.01221466068,47.53966903682,35.85020446776,756
1.64950431729102E+018,94,1.64950431729102E+018,r1000913c5/base_footprint,0,1.64950431729102E+018,v/m1vw10zy74w/map,-5.55389823721,-0.724451380494,0,0,0,-0.00448374837438,0.99998994795,0,64.3567886353,6.08007907867,44.307094574,95.4391555786,45.7549057007,45.7549057007,64.3567886353,64.3567886353,39.3117485046,0.168611511588,0,0.00556787010282,0.179150238633,0.174637153745,0.169069290161,6.31966686249,0.509661018848,-1.42736816406,-0.0151828639209,1.78773880005,0.0376028455794,-3.48126602173,-0.0971593409777,12.39974594116,94.01178741454,47.54264450075,35.83048248287,762
1.64950431739117E+018,95,1.64950431739117E+018,r1000913c5/base_footprint,0,1.64950431739117E+018,v/m1vw10zy74w/map,-5.39003938277,-0.730182457219,0,0,0,-0.00565985764349,0.999983982877,0,64.1952896118,9.50226211548,44.2446708679,95.2761306763,45.826423645,45.826423645,64.1952896118,64.1952896118,42.4041824341,0.198598861694,0,0.00594968767837,0.185895755887,0.154863685369,0.148913994431,2.69711875916,0.221086531878,-1.24973297119,-0.0132912993431,1.83917236328,0.0385849028826,-6.37870407104,-0.17706091702,12.19938087464,94.02639770511,47.66559600828,36.02547836306,748
1.64950431759064E+018,96,1.64950431759064E+018,r1000913c5/base_footprint,0,1.64950431759064E+018,v/m1vw10zy74w/map,-5.27773365739,-0.709056457075,0,0,0,-0.00550543957556,0.999984844953,0,64.2404708862,8.389585495,44.1484451294,95.2892074585,45.9421424866,45.9421424866,64.2404708862,64.2404708862,42.8878898621,0.270674467087,0,0.00570241268724,0.193447351456,0.126556292176,0.120853878558,3.20513439178,0.276430517435,-1.32015991211,-0.0140488799661,1.62469482422,0.0341560393572,-6.3510055542,-0.173824504018,11.59471988678,93.96904754639,47.56683731082,36.5368843079,735
1.64950431769062E+018,97,1.64950431769062E+018,r1000913c5/base_footprint,0,1.64950431769064E+018,v/m1vw10zy74w/map,-5.14472857341,-0.712393420147,0,0,0,-0.0048035619467,0.99998846283,0,64.4815444946,9.04597091675,43.8901672363,95.5336151123,46.0958251953,46.0958251953,64.4815444946,64.4815444946,41.0881347656,0.401558578014,0,0.00512260990217,0.200451552868,0.105894759297,0.100772149861,2.16646289825,0.193219676614,-1.59678649902,-0.016998514533,1.47038650513,0.0309124160558,-4.16606140137,-0.112833894789,11.212433815,93.93682861328,47.56621170043,36.92207336423,734
1.64950431779031E+018,98,1.64950431779031E+018,r1000913c5/base_footprint,0,1.64950431779031E+018,v/m1vw10zy74w/map,-4.97685025046,-0.711729400134,0,0,0,-0.00677966518522,0.999977017806,0,64.5626296997,6.46094512939,44.6027755737,95.4096603394,46.2739486694,46.2739486694,64.5626296997,64.5626296997,41.106048584,-0.0845252200961,0,0.00344102527015,0.216164007783,0.0553714372218,0.0519304126501,3.95510292053,0.379712432623,-1.5643157959,-0.0166690833867,1.23069381714,0.0259068123996,-3.80360412598,-0.101966619492,10.41604804992,93.8453445435,47.50464248654,37.30244445802,746
1.64950431789023E+018,99,1.64950431789023E+018,r1000913c5/base_footprint,0,1.64950431789023E+018,v/m1vw10zy74w/map,-4.72671810516,-0.719607823116,0,0,0,-0.00959207699363,0.999953994971,0,63.9163398743,2.12555599213,45.6522026062,95.4134216309,46.0994949341,46.0994949341,63.9163398743,63.9163398743,50.8687553406,0.514849901199,0,0.00280753173865,0.222870022058,0.039996843785,0.0371893122792,7.56310367584,0.78061401844,-1.37460327148,-0.0146174030378,-1.82103347778,-0.0411268472672,-17.2370948792,-0.512525856495,9.68865966797,94.03881835942,44.27846145632,33.6316604614,1211
1.64950431799031E+018,100,1.64950431799031E+018,r1000913c5/base_footprint,0,1.64950431799031E+018,v/m1vw10zy74w/map,-4.53403610331,-0.724940148926,0,0,0,-0.0086582568903,0.999962516591,0,65.2024383545,5.12333965302,46.5975189209,95.4885025024,46.0742225647,46.0742225647,65.2024383545,65.2024383545,27.7162857056,0.626252353191,0,0.00133694219403,0.236855655909,0.0206029862165,0.019266044721,4.44463253021,0.464532345533,-1.48217010498,-0.015766704455,-2.28502655029,-0.0521824285388,5.13497924805,0.15630993247,9.56797218323,94.00633239742,43.78919601441,32.85126495365,1362
1.64950431809056E+018,101,1.64950431809056E+018,r1000913c5/base_footprint,0,1.64950431809056E+018,v/m1vw10zy74w/map,-4.39823384575,-0.731031515883,0,0,0,-0.00704940049808,0.999975152668,0,64.8736724854,3.05882358551,47.483291626,95.4463348389,46.0516014099,46.0516014099,64.8736724854,64.8736724854,33.2380523682,0.344386935234,0,0.000250768760452,0.249624431133,0.0180272497237,0.0177764799446,6.39648532867,0.676496684551,-1.45671844482,-0.0154987163842,-2.42708969116,-0.0556359179318,-0.66463470459,-0.0204042047262,9.45530891418,93.98961639408,43.62451171874,32.57341766361,1390
