%time,field.header.seq,field.header.stamp,field.header.frame_id,field.pose.header.seq,field.pose.header.stamp,field.pose.header.frame_id,field.pose.pose.position.x,field.pose.pose.position.y,field.pose.pose.position.z,field.pose.pose.orientation.x,field.pose.pose.orientation.y,field.pose.pose.orientation.z,field.pose.pose.orientation.w,field.label,field.main_output,field.scan_score,field.pose_score,field.cov_score,field.lhood_map_score,field.lhood_robot_score,field.lhood_map_score_all,field.lhood_robot_score_all,field.point_angle_diff,field.average_orientation,field.map_average_orientation,field.sensor_div,field.odom_div_x,field.odom_div_w,field.imu_div_w,field.kdtree_div,field.kdtree_div_p,field.cov_div,field.cov_div_p,field.likelihood_div,field.likelihood_div_p,field.normal_diff_div,field.normal_diff_div_p,field.kdtree_average,field.cov_average,field.likelihood_average,field.normal_diff_average,field.map_update_count
1.64949820861856E+018,0,1.64949820861856E+018,r1000913c5/base_footprint,0,1.64949820861856E+018,v/m1vw10zy74w/map,-7.4950693426,-0.736331010571,0,0,0,0.999997862393,0.00206765792694,0,68.2899551392,39.9068984985,100,96.0475463867,50.6474838257,50.6474838257,68.2899551392,68.2899551392,23.5447654724,0.501993954182,0,0.00117616204079,0.0398815870285,0.00394002348185,0.00511618563905,-24.0967140198,-1.52412593365,-1.57848358154,-0.0167089998722,-4.10792160034,-0.0882673040032,12.6617164612,0.349708557129,15.8101844787,94.46906280516,46.53956222536,36.2064819336,1179
1.64949820871855E+018,1,1.64949820871855E+018,r1000913c5/base_footprint,0,1.64949820871855E+018,v/m1vw10zy74w/map,-7.6329425955,-0.73457881896,0,0,0,0.99999783591,0.00208042658411,0,67.3005218506,31.0039806366,87.7222671509,96.0404129028,50.4932594299,50.4932594299,67.3005218506,67.3005218506,39.6633338928,0.238587886095,0,0.00123641022947,0.0263809338212,0.00502961035818,0.0062660202384,-15.1025123596,-0.949755847454,-1.57879638672,-0.0167136285454,-3.72947692871,-0.0797513946891,-3.30730819702,-0.0909700170159,15.901468277,94.46161651608,46.76378250119,36.35602569578,1103
1.64949820881866E+018,2,1.64949820881866E+018,r1000913c5/base_footprint,0,1.64949820881866E+018,v/m1vw10zy74w/map,-7.77348480016,-0.735652212852,0,0,0,0.99999986844,0.00051295231138,0,67.3863677979,29.9307956696,90.6891174316,96.3748855591,50.3990821838,50.3990821838,67.3863677979,67.3863677979,38.3051071167,0.41647490859,0,0.00154990865849,0.00238430616446,0.00777206104249,0.00932196993381,-13.7507915497,-0.849863290787,-2.13037109375,-0.0226047225296,-2.31259918213,-0.0480924993753,-0.76490020752,-0.0203754920512,16.1800041199,94.24451446535,48.08648300167,37.54020690918,808
1.64949820891897E+018,3,1.64949820891897E+018,r1000913c5/base_footprint,0,1.64949820891897E+018,v/m1vw10zy74w/map,-7.92294605398,-0.735065263157,0,0,0,-0.999999683624,0.00079545667625,0,67.4806518555,23.2736568451,92.502571106,96.2965164185,50.3026504517,50.3026504517,67.4806518555,67.4806518555,35.2842979431,0.377371698618,0,5.54077705601E-05,0.0167290121317,0.00386237772182,0.00391778536141,-6.35343170166,-0.375493317842,-2.07456970215,-0.022017903626,-2.10509872437,-0.0436764657497,2.21840286255,0.0591531507671,16.92022514344,94.22194671635,48.19755172733,37.50270080565,803
1.64949820901965E+018,4,1.64949820901965E+018,r1000913c5/base_footprint,0,1.64949820901966E+018,v/m1vw10zy74w/map,-8.02880114083,-0.736478288345,0,0,0,-0.999999956325,0.000295550521516,0,67.4060897827,25.6055355072,93.2932128906,96.0990982056,50.2106208801,50.2106208801,67.4060897827,67.4060897827,34.9218902588,0.43972620368,0,9.07482753973E-05,0.0297152455896,0.00178581639193,0.00169506808743,-7.8629360199,-0.443167090416,-1.82659912109,-0.0193757358938,-2.02890396118,-0.0421094149351,2.49048233032,0.0665684118867,17.7425994873,94.27249908451,48.18171691892,37.41237258912,824
1.64949820911877E+018,5,1.64949820911877E+018,r1000913c5/base_footprint,0,1.64949820911877E+018,v/m1vw10zy74w/map,-8.16830988416,-0.738765773248,0,0,0,-0.999999921951,0.000395093034218,0,67.7389526367,26.6968326569,87.1759872437,96.0456314087,50.2095603943,50.2095603943,67.7389526367,67.7389526367,28.726392746,0.572041749954,0,0.000322496518493,0.0432420484722,0.000315850658808,0.000638347177301,-8.24272155762,-0.446660459042,-1.66104125977,-0.0175986494869,-2.38468933105,-0.0498629547656,7.8293132782,0.214174866676,18.45411109928,94.38459014893,47.82487106325,36.5557060242,929
1.64949820921869E+018,6,1.64949820921869E+018,r1000913c5/base_footprint,0,1.64949820921869E+018,v/m1vw10zy74w/map,-8.31602730845,-0.733785090305,0,0,0,0.999999589355,0.000906250774068,0,67.5987625122,17.8337993622,81.7942123413,95.9366836548,50.3243179321,50.3243179321,67.5987625122,67.5987625122,32.0970077515,0.354655534029,0,7.60328621254E-05,0.0585202388465,0.00195980444551,0.00203583738767,0.166543960571,0.00925226602703,-1.42874145508,-0.0151176862419,-3.56433105469,-0.076226092875,3.34876251221,0.0944756567478,18.000343322771,94.50794219972,46.75998687741,35.44577026371,1181
1.64949820931854E+018,7,1.64949820931854E+018,r1000913c5/base_footprint,0,1.64949820931854E+018,v/m1vw10zy74w/map,-8.47853302369,-0.726021809964,0,0,0,0.999989545268,0.00457267480128,0,67.4429473877,6.26494503021,81.6637954712,95.799621582,50.1902580261,50.1902580261,67.4429473877,67.4429473877,32.9603157043,0.164195477962,0,0.000208524914342,0.0675884410739,0.000292964221444,0.000501489150338,11.9145822525,0.655384600163,-1.26282501221,-0.0133580258116,-3.51902770996,-0.0754003599286,2.24052047729,0.0636496394873,18.17952728271,94.53679656979,46.67123031614,35.20083618159,1190
1.64949820941855E+018,8,1.64949820941855E+018,r1000913c5/base_footprint,0,1.64949820941855E+018,v/m1vw10zy74w/map,-8.5850219622,-0.724928779759,0,0,0,0.999981839534,0.00602665768336,0,67.1904220581,4.76190471649,81.0252532959,95.5036392212,49.9569473267,49.9569473267,67.1904220581,67.1904220581,33.9205131531,-0.0528834909201,0,0.000315976678394,0.0850281193852,0.00800543744117,0.00768946111202,13.4179296494,0.738066673279,-0.946403503418,-0.0100087895989,-3.31803512573,-0.0711430609226,0.93143081665,0.0267253611237,18.17983436589,94.557235717782,46.63891220097,34.85194396975,1176
1.64949820951888E+018,9,1.64949820951888E+018,r1000913c5/base_footprint,0,1.64949820951888E+018,v/m1vw10zy74w/map,-8.88554107544,-0.716522193148,0,0,0,0.999999922258,0.00039431491948,0,66.8854675293,11.0699396133,80.433921814,95.4654464722,50.0210952759,50.0210952759,66.8854675293,66.8854675293,39.9650001526,-0.166955366731,0,0.000520096276887,0.114817507565,0.00296666217037,0.00244656577706,7.32751750946,0.398289680481,-0.886054992676,-0.00936837308109,-2.91772079468,-0.0619429238141,-5.72080230713,-0.167059019208,18.39745712276,94.579391479524,47.10337448122,34.24419784547,1131
1.64949820961863E+018,10,1.64949820961863E+018,r1000913c5/base_footprint,0,1.64949820961863E+018,v/m1vw10zy74w/map,-9.02957107779,-0.721858323769,0,0,0,-0.999994399824,0.00334668803997,0,67.3641433716,23.6172084808,74.556892395,95.2582473755,50.4413757324,50.4413757324,67.3641433716,67.3641433716,35.1420211792,0.0404069833457,0,0.000347569206497,0.139061525464,0.00139602809213,0.00104845885653,-5.13487434387,-0.277826070786,-0.654716491699,-0.0069206347689,-3.04767227173,-0.0643054246902,-1.00108718872,-0.0293221976608,18.48233413693,94.603530883801,47.39370346067,34.14093399048,1094
1.64949820971897E+018,11,1.64949820971897E+018,r1000913c5/base_footprint,0,1.64949820971897E+018,v/m1vw10zy74w/map,-9.19409251661,-0.726095284863,0,0,0,-0.999970959867,0.00762098562525,0,67.6469268799,30.7958469391,67.3404006958,95.5607452393,50.8420906067,50.8420906067,67.6469268799,67.6469268799,35.4685745239,0.0301115699112,0,1.2834520021E-05,0.180284172297,0.0040255272761,0.0040383618325,-12.0440063477,-0.642283976078,-1.06085205078,-0.0112259602174,-2.37218475342,-0.0489413924515,-0.882713317871,-0.0255223754793,18.7518405914,94.49989318852,48.46990585328,34.585861206029,907
1.64949820981933E+018,12,1.64949820981933E+018,r1000913c5/base_footprint,0,1.64949820981933E+018,v/m1vw10zy74w/map,-9.19409251661,-0.726095284863,0,0,0,-0.999970959867,0.00762098562525,0,67.8820800781,29.7765617371,55.9071884155,95.5607452393,51.1260986328,51.1260986328,67.8820800781,67.8820800781,34.3031272888,0.212731644511,0,6.49817811791E-05,0.234313383698,0.000749825674575,0.000814807484858,-11.0247211456,-0.587927401066,-1.06085205078,-0.0112259602174,-2.65619277954,-0.0548008643091,0.282733917236,0.0081748412922,18.7518405915,94.49989318852,48.46990585326,34.585861206036,907
1.64949820991882E+018,13,1.64949820991882E+018,r1000913c5/base_footprint,0,1.64949820991882E+018,v/m1vw10zy74w/map,-9.32583336597,-0.719196593029,0,0,0,-0.999944327128,0.0105519024119,0,67.9592285156,39.7869377136,47.815700531,95.6153335571,51.2575836182,51.2575836182,67.9592285156,67.9592285156,34.5310287476,0.21459800005,0,0.000155210029334,0.252066671848,0.00320519390516,0.00336040393449,-19.8112792969,-0.991771042347,-1.22150421143,-0.0129405092448,-1.69103240967,-0.0341164022684,0.333892822266,0.00957675557584,19.9756584167,94.39382934567,49.56655120853,34.864921569866,785
1.64949821001934E+018,14,1.64949821001934E+018,r1000913c5/base_footprint,0,1.64949821001934E+018,v/m1vw10zy74w/map,-9.46483070193,-0.722607876601,0,0,0,-0.999913413017,0.0131592731245,0,67.8341445923,37.195930481,47.4953041077,95.8138198853,50.9957351685,50.9957351685,67.8341445923,67.8341445923,34.6690406799,0.15444251895,0,1.83293161626E-06,0.270654261112,0.00667196325958,0.0066737961024,-16.4432258606,-0.792341351509,-1.34867858887,-0.0142769971862,-1.4010848999,-0.0282507259399,0.146858215332,0.00421813642606,20.7527046204,94.46514129643,49.5946502686,34.815898895232,815
1.64949821011865E+018,15,1.64949821011865E+018,r1000913c5/base_footprint,0,1.64949821011865E+018,v/m1vw10zy74w/map,-9.46483070193,-0.722607876601,0,0,0,-0.999913413017,0.0131592731245,0,67.8081436157,40.3239555359,47.3847122192,95.8138198853,50.8461608887,50.8461608887,67.8081436157,67.8081436157,33.5217018127,0.221468687057,0,0.000276113249129,0.280886679888,0.0107912486419,0.0105151357129,-19.5712509155,-0.94306987524,-1.34867858887,-0.0142769971862,-1.25151062012,-0.0252347905189,1.29419708252,0.0371725894511,20.7527046204,94.46514129643,49.59465026858,34.81589889522,815
1.64949821021854E+018,16,1.64949821021854E+018,r1000913c5/base_footprint,0,1.64949821021854E+018,v/m1vw10zy74w/map,-9.59940034798,-0.726762217913,0,0,0,-0.999871432179,0.0160349341103,0,68.0863723755,47.6170043945,47.5116195679,96.2274551392,50.8761444092,50.8761444092,68.0863723755,68.0863723755,30.3265285492,0.147643327713,0,0.000356103002559,0.296012431383,0.0151881203055,0.0148320170119,-25.8824310303,-1.19084143639,-1.68041992188,-0.0177733749151,-1.43218994141,-0.0289659257978,4.15537834167,0.120508946478,21.7345733642,94.54703521732,49.44395446779,34.48190689087,926
1.6494982103188E+018,17,1.6494982103188E+018,r1000913c5/base_footprint,0,1.6494982103188E+018,v/m1vw10zy74w/map,-9.59940034798,-0.726762217913,0,0,0,-0.999871432179,0.0160349341103,0,68.3759841919,51.4066505432,47.5939903259,96.2274551392,51.0436019897,51.0436019897,68.3759841919,68.3759841919,26.9220695496,0.203032627702,0,0.000300697982311,0.30394589901,0.0162184368819,0.0159177388996,-29.672077179,-1.36520171165,-1.68041992188,-0.0177733749151,-1.59964752197,-0.0323527418077,7.55983734131,0.219240695238,21.7345733642,94.54703521732,49.44395446773,34.48190689091,926
1.64949821041872E+018,18,1.64949821041872E+018,r1000913c5/base_footprint,0,1.64949821041872E+018,v/m1vw10zy74w/map,-9.7155919297,-0.735838203247,0,0,0,-0.999974089917,0.00719857582199,0,68.778465271,46.3667831421,47.6732597351,96.4327926636,51.1796836853,51.1796836853,68.778465271,68.778465271,21.8862094879,0.193292841315,0,0.000598133250605,0.309870183468,0.0153731545433,0.0147750210017,-23.5607357025,-1.0330915451,-1.6272277832,-0.0171638429165,-2.11667633057,-0.0431420020759,11.6906032562,0.348174899817,22.8060474396,94.8055648804,49.06300735473,33.5768127441,1174
1.64949821051929E+018,19,1.64949821051929E+018,r1000913c5/base_footprint,0,1.64949821051929E+018,v/m1vw10zy74w/map,-9.7155919297,-0.735838203247,0,0,0,-0.999974089917,0.00719857582199,0,68.667678833,46.8409576416,47.7269020081,96.4327926636,51.2957878113,51.2957878113,68.667678833,68.667678833,25.1343307495,0.181431412697,0,0.00127605570015,0.319968819618,0.00320766516961,0.00448372075334,-24.034910202,-1.05388319492,-1.6272277832,-0.0171638429165,-2.23278045654,-0.0455084294081,8.44248199463,0.251437872648,22.8060474396,94.8055648804,49.06300735476,33.57681274413,1174
1.64949821062024E+018,20,1.64949821062024E+018,r1000913c5/base_footprint,0,1.64949821062024E+018,v/m1vw10zy74w/map,-9.83857077523,-0.732984292744,0,0,0,0.999989311102,0.00462360056248,0,68.7908859253,39.9249076843,47.4255371094,96.3087387085,51.2179832458,51.2179832458,68.7908859253,68.7908859253,21.6297645569,0.357603102922,0,0.000986882485449,0.323378413916,0.0100362440571,0.0110231265426,-16.3588752747,-0.694171786308,-1.41192626953,-0.0148785430938,-2.22211074829,-0.0453530177474,11.4419250488,0.345973402262,23.5660324096,94.89681243897,48.99587249751,33.0716896057,1207
1.64949821081856E+018,21,1.64949821081856E+018,r1000913c5/base_footprint,0,1.64949821081856E+018,v/m1vw10zy74w/map,-9.83857077523,-0.732984292744,0,0,0,0.999989311102,0.00462360056248,0,68.4879226685,39.029624939,47.2227516174,96.3087387085,51.2224617004,51.2224617004,68.4879226685,68.4879226685,27.1314525604,0.389560163021,0,0.000860125175677,0.324249148369,0.011661183089,0.0125213079154,-15.4635925293,-0.656181395054,-1.41192626953,-0.0148785430938,-2.22658920288,-0.0454444251955,5.94023704529,0.179616987705,23.5660324097,94.89681243897,48.99587249752,33.07168960569,1207
1.64949821091873E+018,22,1.64949821091873E+018,r1000913c5/base_footprint,0,1.64949821091873E+018,v/m1vw10zy74w/map,-9.83857077523,-0.732984292744,0,0,0,0.999989311102,0.00462360056248,0,68.826133728,37.6646194458,47.0721321106,96.3087387085,51.1196174622,51.1196174622,68.826133728,68.826133728,19.932964325,0.258092135191,0,0.00064253952587,0.327211558819,0.0146647272632,0.0153072662652,-14.0985870361,-0.598258852959,-1.41192626953,-0.0148785430938,-2.1237449646,-0.0433453842998,13.1387252808,0.39728012681,23.5660324097,94.89681243897,48.9958724976,33.0716896058,1207
1.64949821101885E+018,23,1.64949821101885E+018,r1000913c5/base_footprint,0,1.64949821101885E+018,v/m1vw10zy74w/map,-9.9689262807,-0.732714402196,0,0,0,0.999986713427,0.00515489763015,0,68.5343399048,46.0415763855,46.9546470642,96.4275741577,51.1527709961,51.1527709961,68.5343399048,68.5343399048,25.9711074829,0.254199564457,0,0.00041615072405,0.332411944866,0.0157055109739,0.0161216612905,-22.0397090912,-0.9182497859,-1.55184173584,-0.0163565725088,-2.27085113525,-0.0464558489621,6.91059494019,0.21016536653,24.0018672943,94.87573242186,48.88191986085,32.88170242309,1193
1.64949821121852E+018,24,1.64949821121852E+018,r1000913c5/base_footprint,0,1.64949821121852E+018,v/m1vw10zy74w/map,-10.0924685704,-0.734600793915,0,0,0,-0.999982522711,0.00591221383441,0,68.6857299805,51.4472465515,46.9457054138,96.4507217407,51.3843193054,51.3843193054,68.6857299805,68.6857299805,25.8300495148,0.146525368094,0,0.000792129896581,0.384780466557,0.0326480008662,0.0318558700383,-26.7842273712,-1.08600759506,-1.56588745117,-0.0165030322969,-2.49280548096,-0.0509864650667,6.69753837585,0.205903321505,24.6630191803,94.88483428953,48.89151382444,32.52758789065,1199
1.649498211319E+018,25,1.649498211319E+018,r1000913c5/base_footprint,0,1.649498211319E+018,v/m1vw10zy74w/map,-10.0924685704,-0.734600793915,0,0,0,-0.999982522711,0.00591221383441,0,68.7691726685,46.2915611267,47.0844726562,96.4507217407,51.5632781982,51.5632781982,68.7691726685,68.7691726685,26.2608547211,0.268848896027,0,0.00259194313549,0.395138293505,0.0937267094851,0.0911347642541,-21.6285419464,-0.876962482929,-1.56588745117,-0.0165030322969,-2.67176437378,-0.0546467900276,6.26673316956,0.192659020424,24.6630191803,94.88483428953,48.89151382442,32.52758789066,1199
1.64949821141916E+018,26,1.64949821141916E+018,r1000913c5/base_footprint,0,1.64949821141916E+018,v/m1vw10zy74w/map,-10.1350491231,-0.737273858562,0,0,0,-0.998044028818,0.0625149305415,0,68.2702102661,35.674987793,47.2594985962,96.5686798096,51.4357261658,51.4357261658,68.2702102661,68.2702102661,34.2892951965,0.520547151566,0,0.0039443494752,0.388053894043,0.0932985320687,0.0893541797996,-10.9571723938,-0.443290472031,-1.694480896,-0.0178602915257,-2.54186248779,-0.051987349987,-1.69609069824,-0.0520381703973,24.7178153992,94.8741989136,48.89386367801,32.59320449826,1201
1.64949821151897E+018,27,1.64949821151897E+018,r1000913c5/base_footprint,0,1.64949821151897E+018,v/m1vw10zy74w/map,-10.1329006645,-0.739073705572,0,0,0,-0.993224196445,0.116214007749,0,68.8792037964,29.4117641449,47.4528617859,96.4300842285,51.2047462463,51.2047462463,68.8792037964,68.8792037964,20.3338661194,0.371709018946,0,0.00407927529886,0.38205742836,0.0778050273657,0.0737257525325,-4.7487449646,-0.192545160651,-1.54524993896,-0.0162855312228,-2.31323242188,-0.0473135784268,12.1937217712,0.374873220921,24.6630191803,94.88483428954,48.89151382442,32.5275878906,1199
1.64949821161858E+018,28,1.64949821161858E+018,r1000913c5/base_footprint,0,1.64949821161858E+018,v/m1vw10zy74w/map,-10.1329006645,-0.739073705572,0,0,0,-0.993224196445,0.116214007749,0,68.5843276978,31.0039806366,47.714969635,96.4300842285,51.0120925903,51.0120925903,68.5843276978,68.5843276978,23.5610427856,-0.0568842105567,0,0.00381999067031,0.374580800533,0.0651952326298,0.0613752417266,-6.3409614563,-0.25710400939,-1.54524993896,-0.0162855312228,-2.12057876587,-0.0433731451631,8.96654510498,0.275659710169,24.6630191803,94.88483428954,48.89151382443,32.52758789058,1199
1.64949821171854E+018,29,1.64949821171854E+018,r1000913c5/base_footprint,0,1.64949821171854E+018,v/m1vw10zy74w/map,-10.1369574761,-0.739091425518,0,0,0,-0.984169424466,0.177230200436,0,68.3812789917,31.1546840668,47.9053344727,96.4323806763,50.743473053,50.743473053,68.3812789917,68.3812789917,24.3230762482,0.00274063670076,0,0.0040546329692,0.367700994015,0.0548324659467,0.0507778339088,-6.4368686676,-0.260414153337,-1.5581817627,-0.0164236612618,-1.849609375,-0.0378290712833,8.27012825012,0.253737807274,24.7178153992,94.8741989136,48.893863678,32.59320449832,1201
1.64949821181852E+018,30,1.64949821181852E+018,r1000913c5/base_footprint,0,1.64949821181852E+018,v/m1vw10zy74w/map,-10.1353157772,-0.739182475477,0,0,0,-0.971235405609,0.238121370084,0,68.1902542114,31.3009872437,47.9347000122,96.2539825439,50.4749679565,50.4749679565,68.1902542114,68.1902542114,24.2194576263,0.024313159287,0,0.00384791847318,0.357841193676,0.0356830097735,0.031835090369,-6.58317184448,-0.266333073378,-1.37978363037,-0.0145432967693,-1.58110427856,-0.0323374792933,8.37374687195,0.256916970015,24.71781539922,94.87419891353,48.89386367794,32.59320449825,1201
1.64949821191862E+018,31,1.64949821191862E+018,r1000913c5/base_footprint,0,1.64949821191862E+018,v/m1vw10zy74w/map,-10.1329352741,-0.73915718406,0,0,0,-0.95817987233,0.286166616261,0,67.8737106323,33.7690620422,47.9013252258,96.2481689453,50.2719154358,50.2719154358,67.8737106323,67.8737106323,27.7033557892,0.0423420779407,0,0.0037719507236,0.349771291018,0.0287069492042,0.0249349977821,-9.10604286194,-0.369218498468,-1.36333465576,-0.0143683096394,-1.38040161133,-0.0282339714468,4.82423210144,0.148312017322,24.66301918026,94.88483428954,48.89151382447,32.52758789064,1199
1.64949821201897E+018,32,1.64949821201897E+018,r1000913c5/base_footprint,0,1.64949821201897E+018,v/m1vw10zy74w/map,-10.1486752316,-0.742881475644,0,0,0,-0.941371438012,0.337371924877,0,67.6031188965,37.195930481,47.7756881714,96.0707397461,49.8935966492,49.8935966492,67.6031188965,67.6031188965,27.8494033813,0.210533723235,0,0.00393007788807,0.328789263964,0.0235309060663,0.0196008291095,-12.4781150818,-0.504822731018,-1.19654083252,-0.01261186786,-0.999732971191,-0.0204470027238,4.74380111694,0.145545706153,24.7178153992,94.87419891358,48.893863678009,32.59320449824,1201
1.64949821212055E+018,33,1.64949821212055E+018,r1000913c5/base_footprint,0,1.64949821212055E+018,v/m1vw10zy74w/map,-10.1377262484,-0.740726064026,0,0,0,-0.93828265027,0.345869438087,0,67.6377639771,38.5026741028,47.6062583923,96.2155914307,49.7042350769,49.7042350769,67.6377639771,67.6377639771,25.7021484375,0.109863363206,0,0.00405570678413,0.277351379395,0.0172058679163,0.0131501611322,-13.7848587036,-0.557689189911,-1.34139251709,-0.0141386436298,-0.810371398926,-0.0165740922093,6.89105606079,0.211426153779,24.7178153992,94.87419891361,48.893863677974,32.59320449829,1201
1.64949821221945E+018,34,1.64949821221945E+018,r1000913c5/base_footprint,0,1.64949821221945E+018,v/m1vw10zy74w/map,-10.1377262484,-0.740726064026,0,0,0,-0.93828265027,0.345869438087,0,67.7025680542,33.6576728821,47.2853927612,96.2155914307,49.4834365845,49.4834365845,67.7025680542,67.7025680542,22.1510372162,0.323551297188,0,0.00456034531817,0.267610430717,0.0159420687705,0.011381723918,-8.93985748291,-0.361676692963,-1.34139251709,-0.0141386436298,-0.589572906494,-0.0120582189411,10.4421672821,0.320378661156,24.71781539919,94.87419891361,48.893863678006,32.5932044983,1201
1.64949821232042E+018,35,1.64949821232042E+018,r1000913c5/base_footprint,0,1.64949821232042E+018,v/m1vw10zy74w/map,-10.1299155352,-0.730775060437,0,0,0,-0.891182213288,0.453645525404,0,67.1198348999,38.1263618469,46.9782524109,95.7442398071,49.1713905334,49.1713905334,67.1198348999,67.1198348999,27.5732460022,0.23832565546,0,0.00492269219831,0.214295908809,0.00314780371264,0.00807049591094,-13.4633426666,-0.545891940594,-0.859405517578,-0.009057354182,-0.279876708984,-0.00572444358841,4.95434188843,0.152311995625,24.6630191803,94.884834289522,48.891513824416,32.52758789063,1199
1.64949821241861E+018,36,1.64949821241861E+018,r1000913c5/base_footprint,0,1.64949821241861E+018,v/m1vw10zy74w/map,-10.1281635082,-0.729028321236,0,0,0,-0.863426099795,0.504475341511,0,67.039855957,36.7201423645,46.5963249207,95.6223068237,48.8080368042,48.8080368042,67.039855957,67.039855957,24.649723053,0.116237133741,0,0.00483469525352,0.196275517344,0.00833395123482,0.0131686460227,-12.0571231842,-0.488874584436,-0.73747253418,-0.00777229107916,0.0834770202637,0.00170739286114,7.87786483765,0.242190256715,24.6630191803,94.88483428952,48.8915138244637,32.52758789065,1199
1.64949821251935E+018,37,1.64949821251935E+018,r1000913c5/base_footprint,0,1.64949821251935E+018,v/m1vw10zy74w/map,-10.1271099683,-0.730186918559,0,0,0,-0.861441159738,0.507857389736,0,66.8916625977,41.1764717102,46.272895813,96.0066986084,48.7573928833,48.7573928833,66.8916625977,66.8916625977,28.1540222168,0.094197422266,0,0.0047780177556,0.172772720456,0.0187070146203,0.0234850328416,-16.5134525299,-0.669563293457,-1.12186431885,-0.0118234315887,0.134120941162,0.00274323555641,4.37356567383,0.134457111359,24.6630191803,94.88483428955,48.891513824462,32.52758789063,1199
1.64949821261861E+018,38,1.64949821261861E+018,r1000913c5/base_footprint,0,1.64949821261861E+018,v/m1vw10zy74w/map,-10.1249609795,-0.731842607436,0,0,0,-0.833188166983,0.552989582541,0,66.8862075806,38.4191169739,45.9715652466,96.0821914673,48.6816520691,48.6816520691,66.8862075806,66.8862075806,27.7060508728,0.286140680313,0,0.00467038946226,0.161567807198,0.0255987793207,0.03026917018,-13.7560977936,-0.557762145996,-1.19735717773,-0.0126190576702,0.209861755371,0.00429239636287,4.82153701782,0.148229166865,24.6630191803,94.88483428957,48.891513824471,32.52758789062,1199
1.64949821271864E+018,39,1.64949821271864E+018,r1000913c5/base_footprint,0,1.64949821271864E+018,v/m1vw10zy74w/map,-10.1241779573,-0.733851815712,0,0,0,-0.796561515353,0.60455748466,0,66.994720459,38.8235282898,45.7858390808,96.365852356,48.7846870422,48.7846870422,66.994720459,66.994720459,27.8867740631,0.238063976169,0,0.00397079624236,0.145358845592,0.0375198833644,0.0414906814694,-14.1605091095,-0.574159622192,-1.48101806641,-0.0156085854396,0.106826782227,0.00218497589231,4.64081382751,0.142673164606,24.6630191803,94.88483428959,48.891513824427,32.52758789061,1199
1.64949821281846E+018,40,1.64949821281846E+018,r1000913c5/base_footprint,0,1.64949821281846E+018,v/m1vw10zy74w/map,-10.1241779573,-0.733851815712,0,0,0,-0.796561515353,0.60455748466,0,67.3939666748,27.1708679199,45.3051643372,96.365852356,48.7276496887,48.7276496887,67.3939666748,67.3939666748,20.0842571259,0.326967090368,0,0.00393043318763,0.136793702841,0.0455081053078,0.0494385361671,-2.50784873962,-0.101684577763,-1.48101806641,-0.0156085854396,0.163864135742,0.00335158640519,12.4433307648,0.38254699111,24.66301918028,94.88483428959,48.891513824442,32.5275878907,1199
1.64949821291897E+018,41,1.64949821291897E+018,r1000913c5/base_footprint,0,1.64949821291897E+018,v/m1vw10zy74w/map,-10.1204249914,-0.733388437646,0,0,0,-0.762925855478,0.646485992921,0,66.8364028931,27.0072994232,44.9394073486,96.2124023438,48.4782409668,48.4782409668,66.8364028931,66.8364028931,26.874458313,0.438369423151,0,0.00434416765347,0.12292573601,0.0726503357291,0.0769945085049,-2.34428024292,-0.0950524434447,-1.3275680542,-0.0139913614839,0.413272857666,0.00845285505056,5.65312957764,0.173794925213,24.66301918028,94.8848342896,48.891513824466,32.52758789064,1199
1.64949821481871E+018,42,1.64949821481871E+018,r1000913c5/base_footprint,0,1.64949821481871E+018,v/m1vw10zy74w/map,-10.1153894187,-0.734302395533,0,0,0,-0.723847777102,0.689959705769,0,66.6301727295,24.3697471619,44.5873451233,96.3839797974,48.2047042847,48.2047042847,66.6301727295,66.6301727295,28.2499809265,0.247194737196,0,0.00274981861003,0.0580881647766,0.237107947469,0.234358131886,0.293272018433,0.0118911648169,-1.49914550781,-0.015799632296,0.686809539795,0.0140476226807,4.27760696411,0.13150703907,24.663019180333,94.88483428959,48.891513824495,32.52758789061,1199
1.64949821491872E+018,43,1.64949821491872E+018,r1000913c5/base_footprint,0,1.64949821491872E+018,v/m1vw10zy74w/map,-10.1153894187,-0.734302395533,0,0,0,-0.723847777102,0.689959705769,0,66.3345336914,20.1680679321,44.2961845398,96.3839797974,47.6570892334,47.6570892334,66.3345336914,66.3345336914,27.6572608948,0.313010960817,0,0.00477677304298,0.113927446306,0.241628751159,0.236851975322,4.49495124817,0.182254701853,-1.49914550781,-0.015799632296,1.23442459106,0.0252482388169,4.87032699585,0.149729117751,24.66301918027,94.88483428959,48.89151382446,32.52758789065,1199
1.64949821501866E+018,44,1.64949821501866E+018,r1000913c5/base_footprint,0,1.64949821501866E+018,v/m1vw10zy74w/map,-10.1153894187,-0.734302395533,0,0,0,-0.723847777102,0.689959705769,0,65.7600860596,19.6354598999,44.2439079285,96.3839797974,47.0801124573,47.0801124573,65.7600860596,65.7600860596,31.7660179138,0.411039561033,0,0.00448319362476,0.146804049611,0.204664558172,0.200181365013,5.0275592804,0.203850120306,-1.49914550781,-0.015799632296,1.81140136719,0.0370494015515,0.761569976807,0.0234130471945,24.6630191803,94.88483428959,48.89151382449,32.527587890607,1199
1.64949821511867E+018,45,1.64949821511867E+018,r1000913c5/base_footprint,0,1.64949821511867E+018,v/m1vw10zy74w/map,-10.1196320813,-0.870741792471,0,0,0,-0.728057694837,0.685515859035,0,65.9424209595,21.837228775,44.3573303223,96.594329834,46.7022399902,46.7022399902,65.9424209595,65.9424209595,25.1602363586,0.354633867741,0,0.00448728585616,0.144576251507,0.182000085711,0.177512794733,3.10431861877,0.124463751912,-1.6653213501,-0.0175428073853,2.01433944702,0.0413481295109,7.07414245605,0.219459548593,24.94154739377,94.9290084839,48.71657943722,32.23437881465,1214
1.64949821521865E+018,46,1.64949821521865E+018,r1000913c5/base_footprint,0,1.64949821521865E+018,v/m1vw10zy74w/map,-10.1196320813,-0.870741792471,0,0,0,-0.728057694837,0.685515859035,0,65.4439468384,25.6535949707,44.4154472351,96.594329834,46.4479866028,46.4479866028,65.4439468384,65.4439468384,31.3868026733,0.291681438684,0,0.00462709972635,0.138111427426,0.152879789472,0.148252695799,-0.712047576904,-0.0285486523062,-1.6653213501,-0.0175428073853,2.26859283447,0.0465671606362,0.847576141357,0.0262941662222,24.941547393796,94.9290084839,48.71657943727,32.234378814657,1214
1.64949821531912E+018,47,1.64949821531912E+018,r1000913c5/base_footprint,0,1.64949821531912E+018,v/m1vw10zy74w/map,-10.1319412343,-1.01279742478,0,0,0,-0.734294295385,0.678831266048,0,65.697555542,30.9462909698,44.5069847107,96.4932861328,46.3763771057,46.3763771057,65.697555542,65.697555542,25.6847190857,0.378063291311,0,0.00361330038868,0.128355294466,0.121002785861,0.11738948524,-5.29161262512,-0.206263065338,-1.47759246826,-0.0155510362238,2.22275161743,0.045736450702,6.27366256714,0.196307271719,25.65467834468,95.01569366454,48.59912872313,31.95838165284,1089
1.64949821541983E+018,48,1.64949821541983E+018,r1000913c5/base_footprint,0,1.64949821541983E+018,v/m1vw10zy74w/map,-10.1319412343,-1.01279742478,0,0,0,-0.734294295385,0.678831266048,0,65.5217285156,42.0544319153,44.8364448547,96.4932861328,46.5260505676,46.5260505676,65.5217285156,65.5217285156,30.4660453796,0.348749667406,0,0.00358125427738,0.122212745249,0.116592846811,0.113011591136,-16.3997535706,-0.639250040054,-1.47759246826,-0.0155510362238,2.07307815552,0.0426566936076,1.49233627319,0.046696241945,25.6546783447,95.01569366454,48.59912872312,31.95838165279,1089
1.64949821551864E+018,49,1.64949821551864E+018,r1000913c5/base_footprint,0,1.64949821551864E+018,v/m1vw10zy74w/map,-10.1406857742,-1.15099136243,0,0,0,-0.719631383027,0.694356300874,0,65.7776565552,41.1764717102,45.1466827393,96.2509384155,46.6922874451,46.6922874451,65.7776565552,65.7776565552,26.7822284698,0.258387058973,0,0.00370365800336,0.116129398346,0.110622599721,0.106918945909,-14.7586040497,-0.558659911156,-1.10997009277,-0.0116665838286,1.64779281616,0.0340875051916,4.6556186676,0.148089617491,26.4178676605,95.14096832273,48.34008026126,31.4378471374,923
1.64949821561868E+018,50,1.64949821561868E+018,r1000913c5/base_footprint,0,1.64949821561868E+018,v/m1vw10zy74w/map,-10.1406857742,-1.15099136243,0,0,0,-0.719631383027,0.694356300874,0,65.8516159058,39.4463653564,45.3947296143,96.2509384155,46.8539428711,46.8539428711,65.8516159058,65.8516159058,27.1968402863,0.253519684076,0,0.00300222123042,0.10705498606,0.104783691466,0.101781472564,-13.0284976959,-0.493169933558,-1.10997009277,-0.0116665838286,1.48613739014,0.0307433791459,4.2410068512,0.134901314974,26.4178676605,95.14096832273,48.34008026124,31.4378471375,923
1.64949821571877E+018,51,1.64949821571877E+018,r1000913c5/base_footprint,0,1.64949821571877E+018,v/m1vw10zy74w/map,-10.146004422,-1.28181722065,0,0,0,-0.708650216552,0.705559969514,0,65.9928436279,42.9065742493,45.5446853638,95.6120758057,47.0383987427,47.0383987427,65.9928436279,65.9928436279,24.3470039368,0.302914887667,0,0.00288460240699,0.100982092321,0.102931365371,0.100046761334,-12.2180557251,-0.398131161928,0.238418579102,0.00248740054667,0.00182723999023,3.88442022086E-05,3.91616439819,0.138560697436,30.6885185242,95.850494384802,47.0402259826902,28.26316833499,327
1.64949821581848E+018,52,1.64949821581848E+018,r1000913c5/base_footprint,0,1.64949821581848E+018,v/m1vw10zy74w/map,-10.146004422,-1.28181722065,0,0,0,-0.708650216552,0.705559969514,0,66.1681365967,41.1764717102,45.5554351807,95.6120758057,47.2117652893,47.2117652893,66.1681365967,66.1681365967,23.0640449524,0.228024452925,0,0.00285836285912,0.0952966809273,0.0907964259386,0.0879380628467,-10.487953186,-0.341754943132,0.238418579102,0.00248740054667,-0.171539306641,-0.00364665151574,5.19912338257,0.183954015374,30.6885185242,95.850494384802,47.040225982659,28.26316833497,327
1.64949821591845E+018,53,1.64949821591845E+018,r1000913c5/base_footprint,0,1.64949821591846E+018,v/m1vw10zy74w/map,-10.1444791331,-1.39712555561,0,0,0,-0.705220948858,0.708987597418,0,66.1169662476,39.4205436707,45.48960495,95.6734390259,47.3585014343,47.3585014343,66.1169662476,66.1169662476,25.7907543182,0.230182886124,0,0.0025612025056,0.0891904905438,0.0773595348001,0.0747983306646,-8.27237319946,-0.265581339598,0.15788269043,0.00164750614204,-0.410980224609,-0.00875403452665,2.24157905579,0.0799640566111,31.14817047124,95.83132171633,46.947521209691,28.03233337399,322
1.64949821601848E+018,54,1.64949821601848E+018,r1000913c5/base_footprint,0,1.64949821601848E+018,v/m1vw10zy74w/map,-10.1444791331,-1.39712555561,0,0,0,-0.705220948858,0.708987597418,0,66.4973297119,40.7341880798,45.139415741,95.6734390259,47.6624984741,47.6624984741,66.4973297119,66.4973297119,22.2274627686,0.300278484821,0,0.00243132864125,0.0829088389874,0.0287678446621,0.0263365153223,-9.58601760864,-0.307755410671,0.15788269043,0.00164750614204,-0.714977264404,-0.015229286626,5.80487060547,0.207077682018,31.14817047116,95.83132171633,46.947521209696,28.03233337407,322
1.64949821851917E+018,55,1.64949821851917E+018,r1000913c5/base_footprint,0,1.64949821851917E+018,v/m1vw10zy74w/map,-10.126104898,-2.17461018148,0,0,0,-0.699363435701,0.714766244869,0,66.3224258423,46.5240631104,44.8023223877,95.2011642456,47.9038238525,47.9038238525,66.3224258423,66.3224258423,26.2818431854,0.279089272022,0,0.000612456758972,0.034532982856,0.00104312272742,0.0016555795446,-20.1471424103,-0.763817071915,0.766967773438,0.00799190066755,-1.42231750488,-0.030599642545,0.767549514771,0.0283758509904,26.3769207001,95.968132019038,46.48150634762,27.049392700171,232
1.64949822141868E+018,56,1.64949822141868E+018,r1000913c5/base_footprint,0,1.64949822141868E+018,v/m1vw10zy74w/map,-10.1221486026,-2.40416265406,0,0,0,-0.705575540708,0.708634712919,0,66.3896713257,22.1095333099,43.8732147217,95.9202270508,47.6293029785,47.6293029785,66.3896713257,66.3896713257,24.6951580048,1.4650901556,0,0.000628036097623,0.0891995728016,0.0465213507414,0.0471493862569,2.47334098816,0.100612357259,0.0717391967773,0.000747345853597,-1.28248596191,-0.0276715010405,2.34641838074,0.0867707654834,24.58287429806,95.9919662475773,46.34681701659,27.04157638554,183
1.64949822151857E+018,57,1.64949822151857E+018,r1000913c5/base_footprint,0,1.64949822151857E+018,v/m1vw10zy74w/map,-10.1221486026,-2.40416265406,0,0,0,-0.705575540708,0.708634712919,0,65.46925354,16.0899658203,42.9846420288,95.9202270508,47.1178436279,47.1178436279,65.46925354,65.46925354,35.7390060425,1.58586132526,0,0.000631888164207,0.139155492187,0.046545393765,0.047177284956,8.49290847778,0.345480680466,0.0717391967773,0.000747345853597,-0.771026611328,-0.0166360214353,-8.69742965698,-0.321631759405,24.58287429808,95.9919662475773,46.346817016572,27.04157638552,183
1.64949822161854E+018,58,1.64949822161854E+018,r1000913c5/base_footprint,0,1.64949822161854E+018,v/m1vw10zy74w/map,-10.1221486026,-2.40416265406,0,0,0,-0.705575540708,0.708634712919,0,65.8569335938,15.6010227203,42.3902320862,95.9202270508,46.5488128662,46.5488128662,65.8569335938,65.8569335938,22.615146637,1.50806224346,0,0.00117046793457,0.196668639779,0.0514287352562,0.0525992028415,8.98185157776,0.36537027359,0.0717391967773,0.000747345853597,-0.201995849609,-0.00435835449025,4.42642974854,0.163689777255,24.58287429806,95.9919662475773,46.346817016591,27.04157638554,183
1.6494982217191E+018,59,1.6494982217191E+018,r1000913c5/base_footprint,0,1.6494982217191E+018,v/m1vw10zy74w/map,-10.1221486026,-2.40416265406,0,0,0,-0.705575540708,0.708634712919,0,65.3276443481,16.806722641,42.0158538818,95.9202270508,46.3189315796,46.3189315796,65.3276443481,65.3276443481,29.6597213745,1.48868620396,0,0.00251463451423,0.203885540366,0.0721195563674,0.0746341943741,7.7761516571,0.316323935986,0.0717391967773,0.000747345853597,0.0278854370117,0.000601668842137,-2.61814498901,-0.0968192443252,24.5828742981,95.9919662475773,46.3468170166117,27.04157638549,183
1.64949822181953E+018,60,1.64949822181953E+018,r1000913c5/base_footprint,0,1.64949822181953E+018,v/m1vw10zy74w/map,-10.1191725025,-2.28859354661,0,0,0,-0.714304005163,0.699835543688,0,65.0822525024,19.1676673889,41.8426361084,96.1704177856,46.1734352112,46.1734352112,65.0822525024,65.0822525024,33.4061050415,1.38700973988,0,0.00175946753006,0.193644657731,0.0765502527356,0.0783097147942,6.10211181641,0.241478636861,-0.180099487305,-0.0018762255786,0.218341827393,0.00470647681504,-6.51734924316,-0.242381960154,25.26977920531,95.990318298295,46.391777038593,26.88875579834,204
1.64949822191875E+018,61,1.64949822191875E+018,r1000913c5/base_footprint,0,1.64949822191875E+018,v/m1vw10zy74w/map,-10.1191725025,-2.28859354661,0,0,0,-0.714304005163,0.699835543688,0,65.0211639404,17.5670261383,41.6789169312,96.1704177856,46.1309204102,46.1309204102,65.0211639404,65.0211639404,34.0465621948,1.27267992496,0,0.00184962083586,0.181021913886,0.0690023526549,0.0708519741893,7.70275306702,0.304820746183,-0.180099487305,-0.0018762255786,0.260856628418,0.00562290661037,-7.15780639648,-0.266200721264,25.26977920532,95.990318298295,46.391777038618,26.88875579832,204
1.6494982220186E+018,62,1.6494982220186E+018,r1000913c5/base_footprint,0,1.6494982220186E+018,v/m1vw10zy74w/map,-10.1251424316,-2.18194327678,0,0,0,-0.711759260699,0.7024234868,0,65.3320922852,19.7138309479,41.6100769043,96.4439849854,46.0340461731,46.0340461731,65.3320922852,65.3320922852,28.3883876801,1.27896893024,0,0.000453650776763,0.171723350883,0.0664769113064,0.0669305622578,6.6630897522,0.252610594034,-0.475852966309,-0.00495844753459,0.447460174561,0.00962662789971,-1.33899497986,-0.0495018512011,26.3769207001,95.968132019091,46.481506347661,27.04939270024,232
1.64949822211872E+018,63,1.64949822211872E+018,r1000913c5/base_footprint,0,1.64949822211872E+018,v/m1vw10zy74w/map,-10.1241612432,-2.06846262512,0,0,0,-0.71069819617,0.703497031949,0,64.9441223145,17.4836597443,41.8437156677,96.127281189,46.0132789612,46.0132789612,64.9441223145,64.9441223145,34.0074501038,1.23410868645,0,0.000851612479892,0.144716143608,0.046664327383,0.0475159399211,9.86637115479,0.360744416714,-0.184509277344,-0.00192311801948,0.520919799805,0.0111943436787,-6.7642288208,-0.248290345073,27.35003089909,95.942771911656,46.534198761005,27.243221283,276
1.64949822221854E+018,64,1.64949822221854E+018,r1000913c5/base_footprint,0,1.64949822221854E+018,v/m1vw10zy74w/map,-10.123309336,-2.04715963552,0,0,0,-0.710124352458,0.704076277151,0,65.2972793579,16.906621933,42.1427688599,96.2744369507,46.1448173523,46.1448173523,65.2972793579,65.2972793579,29.6009197235,1.29857301712,0,0.00216696457937,0.114744521677,0.0327484719455,0.0349154397845,10.7271213531,0.388189226389,-0.334259033203,-0.00348403607495,0.445503234863,0.00956214126199,-2.30602645874,-0.0844856351614,27.6337432861,95.940177917497,46.590320587163,27.29489326476,285
1.64949822231863E+018,65,1.64949822231863E+018,r1000913c5/base_footprint,0,1.64949822231863E+018,v/m1vw10zy74w/map,-10.123309336,-2.04715963552,0,0,0,-0.710124352458,0.704076277151,0,65.1732406616,18.7473545074,42.6778717041,96.2744369507,46.2512016296,46.2512016296,65.1732406616,65.1732406616,32.9825973511,1.2917766571,0,0.00183654809371,0.109094619751,0.0309502277523,0.0327867753804,8.88638877869,0.321577459574,-0.334259033203,-0.00348403607495,0.33911895752,0.00727874273434,-5.6877040863,-0.208379790187,27.63374328609,95.940177917497,46.59032058712,27.2948932648,285
1.64949822241859E+018,66,1.64949822241859E+018,r1000913c5/base_footprint,0,1.64949822241859E+018,v/m1vw10zy74w/map,-10.1237865981,-1.93562435338,0,0,0,-0.710427843511,0.703770047078,0,65.4306411743,17.9009742737,43.5093650818,96.1003570557,46.4009017944,46.4009017944,65.4306411743,65.4306411743,29.3394412994,1.2535957098,0,0.00164236500859,0.09938159585,0.0257830489427,0.0274254139513,10.7958126068,0.376202821732,-0.191184997559,-0.00199339631945,0.188777923584,0.00405192561448,-2.06151580811,-0.0755745097995,28.6967868805,95.909172058141,46.589679717984,27.27792549129,310
1.64949822251905E+018,67,1.64949822251905E+018,r1000913c5/base_footprint,0,1.64949822251905E+018,v/m1vw10zy74w/map,-10.1237865981,-1.93562435338,0,0,0,-0.710427843511,0.703770047078,0,65.4717559814,22.4400863647,44.522277832,96.1003570557,46.5571060181,46.5571060181,65.4717559814,65.4717559814,30.2863712311,1.11348462105,0,0.00135512812994,0.0890166908503,0.0211191922426,0.0224743206054,6.25670051575,0.21802790463,-0.191184997559,-0.00199339631945,0.0325736999512,0.000699161260854,-3.00844573975,-0.110288657248,28.69678688045,95.909172058141,46.5896797180512,27.27792549135,310
1.64949822261932E+018,68,1.64949822261932E+018,r1000913c5/base_footprint,0,1.64949822261932E+018,v/m1vw10zy74w/map,-10.1233627919,-1.79869043141,0,0,0,-0.710258874573,0.703940573551,0,65.7662124634,28.8849868774,45.0535392761,96.4910583496,46.7655754089,46.7655754089,65.7662124634,65.7662124634,28.644203186,1.09095346928,0,0.00130075146444,0.0781684145331,0.0171224474907,0.0184231996536,1.90897369385,0.0619918219745,-0.587394714355,-0.00612484104931,0.00136947631836,2.9282997275E-05,-1.12260627747,-0.0407900139689,30.79396057125,95.903663635245,46.7669448852184,27.52159690853,311
1.64949822271877E+018,69,1.64949822271877E+018,r1000913c5/base_footprint,0,1.64949822271877E+018,v/m1vw10zy74w/map,-10.1233627919,-1.79869043141,0,0,0,-0.710258874573,0.703940573551,0,65.900390625,28.0070228577,45.690952301,96.4910583496,47.037525177,47.037525177,65.900390625,65.900390625,29.1660194397,0.979310750961,0,0.000872071774211,0.0677702650428,0.0153416665271,0.0162137392908,2.78693771362,0.0905027389526,-0.587394714355,-0.00612484104931,-0.270580291748,-0.00578571669757,-1.64442253113,-0.0597502589226,30.79396057132,95.903663635245,46.766944885252,27.52159690857,311
1.64949822281866E+018,70,1.64949822281866E+018,r1000913c5/base_footprint,0,1.64949822281866E+018,v/m1vw10zy74w/map,-10.1209415124,-1.68851306859,0,0,0,-0.710244511438,0.703955065307,0,65.9602050781,31.372549057,46.2801856995,96.2131500244,47.2118034363,47.2118034363,65.9602050781,65.9602050781,28.9710788727,0.967957854271,0,0.00098799681291,0.0633764341474,0.0158490687609,0.0168370641768,0.301963806152,0.00953333731741,-0.338714599609,-0.00353289791383,-0.299236297607,-0.00637859571725,-1.45861625671,-0.0530165657401,31.674512863152,95.874435424791,46.912567138693,27.51246261599,316
1.64949822291881E+018,71,1.64949822291881E+018,r1000913c5/base_footprint,0,1.64949822291881E+018,v/m1vw10zy74w/map,-10.1208105192,-1.68930394075,0,0,0,-0.712116566757,0.702061247578,0,66.1533889771,33.6576728821,46.7755126953,96.3000259399,47.4409980774,47.4409980774,66.1533889771,66.1533889771,28.2818641663,1.02677929401,0,0.000956622709054,0.0542506575584,0.0158804431558,0.0168370641768,-1.98316001892,-0.0626105889678,-0.425590515137,-0.00443904055282,-0.528430938721,-0.0112641658634,-0.769401550293,-0.0279655642807,31.67451286318,95.874435424763,46.912567138679,27.512462616007,316
1.64949822301878E+018,72,1.64949822301878E+018,r1000913c5/base_footprint,0,1.64949822301878E+018,v/m1vw10zy74w/map,-10.1164463638,-1.55726133421,0,0,0,-0.711921186785,0.70225937075,0,66.569732666,35.8288764954,47.204372406,96.2592926025,47.6696243286,47.6696243286,66.569732666,66.569732666,23.1101779938,0.866504609585,0,0.00101981603075,0.0480133444071,0.0161094479263,0.0171292629093,-4.13373374939,-0.130421683192,-0.391410827637,-0.00408281479031,-0.741134643555,-0.015792850405,4.43991661072,0.161157950759,31.69514274601,95.867881774863,46.928489685045,27.55009460452,315
1.64949822311861E+018,73,1.64949822311861E+018,r1000913c5/base_footprint,0,1.64949822311861E+018,v/m1vw10zy74w/map,-10.1164463638,-1.55726133421,0,0,0,-0.711921186785,0.70225937075,0,66.5411682129,32.1266975403,47.5176620483,96.2592926025,47.8311233521,47.8311233521,66.5411682129,66.5411682129,25.3685588837,0.893579542637,0,0.0011809526477,0.0420687869191,0.0164166800678,0.0175976324826,-0.431554794312,-0.0136158019304,-0.391410827637,-0.00408281479031,-0.902633666992,-0.0192342363298,2.18153572083,0.0791843309999,31.695142745988,95.867881774863,46.928489685108,27.55009460453,315
1.6494982232187E+018,74,1.6494982232187E+018,r1000913c5/base_footprint,0,1.6494982232187E+018,v/m1vw10zy74w/map,-10.1164463638,-1.55726133421,0,0,0,-0.711921186785,0.70225937075,0,66.5103988647,31.985294342,47.6942024231,96.2592926025,47.9605140686,47.9605140686,66.5103988647,66.5103988647,27.3197784424,0.901771664619,0,0.00110983906779,0.0371628291905,0.0161577742547,0.0172676127404,-0.290151596069,-0.00915445014834,-0.391410827637,-0.00408281479031,-1.03202438354,-0.0219914261252,0.230316162109,0.008359904401,31.695142745931,95.867881774863,46.92848968506,27.550094604509,315
1.6494982233191E+018,75,1.6494982233191E+018,r1000913c5/base_footprint,0,1.6494982233191E+018,v/m1vw10zy74w/map,-10.1178692217,-1.44896419016,0,0,0,-0.711511317195,0.702674637015,0,66.5079345703,33.706817627,47.9092063904,96.3160247803,48.0700149536,48.0700149536,66.5079345703,66.5079345703,28.7510471344,0.81532895565,0,0.00108230358455,0.0326302498579,0.0161853097379,0.0172676127404,-2.38701820374,-0.07621435076,-0.466209411621,-0.00486395740882,-1.13761901855,-0.0242395251989,-0.929077148438,-0.033393651247,31.31979942326,95.849815368679,46.93239593505,27.821969985962,318
1.64949822341913E+018,76,1.64949822341913E+018,r1000913c5/base_footprint,0,1.64949822341913E+018,v/m1vw10zy74w/map,-10.1178692217,-1.44896419016,0,0,0,-0.711511317195,0.702674637015,0,66.5977020264,34.2288093567,48.0272674561,96.3160247803,48.1567153931,48.1567153931,66.5977020264,66.5977020264,28.0715789795,0.723381400108,0,0.00108823657501,0.0251520443708,0.0161793772131,0.0172676127404,-2.90900993347,-0.092880859971,-0.466209411621,-0.00486395740882,-1.22431945801,-0.0260868724436,-0.24960899353,-0.0089716501534,31.31979942323,95.849815368679,46.93239593509,27.82196998597,318
1.64949822351861E+018,77,1.64949822351861E+018,r1000913c5/base_footprint,0,1.64949822351861E+018,v/m1vw10zy74w/map,-10.1104714257,-1.31336343382,0,0,0,-0.711610344545,0.702574350184,0,66.5924530029,36.5808830261,48.1063537598,96.3068313599,48.2824516296,48.2824516296,66.5924530029,66.5924530029,29.4908809662,0.67963296175,0,0.000867274648044,0.0175914298743,0.0164003390819,0.0172676127404,-5.99077606201,-0.195840314031,-0.467811584473,-0.00488122273237,-1.25399780273,-0.0266646612436,-1.27446746826,-0.0451675914228,30.59010696409,95.839019775427,47.02845382687,28.21641349794,327
1.64949822361861E+018,78,1.64949822361861E+018,r1000913c5/base_footprint,0,1.64949822361861E+018,v/m1vw10zy74w/map,-10.1104714257,-1.31336343382,0,0,0,-0.711610344545,0.702574350184,0,66.5102233887,36.6515846252,50.1764450073,96.3068313599,48.3218994141,48.3218994141,66.5102233887,66.5102233887,31.3970966339,0.620032429695,0,0.000833746104036,0.011204813607,0.0164338666946,0.0172676127404,-6.06147766113,-0.198151573539,-0.467811584473,-0.00488122273237,-1.29344558716,-0.0275034680963,-3.18068313599,-0.11272457242,30.59010696407,95.839019775427,47.02845382694,28.21641349791,327
1.64949822371853E+018,79,1.64949822371853E+018,r1000913c5/base_footprint,0,1.64949822371853E+018,v/m1vw10zy74w/map,-10.1099242191,-1.20407621583,0,0,0,-0.713138575867,0.701023089214,0,66.4005126953,29.9506053925,55.3645935059,96.2274475098,48.0713882446,48.0713882446,66.4005126953,66.4005126953,30.3806056976,0.716173350811,0,0.000816319545265,0.000435951165855,0.0164512936026,0.0172676127404,-2.6257686615,-0.0960945785046,-0.993545532227,-0.010432687588,0.0954513549805,0.00198168191127,0.434461593628,0.0140989990905,27.324836731,95.233901977573,48.1668395995805,30.815067291228,752
1.64949822381864E+018,80,1.64949822381864E+018,r1000913c5/base_footprint,0,1.64949822381864E+018,v/m1vw10zy74w/map,-10.1099242191,-1.20407621583,0,0,0,-0.713138575867,0.701023089214,0,66.233543396,29.9506053925,61.5176734924,96.2274475098,47.8993644714,47.8993644714,66.233543396,66.233543396,31.5281181335,0.743492007256,0,0.000810953730252,0.0136692039669,0.0164566598833,0.0172676127404,-2.6257686615,-0.0960945785046,-0.993545532227,-0.010432687588,0.267475128174,0.00555309699848,-0.713050842285,-0.0231396816671,27.324836731,95.233901977573,48.166839599574,30.815067291215,752
1.64949822391865E+018,81,1.64949822391865E+018,r1000913c5/base_footprint,0,1.64949822391865E+018,v/m1vw10zy74w/map,-10.1099242191,-1.20407621583,0,0,0,-0.713138575867,0.701023089214,0,66.5342712402,31.372549057,68.7721939087,96.2274475098,47.7450332642,47.7450332642,66.5342712402,66.5342712402,24.4483242035,0.677021205425,0,0.000816705112811,0.0409314446151,0.016450908035,0.0172676127404,-4.04771232605,-0.148133084178,-0.993545532227,-0.010432687588,0.421806335449,0.00875719357282,6.36674308777,0.20661136508,27.32483673095,95.233901977573,48.166839599649,30.81506729127,752
1.64949822401866E+018,82,1.64949822401866E+018,r1000913c5/base_footprint,0,1.64949822401866E+018,v/m1vw10zy74w/map,-10.1099242191,-1.20407621583,0,0,0,-0.713138575867,0.701023089214,0,66.2343597412,35.8288764954,76.6917114258,96.2274475098,47.6629524231,47.6629524231,66.2343597412,66.2343597412,28.9602184296,0.664273679256,0,0.000714658701327,0.0799328386784,0.0171977691352,0.0179124288261,-8.5040397644,-0.311220139265,-0.993545532227,-0.010432687588,0.503887176514,0.010461287573,1.85484886169,0.0601929202676,27.324836731,95.233901977573,48.166839599614,30.81506729129,752
1.64949822411869E+018,83,1.64949822411869E+018,r1000913c5/base_footprint,0,1.64949822411869E+018,v/m1vw10zy74w/map,-10.1042808433,-1.06588151499,0,0,0,-0.713182863323,0.700978033509,0,65.837852478,34.1527671814,80.3931350708,96.3440170288,47.5033760071,47.5033760071,65.837852478,65.837852478,34.7935829163,0.543001592159,0,0.000708978099283,0.111319608986,0.018009474501,0.0187184512615,-8.23218727112,-0.317592710257,-1.26454925537,-0.0132999196649,0.981647491455,0.0202464070171,-3.02834320068,-0.0953351259232,25.92057991028,95.07946777343,48.485023498555,31.76523971562,1018
1.64949822422003E+018,84,1.64949822422003E+018,r1000913c5/base_footprint,0,1.64949822422003E+018,v/m1vw10zy74w/map,-10.1042808433,-1.06588151499,0,0,0,-0.713182863323,0.700978033509,0,65.9645996094,34.9376106262,80.6412353516,96.3440170288,47.3234901428,47.3234901428,65.9645996094,65.9645996094,30.5693225861,0.69158667326,0,1.73586147412E-06,0.139230072498,0.00871513225138,0.0087133962661,-9.01703071594,-0.347871482372,-1.26454925537,-0.0132999196649,1.16153335571,0.0239565391093,1.19591712952,0.0376486107707,25.92057991026,95.07946777343,48.48502349851,31.76523971562,1018
1.64949822431854E+018,85,1.64949822431854E+018,r1000913c5/base_footprint,0,1.64949822431854E+018,v/m1vw10zy74w/map,-10.1042808433,-1.06588151499,0,0,0,-0.713182863323,0.700978033509,0,65.4870986938,35.0307273865,79.8296813965,96.3440170288,47.200843811,47.200843811,65.4870986938,65.4870986938,37.8398513794,0.489241957664,0,0.000741439464036,0.148074701428,0.00071086443495,3.05750072584E-05,-9.1101474762,-0.351463884115,-1.26454925537,-0.0132999196649,1.2841796875,0.0264861099422,-6.07461166382,-0.191234558821,25.9205799103,95.07946777343,48.4850234985,31.76523971558,1018
1.64949822441833E+018,86,1.64949822441833E+018,r1000913c5/base_footprint,0,1.64949822441833E+018,v/m1vw10zy74w/map,-10.1105065447,-0.951279795747,0,0,0,-0.712888607143,0.701277287387,0,65.6586151123,28.3502883911,79.1356811523,96.4440078735,47.0191040039,47.0191040039,65.6586151123,65.6586151123,33.1496047974,0.572721242905,0,0.000511044287123,0.156118676066,0.0139476265758,0.0144586712122,-3.12177848816,-0.123740106821,-1.48040008545,-0.0155891310424,1.70476913452,0.034988373518,-1.08514785767,-0.0338427014649,25.22850990294,94.96360778805,48.72387313842,32.06445693973,1179
1.64949822451861E+018,87,1.64949822451861E+018,r1000913c5/base_footprint,0,1.64949822451861E+018,v/m1vw10zy74w/map,-10.1105065447,-0.951279795747,0,0,0,-0.712888607143,0.701277287387,0,65.8383102417,27.6688461304,78.6506576538,96.4440078735,46.8542327881,46.8542327881,65.8383102417,65.8383102417,28.134552002,0.46088540554,0,0.00013070658315,0.155644968152,0.0118445493281,0.0117138428614,-2.44033622742,-0.0967293083668,-1.48040008545,-0.0155891310424,1.86964035034,0.0383721627295,3.92990493774,0.122562654316,25.22850990298,94.96360778805,48.72387313844,32.06445693974,1179
1.64949822461868E+018,88,1.64949822461868E+018,r1000913c5/base_footprint,0,1.64949822461868E+018,v/m1vw10zy74w/map,-10.1066711457,-0.830169156474,0,0,0,-0.713215545709,0.700944780535,0,65.4800338745,26.1485614777,77.7854537964,96.5156173706,46.7242851257,46.7242851257,65.4800338745,65.4800338745,33.4378356934,0.486082881689,0,5.21879228472E-05,0.154799804091,0.00865223072469,0.0086000431329,-1.32819366455,-0.0535122491419,-1.60943603516,-0.0169581789523,2.06405639648,0.0423063449562,-1.1064414978,-0.0342218913138,24.82036781315,94.90618133544,48.78834152218,32.3313941956,1215
1.64949822471838E+018,89,1.64949822471838E+018,r1000913c5/base_footprint,0,1.64949822471838E+018,v/m1vw10zy74w/map,-10.1066711457,-0.830169156474,0,0,0,-0.713215545709,0.700944780535,0,65.692855835,25.518409729,77.7540359497,96.5156173706,46.6101264954,46.6101264954,65.692855835,65.692855835,28.3741397858,0.707452833652,0,0.000215998647036,0.152546808124,0.00138854142278,0.00117254280485,-0.698041915894,-0.0281237531453,-1.60943603516,-0.0169581789523,2.17821502686,0.0446462184191,3.95725440979,0.122396655381,24.820367813106,94.90618133544,48.78834152226,32.33139419559,1215
1.64949822481884E+018,90,1.64949822481884E+018,r1000913c5/base_footprint,0,1.64949822481884E+018,v/m1vw10zy74w/map,-10.1063304665,-0.715624194578,0,0,0,-0.711611586261,0.702573092496,0,65.361869812,33.5038375854,78.0592346191,96.3756866455,46.5831718445,46.5831718445,65.361869812,65.361869812,33.537147522,0.427361488342,0,9.54489223659E-06,0.151934400201,0.00153225159738,0.00152270670515,-8.84081840515,-0.358464568853,-1.49085235596,-0.015712229535,2.30834197998,0.047213550657,-1.00955963135,-0.0310370270163,24.66301918025,94.88483428954,48.89151382448,32.52758789065,1199
1.64949822491904E+018,91,1.64949822491904E+018,r1000913c5/base_footprint,0,1.64949822491904E+018,v/m1vw10zy74w/map,-10.1063304665,-0.715624194578,0,0,0,-0.711611586261,0.702573092496,0,65.7275619507,25.2898235321,77.2453308105,96.3756866455,46.6467552185,46.6467552185,65.7275619507,65.7275619507,27.6413097382,0.638024389744,0,5.52354867978E-05,0.151720359921,0.000936165219173,0.000991400680505,-0.626804351807,-0.0254147462547,-1.49085235596,-0.015712229535,2.24475860596,0.0459130518138,4.88627815247,0.150219500065,24.663019180293,94.88483428954,48.89151382446,32.52758789067,1199
1.6494982250197E+018,92,1.6494982250197E+018,r1000913c5/base_footprint,0,1.6494982250197E+018,v/m1vw10zy74w/map,-10.1063304665,-0.715624194578,0,0,0,-0.711611586261,0.702573092496,0,65.8468170166,34.2560539246,78.3751602173,96.3756866455,46.7894325256,46.7894325256,65.8468170166,65.8468170166,27.0357151031,0.519399225712,0,0.000255479622865,0.15180131793,7.54968059482E-05,0.000179982816917,-9.59303474426,-0.38896432519,-1.49085235596,-0.015712229535,2.10208129883,0.0429948084056,5.49187278748,0.168837383389,24.66301918034,94.88483428954,48.89151382443,32.52758789058,1199
1.64949822511866E+018,93,1.64949822511866E+018,r1000913c5/base_footprint,0,1.64949822511866E+018,v/m1vw10zy74w/map,-10.1063304665,-0.715624194578,0,0,0,-0.711611586261,0.702573092496,0,65.6720046997,34.8286094666,76.8304672241,96.3756866455,46.9126472473,46.9126472473,65.6720046997,65.6720046997,31.513053894,0.424413084984,0,7.3577160947E-05,0.151254788041,0.000479415146401,0.000405837985454,-10.1655902863,-0.412179470062,-1.49085235596,-0.015712229535,1.97886657715,0.0404746420681,1.01453399658,0.0311899539083,24.6630191803,94.88483428954,48.89151382445,32.52758789058,1199
1.64949822521858E+018,94,1.64949822521858E+018,r1000913c5/base_footprint,0,1.64949822521858E+018,v/m1vw10zy74w/map,-10.1040590583,-0.587874285479,0,0,0,-0.710657348144,0.703538295709,0,65.6814880371,40.7592811584,75.5945205688,96.1273651123,47.2022323608,47.2022323608,65.6814880371,65.6814880371,33.5757675171,0.134175911546,0,0.000142502831295,0.151215046644,0.000548340787645,0.000405837985454,-16.4244403839,-0.674935162067,-1.28833770752,-0.0135844675824,1.73320007324,0.0354181006551,-0.853610992432,-0.0260866358876,24.3348407745,94.83902740478,48.93543243404,32.722156524668,1120
1.64949822531871E+018,95,1.64949822531871E+018,r1000913c5/base_footprint,0,1.64949822531871E+018,v/m1vw10zy74w/map,-10.1040590583,-0.587874285479,0,0,0,-0.710657348144,0.703538295709,0,66.1006011963,34.8286094666,75.2811813354,96.1273651123,47.4302101135,47.4302101135,66.1006011963,66.1006011963,28.4939365387,0.459634035826,0,0.000224658389925,0.151632130146,8.03997827461E-05,0.000305058172671,-10.493768692,-0.431224048138,-1.28833770752,-0.0135844675824,1.50522232056,0.0307593550533,4.22821998596,0.129215806723,24.3348407746,94.83902740478,48.93543243406,32.72215652466,1120
1.64949822641857E+018,96,1.64949822641857E+018,r1000913c5/base_footprint,0,1.64949822641858E+018,v/m1vw10zy74w/map,-10.1010639672,-0.459572055792,0,0,0,-0.710764973953,0.703429564208,0,66.165435791,34.7359390259,74.439491272,96.009475708,47.5579948425,47.5579948425,66.165435791,66.165435791,28.2825603485,0.332190841436,0,0.001656245091,0.205698549747,0.0319396033883,0.0302833598107,-10.2426376343,-0.418181180954,-1.14786529541,-0.0121004199609,1.41563415527,0.0289060492069,4.40244483948,0.134693101048,24.4933013916,94.86161041259,48.97362899777,32.68500518798,1025
1.64949822651882E+018,97,1.64949822651882E+018,r1000913c5/base_footprint,0,1.64949822651882E+018,v/m1vw10zy74w/map,-10.1010639672,-0.459572055792,0,0,0,-0.710764973953,0.703429564208,0,65.7409667969,31.7467441559,72.7855606079,96.009475708,47.5044822693,47.5044822693,65.7409667969,65.7409667969,35.3450813293,0.461233824492,0,0.00222869729623,0.203829452395,0.0434023402631,0.0411736443639,-7.25344276428,-0.296139866114,-1.14786529541,-0.0121004199609,1.46914672852,0.0299987308681,-2.66007614136,-0.081385217607,24.49330139162,94.86161041259,48.97362899782,32.68500518794,1025
1.64949822662006E+018,98,1.64949822662006E+018,r1000913c5/base_footprint,0,1.64949822662006E+018,v/m1vw10zy74w/map,-10.1010639672,-0.459572055792,0,0,0,-0.710764973953,0.703429564208,0,66.1034698486,31.4430809021,72.397567749,96.009475708,47.5705833435,47.5705833435,66.1034698486,66.1034698486,29.5339889526,0.265058755875,0,0.00261291023344,0.202995300293,0.0475656986237,0.0449527911842,-6.9497795105,-0.283742040396,-1.14786529541,-0.0121004199609,1.4030456543,0.0286490023136,3.15101623535,0.0964055582881,24.4933013916,94.86161041259,48.9736289978,32.68500518795,1025
1.64949822671869E+018,99,1.64949822671869E+018,r1000913c5/base_footprint,0,1.64949822671869E+018,v/m1vw10zy74w/map,-10.1010639672,-0.459572055792,0,0,0,-0.710764973953,0.703429564208,0,66.1729888916,24.0717563629,71.0895690918,96.009475708,47.4738082886,47.4738082886,66.1729888916,66.1729888916,27.2374668121,0.454928547144,0,0.00329818064347,0.200366511941,0.0571086145937,0.0538104362786,0.421545028687,0.0172106251121,-1.14786529541,-0.0121004199609,1.49982070923,0.0306250676513,5.44753837585,0.166667819023,24.493301391587,94.86161041259,48.97362899783,32.68500518795,1025
1.64949822681888E+018,100,1.64949822681888E+018,r1000913c5/base_footprint,0,1.64949822681888E+018,v/m1vw10zy74w/map,-10.1010639672,-0.459572055792,0,0,0,-0.710764973953,0.703429564208,0,66.2782516479,23.2026138306,70.6638870239,96.009475708,47.4437866211,47.4437866211,66.2782516479,66.2782516479,25.0184497833,0.462430238724,0,0.00354001740925,0.199381172657,0.0612228624523,0.0576828420162,1.29068756104,0.0526955313981,-1.14786529541,-0.0121004199609,1.52984237671,0.031238084659,7.66655540466,0.234558790922,24.49330139164,94.86161041259,48.97362899781,32.68500518796,1025
