%time,field.header.seq,field.header.stamp,field.header.frame_id,field.pose.header.seq,field.pose.header.stamp,field.pose.header.frame_id,field.pose.pose.position.x,field.pose.pose.position.y,field.pose.pose.position.z,field.pose.pose.orientation.x,field.pose.pose.orientation.y,field.pose.pose.orientation.z,field.pose.pose.orientation.w,field.label,field.main_output,field.scan_score,field.pose_score,field.cov_score,field.lhood_map_score,field.lhood_robot_score,field.lhood_map_score_all,field.lhood_robot_score_all,field.point_angle_diff,field.average_orientation,field.map_average_orientation,field.sensor_div,field.odom_div_x,field.odom_div_w,field.imu_div_w,field.kdtree_div,field.kdtree_div_p,field.cov_div,field.cov_div_p,field.likelihood_div,field.likelihood_div_p,field.normal_diff_div,field.normal_diff_div_p,field.kdtree_average,field.cov_average,field.likelihood_average,field.normal_diff_average,field.map_update_count
1.64951517688643E+018,0,1.64951517688643E+018,r1000913c5/base_footprint,0,1.64951517688643E+018,v/m1vw10zy74w/map,-10.1896635178,-2.38383301146,0,0,0,-0.70600141595,0.708210421186,0,65.0074768066,30.8486747742,100,95.6580200195,45.9771003723,45.9771003723,65.0074768066,65.0074768066,30.7869091034,0.347162723541,0,0.00228379270993,0.161995738745,0.0415961369872,0.04387992993,-6.24757957458,-0.253955334425,0.334045410156,0.00347992731258,0.354545593262,0.00765234185383,-3.76258277893,-0.139229476452,24.60109519962,95.992065429656,46.331645965562,27.02432632447,182
1.64951517698575E+018,1,1.64951517698575E+018,r1000913c5/base_footprint,0,1.64951517698575E+018,v/m1vw10zy74w/map,-10.1896635178,-2.38383301146,0,0,0,-0.70600141595,0.708210421186,0,64.7675323486,20.9961357117,34.9131736755,95.6580200195,45.7458114624,45.7458114624,64.7675323486,64.7675323486,32.6080665588,1.33730792999,0,0.00246757385321,0.21063888073,0.0445285625756,0.0469961352646,3.60495948792,0.146536543965,0.334045410156,0.00347992731258,0.585834503174,0.0126443710178,-5.58374023438,-0.206619039178,24.60109519962,95.992065429656,46.331645965574,27.02432632442,182
1.64951517708561E+018,2,1.64951517708561E+018,r1000913c5/base_footprint,0,1.64951517708561E+018,v/m1vw10zy74w/map,-10.1896635178,-2.38383301146,0,0,0,-0.70600141595,0.708210421186,0,65.0022506714,25.9259262085,36.5894889832,95.6580200195,45.9853057861,45.9853057861,65.0022506714,65.0022506714,30.9696006775,1.4281103611,0,0.00356226693839,0.226435124874,0.0517190396786,0.0552813075483,-1.32483100891,-0.0538525208831,0.334045410156,0.00347992731258,0.346340179443,0.00747524015605,-3.94527435303,-0.145989745855,24.60109519959,95.992065429656,46.331645965543,27.02432632447,182
1.64951517718551E+018,3,1.64951517718551E+018,r1000913c5/base_footprint,0,1.64951517718551E+018,v/m1vw10zy74w/map,-10.1896635178,-2.38383301146,0,0,0,-0.70600141595,0.708210421186,0,65.5985794067,23.2373809814,38.684879303,95.6580200195,46.117980957,46.117980957,65.5985794067,65.5985794067,21.668674469,1.34502136707,0,0.00384640763514,0.223522350192,0.0658465996385,0.0696930065751,1.36371421814,0.0554330684245,0.334045410156,0.00347992731258,0.213665008545,0.00461164303124,5.35565185547,0.19817891717,24.60109519954,95.992065429656,46.331645965545,27.02432632447,182
1.64951517728543E+018,4,1.64951517728543E+018,r1000913c5/base_footprint,0,1.64951517728543E+018,v/m1vw10zy74w/map,-10.1883070692,-2.28682256571,0,0,0,-0.714314860915,0.69982446333,0,65.9625701904,27.5362319946,40.3444328308,95.4691696167,46.5366172791,46.5366172791,65.9625701904,65.9625701904,18.9582080841,1.34807765484,0,0.00416484335437,0.216618195176,0.0707661211491,0.0749309659004,-2.3191947937,-0.0919693633914,0.522750854492,0.00544577976689,-0.138092041016,-0.002976216143,7.96830749512,0.295927911997,25.2170372009,95.991920471192,46.398525238084,26.92651557922,203
1.64951517738605E+018,5,1.64951517738605E+018,r1000913c5/base_footprint,0,1.64951517738605E+018,v/m1vw10zy74w/map,-10.1883070692,-2.28682256571,0,0,0,-0.714314860915,0.69982446333,0,66.3982009888,20.1680679321,41.6184310913,95.4691696167,46.9500999451,46.9500999451,66.3982009888,66.3982009888,15.5825014114,1.35751771927,0,0.00336594763212,0.203149616718,0.0673581510782,0.0707240998745,5.0489692688,0.200220555067,0.522750854492,0.00544577976689,-0.551574707031,-0.0118877636269,11.3440141678,0.421295285225,25.2170372009,95.991920471192,46.398525238069,26.9265155792,203
1.64951517748547E+018,6,1.64951517748547E+018,r1000913c5/base_footprint,0,1.64951517748547E+018,v/m1vw10zy74w/map,-10.1535733299,-2.18208257438,0,0,0,-0.715837162262,0.698267253367,0,66.4721984863,17.9009742737,42.6227493286,95.3645782471,47.0824279785,47.0824279785,66.4721984863,66.4721984863,15.3031082153,1.38323581219,0,0.00312391109765,0.178239792585,0.0537964105606,0.0569203197956,8.44945526123,0.320657223463,0.607215881348,0.00632702419534,-0.579418182373,-0.0124597996473,11.7950363159,0.435270994902,26.35042953493,95.971794128448,46.503009796127,27.0981445312,234
1.64951517758551E+018,7,1.64951517758551E+018,r1000913c5/base_footprint,0,1.64951517758551E+018,v/m1vw10zy74w/map,-10.1518715888,-2.06781496571,0,0,0,-0.716657014197,0.697425783867,0,66.4937362671,20.1680679321,43.3954734802,95.5922012329,47.3134689331,47.3134689331,66.4937362671,66.4937362671,18.2301082611,1.41278839111,0,0.00288484198973,0.154922410846,0.0494731813669,0.0523580238223,7.18196296692,0.262594342232,0.350570678711,0.00365395611152,-0.779270172119,-0.0167461819947,9.01311302185,0.330838739872,27.35003089902,95.942771911611,46.534198760981,27.24322128295,276
1.6495151776858E+018,8,1.6495151776858E+018,r1000913c5/base_footprint,0,1.6495151776858E+018,v/m1vw10zy74w/map,-10.1518715888,-2.06781496571,0,0,0,-0.716657014197,0.697425783867,0,66.5221710205,18.3494300842,43.9564476013,95.5922012329,47.5209274292,47.5209274292,66.5221710205,66.5221710205,19.9588680267,1.40941774845,0,0.00224328553304,0.140722721815,0.0435737334192,0.0458170175552,9.00060081482,0.329089224339,0.350570678711,0.00365395611152,-0.986728668213,-0.0212043765932,7.28435325623,0.267382234335,27.35003089902,95.942771911611,46.534198760987,27.24322128293,276
1.64951517778583E+018,9,1.64951517778583E+018,r1000913c5/base_footprint,0,1.64951517778583E+018,v/m1vw10zy74w/map,-10.156580787,-1.95983600022,0,0,0,-0.716991783788,0.697081617875,0,66.5297851562,18.6200790405,44.4363441467,95.4277877808,47.8470306396,47.8470306396,66.5297851562,66.5297851562,22.751871109,1.37460827827,0,0.0022367911879,0.133380159736,0.0403256975114,0.0425624884665,9.63475227356,0.340994864702,0.495796203613,0.00516865821555,-1.22773742676,-0.0263353940099,4.51005935669,0.165434330702,28.25483131406,95.923583984413,46.61929321284,27.26193046569,304
1.64951517788593E+018,10,1.64951517788593E+018,r1000913c5/base_footprint,0,1.64951517788593E+018,v/m1vw10zy74w/map,-10.157516099,-1.96018911759,0,0,0,-0.717119221045,0.696950516757,0,66.5383377075,18.9542484283,44.8532485962,95.3727340698,48.0978851318,48.0978851318,66.5383377075,66.5383377075,25.1088485718,1.3394562006,0,0.00218534097075,0.128076508641,0.0381319634616,0.0403173044324,9.30058288574,0.329167872667,0.550849914551,0.00574259087443,-1.47859191895,-0.0317163094878,2.15308189392,0.07897759974,28.25483131404,95.923583984351,46.61929321285,27.26193046572,304
1.64951517798522E+018,11,1.64951517798522E+018,r1000913c5/base_footprint,0,1.64951517798522E+018,v/m1vw10zy74w/map,-10.1494494865,-1.84927436831,0,0,0,-0.717917892785,0.696127789432,0,66.7701263428,20.38920784,45.2140960693,95.2109222412,48.3429832458,48.3429832458,66.7701263428,66.7701263428,23.0012702942,1.14371609688,0,0.00204414804466,0.109575405717,0.0284386035055,0.030482750386,9.58944320679,0.319875746965,0.677192687988,0.00706232152879,-1.64179992676,-0.0351554229856,4.58955001831,0.16634337604,29.97865104679,95.888114929188,46.70118331904,27.59082031251,310
1.64951517808553E+018,12,1.64951517808553E+018,r1000913c5/base_footprint,0,1.64951517808553E+018,v/m1vw10zy74w/map,-10.1493948418,-1.85065318213,0,0,0,-0.717977891138,0.696065907682,0,66.6447219849,29.9506053925,45.5270462036,95.2746276855,48.6720428467,48.6720428467,66.6447219849,66.6447219849,29.0417785645,1.02706182003,0,0.00205313228071,0.104239851236,0.0270155221224,0.0290686544031,0.0280456542969,0.000935520918574,0.613487243652,0.00639794860035,-1.97085952759,-0.0422014892101,-1.45095825195,-0.0525884404778,29.9786510467969,95.888114929152,46.70118331911,27.59082031255,310
1.64951517818587E+018,13,1.64951517818587E+018,r1000913c5/base_footprint,0,1.64951517818587E+018,v/m1vw10zy74w/map,-10.1497701788,-1.73885489231,0,0,0,-0.717291427822,0.696773282764,0,66.5382385254,30.8486747742,45.7989120483,95.3894271851,48.9827003479,48.9827003479,66.5382385254,66.5382385254,34.7267456055,0.958817601204,0,0.00180933356751,0.0925850197673,0.0272593200207,0.0290686544031,0.422328948975,0.0135054495186,0.478286743164,0.00498902844265,-2.14444732666,-0.0457841008902,-7.11027145386,-0.257464855909,31.271003723175,95.867713928264,46.83825302124,27.61647415164,315
1.6495151782852E+018,14,1.6495151782852E+018,r1000913c5/base_footprint,0,1.6495151782852E+018,v/m1vw10zy74w/map,-10.1485332858,-1.741279206,0,0,0,-0.716863110032,0.697213942398,0,66.6411132812,36.5808830261,46.0146865845,95.2070846558,49.4766197205,49.4766197205,66.6411132812,66.6411132812,37.5529594421,0.898011565208,0,0.00177896767855,0.0852060839534,0.0272896867245,0.0290686544031,-5.30987930298,-0.169802010059,0.660629272461,0.00689105084166,-2.63836669922,-0.0563293136656,-9.93648529053,-0.359802812338,31.27100372312,95.867713928261,46.83825302128,27.61647415157,315
1.64951517838582E+018,15,1.64951517838582E+018,r1000913c5/base_footprint,0,1.64951517838582E+018,v/m1vw10zy74w/map,-10.1485332858,-1.741279206,0,0,0,-0.716863110032,0.697213942398,0,67.0785293579,31.2217197418,46.0826911926,95.2070846558,49.762802124,49.762802124,67.0785293579,67.0785293579,32.7702560425,0.814254403114,0,0.00177509069908,0.0790204107761,0.0272935628891,0.0290686544031,0.0492839813232,0.00157602806576,0.660629272461,0.00689105084166,-2.92454910278,-0.0624393299222,-5.15378189087,-0.186619833112,31.2710037231232,95.867713928261,46.83825302122,27.61647415163,315
1.64951517848565E+018,16,1.64951517848565E+018,r1000913c5/base_footprint,0,1.64951517848565E+018,v/m1vw10zy74w/map,-10.1469058362,-1.64364370988,0,0,0,-0.717864245626,0.696183111582,0,67.1457290649,36.1605110168,46.0042037964,95.27759552,50.0826454163,50.0826454163,67.1457290649,67.1457290649,35.2687988281,0.849331378937,0,0.00154375017155,0.0697683170438,0.0275249034166,0.0290686544031,-4.42124557495,-0.139298930764,0.583831787109,0.00609037233517,-3.1789855957,-0.0677769184113,-7.80133247375,-0.284020811319,31.73926544185,95.861427307109,46.9036598206,27.46746635435,317
1.64951517858489E+018,17,1.64951517858489E+018,r1000913c5/base_footprint,0,1.64951517858489E+018,v/m1vw10zy74w/map,-10.1499271492,-1.52685091698,0,0,0,-0.718519698374,0.695506608918,0,67.4374542236,35.0588226318,46.0274353027,95.2766189575,50.4399833679,50.4399833679,67.4374542236,67.4374542236,33.8733978271,0.854927361012,0,0.00162279349752,0.0668127313256,0.0280334409326,0.029656233266,-3.34836959839,-0.105591982603,0.585548400879,0.00610823230818,-3.52007293701,-0.0750230103731,-6.31665229797,-0.229223445058,31.71045303341,95.862167358379,46.91991043089,27.55674552913,316
1.64951517868488E+018,18,1.64951517868488E+018,r1000913c5/base_footprint,0,1.64951517868488E+018,v/m1vw10zy74w/map,-10.1499271492,-1.52685091698,0,0,0,-0.718519698374,0.695506608918,0,67.6479797363,35.0588226318,46.0680427551,95.2766189575,50.7735824585,50.7735824585,67.6479797363,67.6479797363,33.6869125366,0.821076869965,0,0.00154633971397,0.059448543936,0.0281098950654,0.029656233266,-3.34836959839,-0.105591982603,0.585548400879,0.00610823230818,-3.85367202759,-0.0821329802275,-6.13016700745,-0.222456127405,31.71045303341,95.862167358379,46.91991043091,27.55674552915,316
1.64951517878508E+018,19,1.64951517878508E+018,r1000913c5/base_footprint,0,1.64951517878508E+018,v/m1vw10zy74w/map,-10.1499271492,-1.52685091698,0,0,0,-0.718519698374,0.695506608918,0,67.6652526855,37.8823547363,46.0595207214,95.2766189575,50.9786262512,50.9786262512,67.6652526855,67.6652526855,35.5904846191,0.692381024361,0,0.00154190021567,0.0549821481109,0.0281143337488,0.029656233266,-6.17190170288,-0.194633036852,0.585548400879,0.00610823230818,-4.05871582031,-0.086503058672,-8.03373908997,-0.291534394026,31.71045303342,95.862167358379,46.91991043089,27.55674552913,316
1.64951517888845E+018,20,1.64951517888845E+018,r1000913c5/base_footprint,0,1.64951517888845E+018,v/m1vw10zy74w/map,-10.1458289066,-1.41483119366,0,0,0,-0.718202727715,0.695833918333,0,67.9117507935,39.7417488098,47.9263572693,95.3033370972,51.1579971313,51.1579971313,67.9117507935,67.9117507935,33.1868667603,0.63152974844,0,0.00154165551066,0.0535048209131,0.0281145777553,0.029656233266,-8.3910446167,-0.267650902271,0.541145324707,0.0056460769847,-4.23310852051,-0.0902103036642,-5.35977745056,-0.192610070109,31.3507041931,95.844482421907,46.92488861079,27.82708930974,319
1.64951517908572E+018,21,1.64951517908572E+018,r1000913c5/base_footprint,0,1.64951517908572E+018,v/m1vw10zy74w/map,-10.1458289066,-1.41483119366,0,0,0,-0.718202727715,0.695833918333,0,67.7546005249,41.1764717102,47.9686279297,95.3033370972,51.3208885193,51.3208885193,67.7546005249,67.7546005249,37.7747573853,0.614507079124,0,0.00152989628259,0.0475019067526,0.0281263384968,0.029656233266,-9.82576751709,-0.313414573669,0.541145324707,0.0056460769847,-4.39599990845,-0.0936816260219,-9.94766807556,-0.357481449842,31.35070419311,95.844482421907,46.92488861085,27.82708930974,319
1.6495151791862E+018,22,1.6495151791862E+018,r1000913c5/base_footprint,0,1.6495151791862E+018,v/m1vw10zy74w/map,-10.1387433217,-1.30171454027,0,0,0,-0.717618010893,0.696436924956,0,68.2572021484,38.2835083008,47.9638366699,95.5347290039,51.4756851196,51.4756851196,68.2572021484,68.2572021484,31.2327384949,0.711675703526,0,0.00154039019253,0.0414376147091,0.028115844354,0.029656233266,-7.59498977661,-0.247486367822,0.315765380859,0.00329435314052,-4.43545913696,-0.0942907705903,-2.96957015991,-0.105068549514,30.68851852419,95.850494384759,47.04022598264,28.26316833499,327
1.64951517928596E+018,23,1.64951517928596E+018,r1000913c5/base_footprint,0,1.64951517928596E+018,v/m1vw10zy74w/map,-10.1388824771,-1.30385525622,0,0,0,-0.717399916144,0.696661582346,0,68.1045074463,41.1764717102,47.9970016479,95.7818374634,51.6231956482,51.6231956482,68.1045074463,68.1045074463,36.4639511108,0.514496862888,0,0.00155421637464,0.0273395311087,0.0281020179391,0.029656233266,-10.487953186,-0.341754943132,0.0686569213867,0.000716291775461,-4.58296966553,-0.0974266082048,-8.20078277588,-0.290157943964,30.6885185242,95.8504943847867,47.04022598267,28.26316833492,327
1.64951517938484E+018,24,1.64951517938484E+018,r1000913c5/base_footprint,0,1.64951517938484E+018,v/m1vw10zy74w/map,-10.1214152794,-1.19405874796,0,0,0,-0.719828565059,0.694151883182,0,68.3269042969,34.6405220032,48.116104126,95.7235488892,51.4934158325,51.4934158325,68.3269042969,68.3269042969,30.8494472504,0.564192473888,0,0.00144516280852,0.0287422742695,0.0279484223574,0.0293935853988,-7.31568527222,-0.267730236053,-0.489646911621,-0.00514151901007,-3.32657623291,-0.0690636187792,-0.0343799591064,-0.00111568660941,27.32483673098,95.233901977579,48.16683959959,30.8150672912936,752
1.64951517948555E+018,25,1.64951517948555E+018,r1000913c5/base_footprint,0,1.64951517948555E+018,v/m1vw10zy74w/map,-10.1287542755,-1.08636952031,0,0,0,-0.718998530685,0.695011591898,0,68.3201293945,31.4497451782,48.3462524414,95.7482147217,51.3621864319,51.3621864319,68.3201293945,68.3201293945,29.6428394318,0.615638554096,0,0.00117861735635,0.102759517729,0.0271671302617,0.0283457487822,-5.52916526794,-0.21331179142,-0.668746948242,-0.00703355809674,-2.87716293335,-0.0593412704766,2.12240028381,0.0668151825666,25.92057991026,95.079467773458,48.48502349855,31.76523971561,1018
1.64951517958613E+018,26,1.64951517958613E+018,r1000913c5/base_footprint,0,1.64951517958613E+018,v/m1vw10zy74w/map,-10.127621936,-1.08706297631,0,0,0,-0.719166074779,0.694838223536,0,67.9261398315,32.3760986328,48.5758514404,95.8341751099,51.1802978516,51.1802978516,67.9261398315,67.9261398315,35.07970047,0.586250305176,0,0.00111597718205,0.119945809245,0.0243852157146,0.0255011934787,-6.45551872253,-0.249049931765,-0.754707336426,-0.00793764833361,-2.69527435303,-0.0555898323655,-3.31446075439,-0.104342378676,25.92057991027,95.079467773474,48.48502349857,31.76523971561,1018
1.64951517968562E+018,27,1.64951517968562E+018,r1000913c5/base_footprint,0,1.64951517968562E+018,v/m1vw10zy74w/map,-10.127621936,-1.08706297631,0,0,0,-0.719166074779,0.694838223536,0,67.9332046509,37.0078735352,48.6426010132,95.8341751099,51.0583305359,51.0583305359,67.9332046509,67.9332046509,33.6352844238,0.389396846294,0,0.000237219079281,0.151509508491,0.0125222727656,0.01228505373,-11.0872936249,-0.427740961313,-0.754707336426,-0.00793764833361,-2.57330703735,-0.0530742667615,-1.87004470825,-0.0588707886636,25.9205799103,95.079467773474,48.48502349855,31.76523971555,1018
1.64951517978624E+018,28,1.64951517978624E+018,r1000913c5/base_footprint,0,1.64951517978624E+018,v/m1vw10zy74w/map,-10.1242450919,-0.968962847141,0,0,0,-0.718316587708,0.695716378867,0,67.9664764404,38.4615402222,48.5995368958,95.7236862183,50.8894195557,50.8894195557,67.9664764404,67.9664764404,30.8145046234,0.505836248398,0,0.000330987852067,0.155074343085,0.00498780142516,0.00465681357309,-13.03723526,-0.512786328793,-0.717498779297,-0.00755212688819,-2.18112945557,-0.0447794310749,1.27220344543,0.0396489240229,25.4243049622,95.006187439003,48.70829010013,32.08670806883,1141
1.6495151798861E+018,29,1.6495151798861E+018,r1000913c5/base_footprint,0,1.6495151798861E+018,v/m1vw10zy74w/map,-10.1264268435,-0.970679404032,0,0,0,-0.718224082633,0.695811876247,0,67.7451934814,33.1550788879,48.6473426819,95.8274459839,50.7338142395,50.7338142395,67.7451934814,67.7451934814,33.4905662537,0.533750772476,0,0.000105522929516,0.156147092581,0.00416461611167,0.00427013915032,-7.73077392578,-0.304070204496,-0.821258544922,-0.00864426419139,-2.0255241394,-0.0415847934783,-1.40385818481,-0.0437520183623,25.42430496212,95.006187438978,48.7082901001,32.08670806889,1141
1.64951517998561E+018,30,1.64951517998561E+018,r1000913c5/base_footprint,0,1.64951517998561E+018,v/m1vw10zy74w/map,-10.1118572709,-0.860889456242,0,0,0,-0.718425255684,0.695604163296,0,67.7113037109,35.4268035889,48.7507362366,95.7618103027,50.6604309082,50.6604309082,67.7113037109,67.7113037109,33.0716781616,0.4319858253,0,0.000142998294905,0.153681829572,0.00285914493725,0.00271614664234,-10.4852561951,-0.420393168926,-0.832801818848,-0.00877289101481,-1.94385147095,-0.0399012304842,-0.837299346924,-0.0259753521532,24.9415473938,94.929008483852,48.71657943725,32.234378814676,1214
1.64951518008604E+018,31,1.64951518008604E+018,r1000913c5/base_footprint,0,1.64951518008604E+018,v/m1vw10zy74w/map,-10.1118572709,-0.860889456242,0,0,0,-0.718425255684,0.695604163296,0,67.8510437012,30.4812831879,48.933467865,95.7618103027,50.4292373657,50.4292373657,67.8510437012,67.8510437012,28.0595550537,0.417567074299,0,0.000312450196361,0.151192814112,0.000324617663864,1.21674729598E-05,-5.53973579407,-0.222108751535,-0.832801818848,-0.00877289101481,-1.71265792847,-0.0351555459201,4.17482376099,0.129514634609,24.94154739383,94.929008483852,48.71657943723,32.23437881469,1214
1.64951518018484E+018,32,1.64951518018484E+018,r1000913c5/base_footprint,0,1.64951518018484E+018,v/m1vw10zy74w/map,-10.129433944,-0.75506375724,0,0,0,-0.716293178796,0.697799456872,0,68.0538101196,33.9366531372,49.096862793,95.8797531128,50.4832344055,50.4832344055,68.0538101196,68.0538101196,25.4174537659,0.489535093307,0,0.00012204189261,0.150516882539,0.00177198660094,0.0018940285081,-9.27363395691,-0.376013725996,-0.994918823242,-0.0104855410755,-1.59172058105,-0.0325561724603,7.11013412476,0.21858780086,24.66301918029,94.884834289558,48.89151382445,32.52758789066,1199
1.64951518028494E+018,33,1.64951518028494E+018,r1000913c5/base_footprint,0,1.64951518028494E+018,v/m1vw10zy74w/map,-10.127802216,-0.635350953628,0,0,0,-0.715804185058,0.698301058752,0,68.0267410278,40.7341880798,49.1954116821,96.0059814453,50.6604766846,50.6604766846,68.0267410278,68.0267410278,28.2732810974,0.468767702579,0,1.32239856612E-05,0.149894088507,0.00190725247376,0.0018940285081,-16.2933883667,-0.666647076607,-1.13951873779,-0.0120118185878,-1.74189376831,-0.0356080159545,4.40937423706,0.134914815426,24.4407997131,94.86646270751,48.91858291629,32.68265533446,1156
1.6495151803853E+018,34,1.6495151803853E+018,r1000913c5/base_footprint,0,1.64951518038531E+018,v/m1vw10zy74w/map,-10.127802216,-0.635350953628,0,0,0,-0.715804185058,0.698301058752,0,68.2833862305,41.1764717102,49.1815490723,96.0059814453,50.8739738464,50.8739738464,68.2833862305,68.2833862305,25.95952034,0.470155447721,0,4.04310812883E-05,0.149329721928,0.00193445954937,0.0018940285081,-16.7356719971,-0.684743225574,-1.13951873779,-0.0120118185878,-1.95539093018,-0.0399723537266,6.72313499451,0.205709576607,24.4407997131,94.86646270751,48.91858291622,32.68265533451,1156
1.64951518048591E+018,35,1.64951518048591E+018,r1000913c5/base_footprint,0,1.64951518048591E+018,v/m1vw10zy74w/map,-10.1224928568,-0.520248602067,0,0,0,-0.717151249526,0.696917559905,0,68.1684799194,30.8486747742,49.0481033325,95.9608306885,51.0110054016,51.0110054016,68.1684799194,68.1684799194,29.3452835083,0.282941073179,0,1.89710863197E-05,0.148508235812,0.00047986334539,0.000498834415339,-6.4657459259,-0.265175104141,-1.10335540771,-0.0116317179054,-2.06127548218,-0.0421100482345,3.41108322144,0.104134969413,24.3829288483,94.85747528079,48.94972991942,32.75636672974,1075
1.64951518058595E+018,36,1.64951518058595E+018,r1000913c5/base_footprint,0,1.64951518058596E+018,v/m1vw10zy74w/map,-10.1224928568,-0.520248602067,0,0,0,-0.717151249526,0.696917559905,0,68.5762557983,30.1470584869,48.9597091675,95.9608306885,51.2036552429,51.2036552429,68.5762557983,68.5762557983,24.0858917236,0.267877072096,0,0.000361721991794,0.148299828172,0.000395355426008,3.36334414897E-05,-5.76412963867,-0.236400216818,-1.10335540771,-0.0116317179054,-2.25392532349,-0.0460457168519,8.6704750061,0.264695882797,24.38292884823,94.85747528079,48.94972991941,32.7563667297,1075
1.64951518158581E+018,37,1.64951518158581E+018,r1000913c5/base_footprint,0,1.64951518158581E+018,v/m1vw10zy74w/map,-10.1146936477,-0.419981055951,0,0,0,-0.716688163447,0.697393774259,0,68.6712799072,39.3090553284,48.8481140137,95.8203201294,51.2309074402,51.2309074402,68.6712799072,68.6712799072,22.163860321,0.345879405737,0,0.000339200691087,0.201587021351,0.0336593016982,0.0333200991154,-14.7996845245,-0.603837788105,-0.949897766113,-0.0100125810131,-2.24060440063,-0.0457356721163,10.4849205017,0.321142792702,24.5093708039,94.870422363287,48.99030303957,32.6487808227,954
1.64951518168584E+018,38,1.64951518168584E+018,r1000913c5/base_footprint,0,1.64951518168584E+018,v/m1vw10zy74w/map,-10.0960177641,-0.454992057351,0,0,0,-0.682396729925,0.730982012766,0,68.1139068604,35.5742301941,48.8345832825,95.7885055542,51.1411514282,51.1411514282,68.1139068604,68.1139068604,31.1127815247,0.295438349247,0,0.00159239198547,0.201609939337,0.0834331214428,0.0818407312036,-11.0648593903,-0.451454252005,-0.918083190918,-0.00967723317444,-2.15084838867,-0.0439035519958,1.5359992981,0.0470461472869,24.5093708038,94.870422363282,48.99030303953,32.6487808228,954
1.64951518178507E+018,39,1.64951518178507E+018,r1000913c5/base_footprint,0,1.64951518178507E+018,v/m1vw10zy74w/map,-10.0960177641,-0.454992057351,0,0,0,-0.682396729925,0.730982012766,0,68.1158599854,25.4602603912,48.7220191956,95.7885055542,50.9148216248,50.9148216248,68.1158599854,68.1158599854,28.6331977844,0.364526957273,0,0.00217090919614,0.19972397387,0.101632006466,0.099461093545,-0.950889587402,-0.038796979934,-0.918083190918,-0.00967723317444,-1.92451858521,-0.0392836630344,4.01558303833,0.122993350029,24.509370803798,94.870422363282,48.99030303959,32.64878082273,954
1.64951518188564E+018,40,1.64951518188564E+018,r1000913c5/base_footprint,0,1.64951518188564E+018,v/m1vw10zy74w/map,-10.0817072729,-0.526309583931,0,0,0,-0.637576661039,0.770386916619,0,68.1999816895,24.8120307922,48.624294281,95.6601791382,50.5639419556,50.5639419556,68.1999816895,68.1999816895,22.8675193787,0.230819314718,0,0.0027511944063,0.194643333554,0.134284824133,0.131533622742,-0.581708908081,-0.0240074768662,-0.797393798828,-0.00840575993061,-1.59810256958,-0.0326370894909,9.96527481079,0.3035158813,24.230321884119,94.862785339372,48.96583938602,32.83279418949,1075
1.64951518198522E+018,41,1.64951518198522E+018,r1000913c5/base_footprint,0,1.64951518198522E+018,v/m1vw10zy74w/map,-10.0817072729,-0.526309583931,0,0,0,-0.637576661039,0.770386916619,0,67.4944992065,24.5621910095,48.6340522766,95.6601791382,50.1418991089,50.1418991089,67.4944992065,67.4944992065,31.0081443787,0.289849072695,0,0.00330815231428,0.188734471798,0.157248079777,0.153939932585,-0.331869125366,-0.0136964386329,-0.797393798828,-0.00840575993061,-1.1760597229,-0.0240179635584,1.82464981079,0.055574003607,24.230321884134,94.862785339372,48.965839386,32.83279418949,1075
1.64951518208597E+018,42,1.64951518208597E+018,r1000913c5/base_footprint,0,1.64951518208597E+018,v/m1vw10zy74w/map,-10.0671532232,-0.58546649156,0,0,0,-0.587416595124,0.809284711194,0,66.6599121094,22.8235301971,48.6620483398,95.5602493286,49.7565078735,49.7565078735,66.6599121094,66.6599121094,41.5087013245,0.40855628252,0,0.0040642991662,0.184431865811,0.175551772118,0.171487465501,1.38712501526,0.0572939887643,-0.705871582031,-0.00744163431227,-0.779468536377,-0.0159149784595,-8.67071914673,-0.264045417309,24.21065521236,94.854377746569,48.977039337123,32.83798217777,1115
1.64951518218574E+018,43,1.64951518218574E+018,r1000913c5/base_footprint,0,1.64951518218574E+018,v/m1vw10zy74w/map,-10.0425881204,-0.716759236275,0,0,0,-0.481109162375,0.876660694841,0,66.4611587524,20.9257469177,48.5878715515,95.2862243652,49.5587272644,49.5587272644,66.4611587524,66.4611587524,41.9637451172,-0.0474945642054,0,0.0059331045486,0.15632879734,0.16526222229,0.159329131246,3.58900642395,0.146401897073,-0.417419433594,-0.00439996505156,-0.604301452637,-0.0123441638425,-9.37199020386,-0.287557095289,24.51475334165,94.868804931606,48.954425811763,32.59175491334,1203
1.64951518228586E+018,44,1.64951518228586E+018,r1000913c5/base_footprint,0,1.64951518228586E+018,v/m1vw10zy74w/map,-10.0222080506,-0.745856759367,0,0,0,-0.433439223669,0.901182800205,0,66.232711792,15.0326795578,48.4891319275,95.0875701904,49.2369804382,49.2369804382,66.232711792,66.232711792,41.8857688904,-0.0358650535345,0,0.0068364944309,0.115338243544,0.105329945683,0.0984934493899,9.14689731598,0.378290206194,-0.205780029297,-0.00216880417429,-0.31404876709,-0.00641925493255,-9.05348205566,-0.275749355555,24.17957687378,94.881790161103,48.92293167111,32.83228683474,1203
1.64951518238568E+018,45,1.64951518238568E+018,r1000913c5/base_footprint,0,1.64951518238568E+018,v/m1vw10zy74w/map,-9.97764937475,-0.728092575711,0,0,0,-0.362527302688,0.931973151333,0,65.6234207153,11.764705658,48.4554824829,95.1732330322,48.8647956848,48.8647956848,65.6234207153,65.6234207153,49.1418991089,-0.0920720547438,0,0.00673142774031,0.0813102796674,0.0489113815129,0.0421799533069,12.2371616364,0.509842038155,-0.297500610352,-0.00313568720594,0.0171241760254,0.000350317161065,-16.2601966858,-0.494505912066,24.0018672944,94.875732421848,48.8819198608254,32.8817024231,1193
1.64951518248479E+018,46,1.64951518248479E+018,r1000913c5/base_footprint,0,1.64951518248479E+018,v/m1vw10zy74w/map,-9.97766430131,-0.729099220854,0,0,0,-0.359033054052,0.933324844895,0,66.3056945801,0,48.245677948,95.5681381226,48.2519607544,48.2519607544,66.3056945801,66.3056945801,31.6640033722,0.244647607207,0,0.0026807426475,0.0552371293306,0.0204867627472,0.017806019634,24.0018672943,1,-0.692405700684,-0.0072980276309,0.629959106445,0.0128873642534,1.2176990509,0.0370327234268,24.0018672943,94.875732421916,48.881919860845,32.8817024231,1193
1.64951518258497E+018,47,1.64951518258497E+018,r1000913c5/base_footprint,0,1.64951518258497E+018,v/m1vw10zy74w/map,-9.97554693095,-0.731064734133,0,0,0,-0.310372590174,0.950614987925,0,66.012550354,1.96078431606,48.0383682251,95.2849121094,47.9497795105,47.9497795105,66.012550354,66.012550354,32.6574440002,0.384480953217,0,0.00117143010721,0.0476327165961,0.0422772504389,0.0411058180034,22.0410823822,0.918307006359,-0.4091796875,-0.00431279605255,0.932140350342,0.019069224596,0.224258422852,0.00682015856728,24.00186669826,94.8757324219,48.881919860842,32.881702423052,1193
1.64951518298594E+018,48,1.64951518298594E+018,r1000913c5/base_footprint,0,1.64951518298594E+018,v/m1vw10zy74w/map,-10.000280818,-0.712667590707,0,0,0,-0.210698568225,0.977551079662,0,65.4058837891,6.29880285263,47.7291755676,95.6175460815,48.0176353455,48.0176353455,65.4058837891,65.4058837891,45.5076713562,0.0788620039821,0,0.000544206297491,0.0182264596224,0.0217125806957,0.0222567860037,17.8807735443,0.739499032497,-0.73575592041,-0.00775444833562,0.905296325684,0.0185045395046,-12.6753845215,-0.386064618826,24.17957639693,94.88179016109,48.922931671184,32.8322868347,1203
1.6495151830857E+018,49,1.6495151830857E+018,r1000913c5/base_footprint,0,1.6495151830857E+018,v/m1vw10zy74w/map,-10.000280818,-0.712667590707,0,0,0,-0.210698568225,0.977551079662,0,67.0705718994,34.1974067688,46.8075942993,95.6175460815,49.0845146179,49.0845146179,67.0705718994,67.0705718994,27.0655574799,0.11240644753,0,0.000835024518892,0.0135365854949,0.0234379284084,0.0242729540914,-10.017829895,-0.414309561253,-0.73575592041,-0.00775444833562,-0.161582946777,-0.00330280582421,5.76672935486,0.175642028451,24.1795768738,94.88179016109,48.922931671123,32.83228683476,1203
1.64951518318491E+018,50,1.64951518318491E+018,r1000913c5/base_footprint,0,1.64951518318491E+018,v/m1vw10zy74w/map,-9.92737594404,-0.735769103261,0,0,0,-0.152239782301,0.988343588376,0,67.6902923584,29.4117641449,45.8033065796,96.0570297241,49.930847168,49.930847168,67.6902923584,67.6902923584,26.6331310272,0.22133217752,0,0.000983834848739,0.0112307919189,0.0250366926193,0.026020526886,-5.6464881897,-0.237594053149,-1.17725372314,-0.0124078467488,-1.00090789795,-0.0204559396952,6.41400337219,0.194086521864,23.7652759552,94.87977600096,48.92993927005,33.04713439939,1207
1.64951518328563E+018,51,1.64951518328563E+018,r1000913c5/base_footprint,0,1.64951518328563E+018,v/m1vw10zy74w/map,-9.92737594404,-0.735769103261,0,0,0,-0.152239782301,0.988343588376,0,68.016204834,32.9205360413,44.8535232544,96.0570297241,50.7026748657,50.7026748657,68.016204834,68.016204834,29.1025657654,0.239213913679,0,0.00108334503602,0.00791354849935,0.0310174953192,0.0321008376777,-9.15526008606,-0.385236859322,-1.17725372314,-0.0124078467488,-1.7727355957,-0.0362300798297,3.94456863403,0.119361899793,23.76527595524,94.87977600096,48.92993927,33.04713439943,1207
1.64951518338583E+018,52,1.64951518338583E+018,r1000913c5/base_footprint,0,1.64951518338584E+018,v/m1vw10zy74w/map,-9.87966051307,-0.743017580826,0,0,0,-0.105526169434,0.994416526192,0,68.3164291382,36.5728912354,44.0723266602,95.9535522461,51.5602340698,51.5602340698,68.3164291382,68.3164291382,32.5875396729,0.347326040268,0,0.00181509391405,0.00808786228299,0.0435545966029,0.0453696884215,-13.0068588257,-0.551932513714,-1.05673980713,-0.0111356722191,-2.56436157227,-0.0523383170366,0.484149932861,0.0146394073963,23.5660324097,94.89681243897,48.99587249753,33.071689605761,1207
1.64951518348456E+018,53,1.64951518348456E+018,r1000913c5/base_footprint,0,1.64951518348456E+018,v/m1vw10zy74w/map,-9.85188013931,-0.764254146755,0,0,0,-0.0961695921337,0.99536496299,0,68.6548461914,39.112487793,43.7914810181,96.0484008789,52.106842041,52.106842041,68.6548461914,68.6548461914,32.7408485413,0.132148906589,0,0.00256289122626,0.0141779966652,0.0644135773182,0.0669764652848,-15.502746582,-0.656625032425,-1.13818359375,-0.0119922133163,-3.15530014038,-0.0644576251507,0.304016113281,0.00920010171831,23.609741211,94.91021728515,48.95154190062,33.044864654581,1209
1.64951518358512E+018,54,1.64951518358512E+018,r1000913c5/base_footprint,0,1.64951518358512E+018,v/m1vw10zy74w/map,-9.85188013931,-0.764254146755,0,0,0,-0.0961695921337,0.99536496299,0,68.5145645142,32.773109436,43.6155509949,96.0484008789,52.426410675,52.426410675,68.5145645142,68.5145645142,38.7173233032,0.298258155584,0,0.00262584560551,0.0202335510403,0.0846949592233,0.0873208045959,-9.1633682251,-0.388118118048,-1.13818359375,-0.0119922133163,-3.47486877441,-0.0709858909249,-5.67245864868,-0.171659305692,23.6097412109,94.91021728515,48.95154190059,33.04486465452,1209
1.64951518368639E+018,55,1.64951518368639E+018,r1000913c5/base_footprint,0,1.64951518368639E+018,v/m1vw10zy74w/map,-9.76630999599,-0.780303339089,0,0,0,-0.0419118484341,0.999121312434,0,68.7132110596,35.1944160461,43.6716003418,95.7824707031,52.5863113403,52.5863113403,68.7132110596,68.7132110596,35.9112663269,0.345502614975,0,0.00200432166457,0.0281750056893,0.116689361632,0.118693687022,-12.1963329315,-0.530319571495,-0.921768188477,-0.00971707142889,-3.61685562134,-0.073859423399,-2.49103546143,-0.074536755681,22.9980831146,94.860702514623,48.96945571896,33.42023086547,1189
1.64951518378573E+018,56,1.64951518378573E+018,r1000913c5/base_footprint,0,1.64951518378573E+018,v/m1vw10zy74w/map,-9.76630999599,-0.780303339089,0,0,0,-0.0419118484341,0.999121312434,0,69.1629867554,31.7844791412,43.6796264648,95.7824707031,52.8856620789,52.8856620789,69.1629867554,69.1629867554,31.0482158661,0.184805482626,0,0.00153778574895,0.0314463190734,0.130812034011,0.132349818945,-8.78639602661,-0.382049053907,-0.921768188477,-0.00971707142889,-3.91620635986,-0.0799724310637,2.37201499939,0.0709754228592,22.99808311459,94.860702514623,48.96945571904,33.42023086549,1189
1.64951518388526E+018,57,1.64951518388526E+018,r1000913c5/base_footprint,0,1.64951518388526E+018,v/m1vw10zy74w/map,-9.67639844388,-0.757487358934,0,0,0,-0.0054440708007,0.999985180937,0,69.3550491333,29.2123622894,43.8767585754,95.9194869995,53.0937080383,53.0937080383,69.3550491333,69.3550491333,30.3313312531,0.132502108812,0,0.000748314079829,0.0380341410637,0.154717579484,0.155465900898,-6.8820400238,-0.308192610741,-1.21758270264,-0.0128570031375,-3.83862686157,-0.0779336243868,3.65395545959,0.10751580447,22.3303222656,94.70190429686,49.25508117673,33.98528671269,1022
1.64951518398691E+018,58,1.64951518398691E+018,r1000913c5/base_footprint,0,1.64951518398691E+018,v/m1vw10zy74w/map,-9.67639844388,-0.757487358934,0,0,0,-0.0054440708007,0.999985180937,0,69.4764633179,30.8565540314,44.1111373901,95.9194869995,53.3492469788,53.3492469788,69.4764633179,69.4764633179,30.9056453705,0.125781029463,0,0.000108045904199,0.045355129987,0.193345576525,0.193237528205,-8.52623176575,-0.381823062897,-1.21758270264,-0.0128570031375,-4.094165802,-0.0831216946244,3.07964134216,0.0906168967485,22.33032226565,94.70190429686,49.2550811768,33.98528671266,1022
1.64951518408505E+018,59,1.64951518408505E+018,r1000913c5/base_footprint,0,1.64951518408505E+018,v/m1vw10zy74w/map,-9.55363731832,-0.75446606185,0,0,0,0.0158326137824,0.999874656315,0,69.0441894531,19.8782958984,44.4409484863,95.8893432617,53.310874939,53.310874939,69.0441894531,69.0441894531,38.1636428833,0.0833407193422,0,0.00104076310527,0.0523122623563,0.218744829297,0.217704057693,1.44812011719,0.0679026469588,-1.37071990967,-0.0145021146163,-3.76973342896,-0.0760929882526,-3.43851852417,-0.0990210548043,21.32641601559,94.51862335203,49.54114151004,34.72512435913,885
1.64951518418476E+018,60,1.64951518418476E+018,r1000913c5/base_footprint,0,1.64951518418476E+018,v/m1vw10zy74w/map,-9.55363731832,-0.75446606185,0,0,0,0.0158326137824,0.999874656315,0,69.2833786011,21.2362918854,44.7110900879,95.8893432617,53.3408050537,53.3408050537,69.2833786011,69.2833786011,34.1814613342,0.113730825484,0,0.00271407654509,0.0584021396935,0.253921836615,0.251207768917,0.090124130249,0.00422593904659,-1.37071990967,-0.0145021146163,-3.7996635437,-0.0766971334815,0.543663024902,0.0156561862677,21.326416015649,94.51862335203,49.54114151,34.725124359102,885
1.64951518428486E+018,61,1.64951518428486E+018,r1000913c5/base_footprint,0,1.64951518428486E+018,v/m1vw10zy74w/map,-9.44765758315,-0.746974592889,0,0,0,0.0222530029687,0.999752371269,0,69.1849899292,26.5962791443,45.0818786621,95.7205352783,53.3186912537,53.3186912537,69.1849899292,69.1849899292,35.1060066223,0.312948554754,0,0.00279112486169,0.0596810802817,0.26092928648,0.258138149977,-5.84357452393,-0.28158134222,-1.25539398193,-0.01328949444,-3.72404098511,-0.0750895738602,-0.290107727051,-0.0083326222375,20.75270462037,94.46514129637,49.59465026859,34.815898895249,815
1.64951518438525E+018,62,1.64951518438525E+018,r1000913c5/base_footprint,0,1.64951518438525E+018,v/m1vw10zy74w/map,-9.44535965016,-0.74731832568,0,0,0,0.0224966013634,0.999746919439,0,69.4960479736,32.0486831665,45.4408226013,95.8509674072,53.5454406738,53.5454406738,69.4960479736,69.4960479736,32.4253387451,0.231522098184,0,0.0034003877081,0.0621510148048,0.276564598083,0.273164212704,-11.2959785461,-0.544313549995,-1.38582611084,-0.0146702378988,-3.95079040527,-0.0796616226435,2.39056015015,0.0686628893018,20.7527046204,94.46514129636,49.59465026853,34.81589889525,815
1.64951518448551E+018,63,1.64951518448551E+018,r1000913c5/base_footprint,0,1.64951518448551E+018,v/m1vw10zy74w/map,-9.44535965016,-0.74731832568,0,0,0,0.0224966013634,0.999746919439,0,69.5453186035,34.9845199585,45.7699775696,95.8509674072,53.7514228821,53.7514228821,69.5453186035,69.5453186035,33.7630958557,0.215921536088,0,0.00387687562034,0.0639068484306,0.295516997576,0.291640102863,-14.2318153381,-0.685781240463,-1.38582611084,-0.0146702378988,-4.15677261353,-0.0838149413466,1.05280303955,0.0302391462028,20.7527046204,94.46514129636,49.59465026857,34.81589889525,815
1.64951518458574E+018,64,1.64951518458574E+018,r1000913c5/base_footprint,0,1.64951518458575E+018,v/m1vw10zy74w/map,-9.31039032966,-0.734166820316,0,0,0,0.0202114018971,0.999795728753,0,69.4652862549,31.6239318848,46.3405838013,95.83644104,53.9429473877,53.9429473877,69.4652862549,69.4652862549,37.2198905945,0.259279102087,0,0.00581673905253,0.0667204111814,0.341174602509,0.335357874632,-11.648273468,-0.583123385906,-1.44261169434,-0.0152829028666,-4.3763961792,-0.0882933363318,-2.35496902466,-0.0675455108285,19.9756584168,94.39382934566,49.5665512085,34.86492156984,785
1.64951518468478E+018,65,1.64951518468478E+018,r1000913c5/base_footprint,0,1.64951518468478E+018,v/m1vw10zy74w/map,-9.18526076018,-0.758357896431,0,0,0,0.0175829054429,0.999845408769,0,69.4871063232,27.6018104553,46.7895774841,95.8831558228,53.9512176514,53.9512176514,69.4871063232,69.4871063232,37.0845756531,0.382195919752,0,0.00726180896163,0.0489577874541,0.319660007954,0.312398195267,-8.84996986389,-0.471952050924,-1.38326263428,-0.0146377161145,-5.4813117981,-0.113086909056,-2.49871444702,-0.0722467005253,18.75184059141,94.49989318852,48.4699058533,34.58586120608,907
1.64951518478555E+018,66,1.64951518478555E+018,r1000913c5/base_footprint,0,1.64951518478555E+018,v/m1vw10zy74w/map,-9.08031279469,-0.753469751038,0,0,0,0.0144875431791,0.999895050039,0,69.6318511963,31.6239318848,47.0295257568,95.7486114502,54.0330200195,54.0330200195,69.6318511963,69.6318511963,34.878288269,0.360240787268,0,0.00798289943486,0.005480020307,0.231244131923,0.223261222243,-13.0816478729,-0.705503582954,-1.17217254639,-0.0123939169571,-6.262134552,-0.131086841226,-0.511871337891,-0.0148945217952,18.5422840119,94.57643890381,47.7708854675,34.366416931109,1024
1.64951518488566E+018,67,1.64951518488566E+018,r1000913c5/base_footprint,0,1.64951518488566E+018,v/m1vw10zy74w/map,-8.95430404241,-0.745642165336,0,0,0,0.011717588794,0.9999313467,0,69.8251495361,29.61287117,47.2001991272,95.8012924194,54.2587776184,54.2587776184,69.8251495361,69.8251495361,34.026763916,0.478316187859,0,0.00397070543841,0.0270401518792,0.16383883357,0.159868136048,-11.2940750122,-0.616529345512,-1.21584320068,-0.0128544420004,-7.06522750854,-0.149707481265,0.16870880127,0.00493365898728,18.3187961578,94.58544921872,47.19355010986,34.19547271727,1117
1.64951518498486E+018,68,1.64951518498486E+018,r1000913c5/base_footprint,0,1.64951518498486E+018,v/m1vw10zy74w/map,-8.83021516432,-0.699649689424,0,0,0,0.0101388167077,0.999948600877,0,69.7576065063,15.254237175,47.2009315491,95.7894973755,54.3354415894,54.3354415894,69.7576065063,69.7576065063,36.0279769897,0.206340789795,0,0.00286195613444,0.0232623424381,0.185142859817,0.182280898094,2.94426059723,0.161785915494,-1.26072692871,-0.0133369648829,-7.43537521362,-0.158536553383,-1.64715194702,-0.0479090288281,18.19849777223,94.52877044679,46.90006637578,34.38082504268,1139
1.64951518508497E+018,69,1.64951518508497E+018,r1000913c5/base_footprint,0,1.64951518508497E+018,v/m1vw10zy74w/map,-8.69125464856,-0.695972843142,0,0,0,0.00921067080446,0.999957580872,0,70.0685348511,20.3036060333,47.0463294983,95.7334823608,54.5107688904,54.5107688904,70.0685348511,70.0685348511,32.1231460571,0.174776747823,0,0.00444472581148,0.0100952396169,0.193493932486,0.189049199224,-2.11343765259,-0.116185709834,-1.20344543457,-0.0127308256924,-7.79048156738,-0.166747301817,2.42733383179,0.0702547058463,18.19016838071,94.53003692623,46.72028732302,34.55047988889,1137
1.64951518518524E+018,70,1.64951518518524E+018,r1000913c5/base_footprint,0,1.64951518518524E+018,v/m1vw10zy74w/map,-8.69125464856,-0.695972843142,0,0,0,0.00921067080446,0.999957580872,0,70.162361145,23.5294113159,46.9620895386,95.7334823608,54.865524292,54.865524292,70.162361145,70.162361145,34.2656822205,0.207891181111,0,0.00473227351904,0.000296194048133,0.138720229268,0.133987948298,-5.33924293518,-0.293523550034,-1.20344543457,-0.0127308256924,-8.14523696899,-0.174340471625,0.284797668457,0.00824294425547,18.19016838072,94.53003692623,46.72028732301,34.550479888957,1137
1.64951518528623E+018,71,1.64951518528623E+018,r1000913c5/base_footprint,0,1.64951518528623E+018,v/m1vw10zy74w/map,-8.56383525179,-0.692064749218,0,0,0,0.000589053759767,0.999999826508,0,70.5306777954,29.0228481293,46.8056755066,95.6910400391,55.1426086426,55.1426086426,70.5306777954,70.5306777954,30.4757003784,0.160014659166,0,0.00115680717863,0.0143384039402,0.105498097837,0.104341290891,-10.858133316,-0.597759664059,-1.14962005615,-0.0121599622071,-8.44342041016,-0.180804431438,4.37959289551,0.125650718808,18.1647148133,94.54141998295,46.69918823244,34.85529327391,1144
1.64951518538612E+018,72,1.64951518538612E+018,r1000913c5/base_footprint,0,1.64951518538612E+018,v/m1vw10zy74w/map,-8.43380009856,-0.6917827372,0,0,0,-0.008399629861,0.999964722487,0,70.2399673462,31.9397182465,46.7425727844,95.7210617065,55.2465286255,55.2465286255,70.2399673462,70.2399673462,36.9389801025,0.327143192291,0,0.00139128579758,0.0287293959409,0.110748186707,0.10935690254,-13.7436351776,-0.75530731678,-1.21951293945,-0.0129046877846,-8.51240921021,-0.182145491242,-1.73131561279,-0.0491743944585,18.1960830689,94.50154876705,46.73411941529,35.20766448971,1179
1.64951518548585E+018,73,1.64951518548585E+018,r1000913c5/base_footprint,0,1.64951518548585E+018,v/m1vw10zy74w/map,-8.28135851702,-0.716978086608,0,0,0,-0.0141612989413,0.999899723778,0,70.5816955566,23.8754329681,46.4809608459,95.3010864258,55.2849006653,55.2849006653,70.5816955566,70.5816955566,29.6902809143,0.369650483131,0,0.00173751206603,0.0431892164052,0.107042349875,0.105304844677,-5.79904556274,-0.320807784796,-0.827476501465,-0.00875881128013,-8.23360824585,-0.17499217391,6.0354347229,0.168938100338,18.07638740536,94.473609924335,47.05129241945,35.7257156372,1103
1.64951518558523E+018,74,1.64951518558523E+018,r1000913c5/base_footprint,0,1.64951518558523E+018,v/m1vw10zy74w/map,-8.16217357405,-0.712735749554,0,0,0,-0.0171871686696,0.999852289707,0,70.4975585938,28.607339859,46.1575164795,94.9868621826,55.2572669983,55.2572669983,70.4975585938,70.4975585938,29.7750930786,0.277505904436,0,0.00178515783045,0.0507425181568,0.100534059107,0.0987489074469,-10.1532287598,-0.550187885761,-0.602272033691,-0.00638104183599,-7.43239593506,-0.155408591032,6.78061294556,0.185487121344,18.4541110992,94.384590148909,47.82487106324,36.55570602416,929
1.64951518568592E+018,75,1.64951518568592E+018,r1000913c5/base_footprint,0,1.64951518568592E+018,v/m1vw10zy74w/map,-8.04676979321,-0.705404295953,0,0,0,-0.0224445060625,0.999748090345,0,70.4582824707,25.3196926117,45.8040161133,94.8031921387,55.2732772827,55.2732772827,70.4582824707,70.4582824707,29.9938488007,0.0522520057857,0,0.00142770248931,0.0698864161968,0.0935289189219,0.0921012163162,-7.27133560181,-0.402880758047,-0.495330810547,-0.00525227468461,-7.15650939941,-0.148732125759,7.2542514801,0.194754943252,18.04835700989,94.307861328153,48.11676788329,37.2481002808,850
1.64951518578549E+018,76,1.64951518578549E+018,r1000913c5/base_footprint,0,1.6495151857855E+018,v/m1vw10zy74w/map,-7.80353731261,-0.756231313062,0,0,0,-0.0226199963718,0.999744135149,0,69.8012008667,22.9208927155,45.3543739319,94.5794067383,55.2019844055,55.2019844055,69.8012008667,69.8012008667,40.2456283569,0.123735234141,0,0.00186831119936,0.0822082012892,0.0857254564762,0.0838571414351,-6.35378646851,-0.383518189192,-0.360397338867,-0.00382510223426,-6.93450546265,-0.143668279052,-2.65215682983,-0.0705483332276,16.56710624699,94.219009399433,48.26747894285,37.59347152707,789
1.64951518588564E+018,77,1.64951518588564E+018,r1000913c5/base_footprint,0,1.64951518588564E+018,v/m1vw10zy74w/map,-7.80353731261,-0.756231313062,0,0,0,-0.0226199963718,0.999744135149,0,70.1840591431,20.9095401764,44.9683532715,94.5794067383,55.2111968994,55.2111968994,70.1840591431,70.1840591431,33.4536972046,0.0504318810999,0,0.00193738332018,0.0885109230876,0.0767136588693,0.0747762769461,-4.34243392944,-0.262111783028,-0.360397338867,-0.00382510223426,-6.94371795654,-0.143859133124,4.13977432251,0.110119499266,16.56710624696,94.219009399433,48.26747894286,37.59347152711,789
1.64951518598593E+018,78,1.64951518598593E+018,r1000913c5/base_footprint,0,1.64951518598593E+018,v/m1vw10zy74w/map,-7.66624242425,-0.762209432253,0,0,0,-0.0180760347077,0.999836615137,0,69.6652679443,22.2168197632,44.8646888733,94.1761016846,55.1479301453,55.1479301453,69.6652679443,69.6652679443,40.6567230225,0.297957330942,0,0.00261616171338,0.0997334942222,0.0524870119989,0.0498708486557,-6.44456672668,-0.408601522446,0.230606079102,0.00244268751703,-8.04251480103,-0.170734405518,-3.99879455566,-0.109084032476,15.77225303652,94.406707763702,47.10541534427,36.65792846684,1024
1.6495151860853E+018,79,1.6495151860853E+018,r1000913c5/base_footprint,0,1.6495151860853E+018,v/m1vw10zy74w/map,-7.52114964918,-0.768723986548,0,0,0,-0.0111064998486,0.999938320928,0,70.1645431519,20.2722415924,44.8900566101,93.6728363037,55.1050376892,55.1050376892,70.1645431519,70.1645431519,29.3948764801,0.327106356621,0,0.00257489085197,0.108955860138,0.0345061719418,0.0319312810898,-4.5204782486,-0.286982357502,0.813850402832,0.00861338712275,-8.59321594238,-0.184753373265,6.83244895935,0.188599318266,15.7517633438,94.486686706532,46.51182174682,36.22732543945,1181
1.64951518618617E+018,80,1.64951518618617E+018,r1000913c5/base_footprint,0,1.64951518618617E+018,v/m1vw10zy74w/map,-7.40386387068,-0.772679646879,0,0,0,-0.00509513894367,0.999987019695,0,70.0280380249,24.8640632629,45.2044067383,93.9529571533,54.9836082458,54.9836082458,70.0280380249,70.0280380249,31.5488510132,0.217407077551,0,0.00214470550418,0.118869513273,0.0281470958143,0.0260023903102,-8.85804176331,-0.553419351578,0.599456787109,0.00633994163945,-8.5385017395,-0.183840721846,4.58199691772,0.126816749573,16.00602149959,94.552413940409,46.4451065063,36.13084793092,1220
1.64951518628536E+018,81,1.64951518628536E+018,r1000913c5/base_footprint,0,1.64951518628536E+018,v/m1vw10zy74w/map,-7.28821580362,-0.750997334984,0,0,0,0.0033168225689,0.999994499329,0,70.3395614624,17.1355495453,45.8375740051,93.6507492065,54.952205658,54.952205658,70.3395614624,70.3395614624,24.5143699646,0.461148411036,0,0.00174799899105,0.134722515941,0.0260360110551,0.0242880117148,-1.21828365326,-0.07653850317,0.866203308105,0.00916452892125,-8.61183929443,-0.185838833451,11.385684967,0.31714951992,15.91726589204,94.516952514605,46.34036636357,35.9000549316,1231
1.64951518638528E+018,82,1.64951518638528E+018,r1000913c5/base_footprint,0,1.64951518638528E+018,v/m1vw10zy74w/map,-7.0681399711,-0.747417095446,0,0,0,0.0139644936761,0.999902491704,0,69.8100585938,24.6646022797,46.5779571533,93.8703994751,55.0789146423,55.0789146423,69.8100585938,69.8100585938,36.2046394348,0.197473138571,0,0.00187174521852,0.144027888775,0.0256594400853,0.0237876940519,-8.43245315552,-0.519490838051,0.653442382812,0.00691299000755,-8.79945755005,-0.190137445927,-0.511737823486,-0.0143372435123,16.23214912418,94.523841857912,46.27945709225,35.692901611314,1249
1.64951518648546E+018,83,1.64951518648546E+018,r1000913c5/base_footprint,0,1.64951518648546E+018,v/m1vw10zy74w/map,-6.93009572969,-0.718781420233,0,0,0,0.0162001203368,0.99986876944,0,69.9470214844,19.8334197998,47.3018226624,94.4529266357,55.0568656921,55.0568656921,69.9470214844,69.9470214844,35.5983352661,0.285003393888,0,0.00166823319159,0.156755194068,0.0235417764634,0.021873543039,-3.22922515869,-0.19448249042,0.0341110229492,0.000361012731446,-8.68546676636,-0.187302231789,0.276126861572,0.00769703136757,16.60419464111,94.4870376586492,46.37139892574,35.874462127672,1261
1.64951518658492E+018,84,1.64951518658492E+018,r1000913c5/base_footprint,0,1.64951518658492E+018,v/m1vw10zy74w/map,-6.80871909993,-0.715504422972,0,0,0,0.0154773424505,0.999880218762,0,69.7015304565,25.3196926117,47.689250946,94.8553009033,55.1676979065,55.1676979065,69.7015304565,69.7015304565,42.6626701355,0.0415083020926,0,0.00163376552518,0.169319555163,0.0167725123465,0.0151387462392,-8.62842750549,-0.516942679882,-0.395393371582,-0.00418583257124,-8.68456268311,-0.186832547188,-6.62926864624,-0.18397565186,16.69126510621,94.459907531718,46.48313522339,36.03340148926,1234
1.64951518668474E+018,85,1.64951518668474E+018,r1000913c5/base_footprint,0,1.64951518668474E+018,v/m1vw10zy74w/map,-6.67351044881,-0.712807064477,0,0,0,0.0119648680605,0.999928418404,0,69.9181137085,20.8924942017,47.8989982605,95.2811584473,55.0285148621,55.0285148621,69.9181137085,69.9181137085,38.7941398621,0.15577866137,0,0.00181413581595,0.180932044983,0.0109737692401,0.00915963295847,-4.12325286865,-0.245881900191,-1.01384735107,-0.0107550257817,-7.575756073,-0.159648373723,-1.68088531494,-0.0452907010913,16.76924133305,94.26731109623,47.4527587891,37.11325454716,923
1.64951518678535E+018,86,1.64951518678535E+018,r1000913c5/base_footprint,0,1.64951518678535E+018,v/m1vw10zy74w/map,-6.51969036737,-0.711999114963,0,0,0,0.00787278251673,0.999969009168,0,69.8964996338,17.5465049744,48.0855178833,95.3537597656,55.0000228882,55.0000228882,69.8964996338,69.8964996338,39.1367988586,0.0757612511516,0,0.00128552538808,0.19333294034,0.000280877458863,0.00156640284695,-1.3701839447,-0.084703065455,-1.16017913818,-0.0123169664294,-7.37738800049,-0.15491348505,-1.79424285889,-0.0480482056737,16.1763210297,94.19358062742,47.62263488771,37.34255599971,856
1.64951518688526E+018,87,1.64951518688526E+018,r1000913c5/base_footprint,0,1.64951518688526E+018,v/m1vw10zy74w/map,-6.27862684101,-0.711500092846,0,0,0,-0.000177293763267,0.999999984283,0,69.4533843994,11.5216331482,48.2768669128,95.3798522949,54.8917579651,54.8917579651,69.4533843994,69.4533843994,46.0375366211,0.143484324217,0,0.00116581097245,0.199492827058,0.00500780949369,0.00617362046614,3.45684528351,0.230787485838,-1.28104400635,-0.013613817282,-7.22004699707,-0.151453495026,-8.39636993408,-0.223063483834,14.97847843171,94.09880828855,47.67171096803,37.64116668702,819
1.64951518698559E+018,88,1.64951518698559E+018,r1000913c5/base_footprint,0,1.64951518698559E+018,v/m1vw10zy74w/map,-6.09219945239,-0.711245653189,0,0,0,-0.00347093178955,0.999993976298,0,70.1092300415,8.1779050827,48.3882064819,95.2027740479,54.7497367859,54.7497367859,70.1092300415,70.1092300415,32.0609474182,0.304468721151,0,0.000636519514956,0.211134210229,0.0121451085433,0.0127816284075,6.01790523529,0.423921227455,-1.11939239502,-0.0118978759274,-7.09875488281,-0.148973941803,5.39698028564,0.144081115723,14.19581031799,94.08338165288,47.65098190309,37.45792770384,796
1.6495151870857E+018,89,1.6495151870857E+018,r1000913c5/base_footprint,0,1.6495151870857E+018,v/m1vw10zy74w/map,-5.9360296037,-0.717073627906,0,0,0,-0.00847788266717,0.999964062107,0,70.2394714355,15.4107923508,48.3915672302,95.0307998657,54.7516212463,54.7516212463,70.2394714355,70.2394714355,29.1179447174,0.344135224819,0,0.000287000351818,0.221889033914,0.0186888929456,0.0189758930355,-2.08723545074,-0.156657531857,-0.977752685547,-0.010395757854,-7.1303062439,-0.149729296565,7.84872245789,0.212318912148,13.32355690006,94.053047180153,47.6213150024,36.96666717529,769
1.64951518718495E+018,90,1.64951518718495E+018,r1000913c5/base_footprint,0,1.64951518718495E+018,v/m1vw10zy74w/map,-5.78708733988,-0.719130700507,0,0,0,-0.0123282668309,0.999924004031,0,69.9378051758,17.9436473846,48.2955360413,94.8760528564,54.6857032776,54.6857032776,69.9378051758,69.9378051758,33.2788848877,0.422676414251,0,0.000156776266522,0.23340408504,0.0313915573061,0.031548332423,-5.15547943115,-0.403144478798,-0.84204864502,-0.00895472522825,-7.17446136475,-0.151005551219,3.05641555786,0.0841169729829,12.78816795345,94.03400421138,47.51124191285,36.33530044556,753
1.64951518728517E+018,91,1.64951518728517E+018,r1000913c5/base_footprint,0,1.64951518728517E+018,v/m1vw10zy74w/map,-5.63415924544,-0.719487254308,0,0,0,-0.0139693907855,0.9999024233,0,69.3433074951,17.248254776,48.110496521,94.7763519287,54.5925559998,54.5925559998,69.3433074951,69.3433074951,42.6149215698,0.444668322802,0,0.000548697309569,0.245834842324,0.0345629937947,0.0340142957866,-4.61120891571,-0.364896118641,-0.726173400879,-0.00772112747654,-7.01505661011,-0.147444829345,-6.88520050049,-0.192702323198,12.63704586029,94.050178527821,47.57749938969,35.72972106931,755
1.64951518738538E+018,92,1.64951518738538E+018,r1000913c5/base_footprint,0,1.64951518738538E+018,v/m1vw10zy74w/map,-5.39230450021,-0.722042116447,0,0,0,-0.0106759690488,0.999943010219,0,68.8092346191,18.1585674286,47.8902778625,94.546875,54.4446029663,54.4446029663,68.8092346191,68.8092346191,49.8042755127,0.175089508295,0,0.000659936282318,0.258822768927,0.0248953253031,0.0242353901267,-5.95918655396,-0.488482713699,-0.520477294922,-0.00553543819115,-6.77900695801,-0.142220124602,-13.7787971497,-0.382473677397,12.19938087464,94.026397705078,47.66559600829,36.025478363,748
1.64951518748476E+018,93,1.64951518748476E+018,r1000913c5/base_footprint,0,1.64951518748476E+018,v/m1vw10zy74w/map,-5.34003663797,-0.72426804743,0,0,0,-0.0100173119115,0.999949825472,0,69.5893630981,18.0672264099,47.7386245728,94.9295120239,54.5430030823,54.5430030823,69.5893630981,69.5893630981,38.2020835876,0.169615104795,0,0.00076488032937,0.265649646521,0.020968677476,0.0202037971467,-6.02355670929,-0.500142991543,-0.912811279297,-0.00970903318375,-6.9069480896,-0.14499412477,-2.05098342896,-0.0567336380482,12.04366970061,94.016700744603,47.6360549927,36.15110015864,749
1.64951518758537E+018,94,1.64951518758537E+018,r1000913c5/base_footprint,0,1.64951518758537E+018,v/m1vw10zy74w/map,-5.17137393256,-0.72506633359,0,0,0,-0.00607440908366,0.999981550607,0,69.2646179199,18.3889770508,47.5858268738,94.7315444946,54.5472602844,54.5472602844,69.2646179199,69.2646179199,43.3809089661,0.763099789619,0,0.000880184932612,0.269042044878,0.0190862137824,0.0182060301304,-7.17654323578,-0.640052199364,-0.794715881348,-0.00846011005342,-6.98104858398,-0.146764859557,-6.45883560181,-0.174931555986,11.21243381502,93.936828613252,47.56621170042,36.92207336429,734
1.64951518768556E+018,95,1.64951518768556E+018,r1000913c5/base_footprint,0,1.64951518768556E+018,v/m1vw10zy74w/map,-5.0063498052,-0.72868093052,0,0,0,-0.00332570165744,0.999994469839,0,69.5648803711,18.7922954559,47.4639358521,94.5484771729,54.6358985901,54.6358985901,69.5648803711,69.5648803711,38.2744483948,0.407895356417,0,0.00118016451597,0.284087747335,0.00996988639235,0.00878972187638,-8.25803661346,-0.783921957016,-0.710884094238,-0.00757568562403,-7.13736343384,-0.150264918804,-1.0376739502,-0.0278669130057,10.53425884244,93.837593078662,47.49853515626,37.2367744446,740
1.64951518778482E+018,96,1.64951518778482E+018,r1000913c5/base_footprint,0,1.64951518778482E+018,v/m1vw10zy74w/map,-4.84100362981,-0.733198923925,0,0,0,-0.00163742384522,0.999998659421,0,69.890838623,5.88235282898,47.4956169128,94.6800460815,54.8304901123,54.8304901123,69.890838623,69.890838623,34.9824180603,0.538520097733,0,0.000688269210514,0.291790574789,0.00950439274311,0.00881612394005,4.03014278412,0.406571954489,-0.671401977539,-0.00714191747829,-9.25857162476,-0.203163966537,0.400455474854,0.0113177774474,9.9124956131,94.008644103961,45.57191848754,35.382873535154,972
1.6495151878859E+018,97,1.6495151878859E+018,r1000913c5/base_footprint,0,1.6495151878859E+018,v/m1vw10zy74w/map,-4.67156734204,-0.734616746727,0,0,0,-0.0013133232682,0.999999137591,0,69.8778686523,12.8151264191,47.5551986694,94.5527572632,54.809047699,54.809047699,69.8778686523,69.8778686523,34.5259971619,0.533625483513,0,0.000737020047382,0.30087184906,0.0175989922136,0.0168619714677,-3.20143604279,-0.333008021116,-0.552024841309,-0.00587255880237,-10.7513618469,-0.244029194117,-1.14545059204,-0.0343149155378,9.61369037631,94.000732421891,44.0576858521,33.38054656986,1250
1.64951518798521E+018,98,1.64951518798521E+018,r1000913c5/base_footprint,0,1.64951518798521E+018,v/m1vw10zy74w/map,-4.49730428047,-0.736425552511,0,0,0,-0.00302242846428,0.999995432453,0,69.8034515381,9.66386508942,47.4479217529,94.4111633301,54.7290344238,54.7290344238,69.8034515381,69.8034515381,34.4916191101,1.24854195118,0,0.00137797533534,0.315442860126,0.00321706826799,0.00183909304906,-0.095892906189,-0.0100222807378,-0.404830932617,-0.00430642208084,-10.9398384094,-0.249829620123,-1.64035415649,-0.0499327555299,9.567972183231,94.006332397483,43.7891960144,32.85126495361,1362
1.64951518808543E+018,99,1.64951518808543E+018,r1000913c5/base_footprint,0,1.64951518808543E+018,v/m1vw10zy74w/map,-4.32194119195,-0.737729766459,0,0,0,-0.0035191974783,0.999993807605,0,69.8405914307,7.12074279785,47.4627418518,94.1637191772,54.4534988403,54.4534988403,69.8405914307,69.8405914307,29.9565658569,0.803954780102,0,0.000680999073666,0.326688885689,0.0226420499384,0.0233230479062,2.37782382965,0.250335007906,-0.167007446289,-0.00177673716098,-10.9467201233,-0.251609534025,2.398021698,0.0741169005632,9.4985666275,93.996711730911,43.506778717,32.3545875549,1401
1.64951518858583E+018,100,1.64951518858583E+018,r1000913c5/base_footprint,0,1.64951518858583E+018,v/m1vw10zy74w/map,-3.11276804331,-0.831748858798,0,0,0,-0.102597013225,0.99472300309,0,68.2356338501,1.79873597622,48.0518531799,94.6694946289,52.5158576965,52.5158576965,68.2356338501,68.2356338501,39.7400360107,0.867721736431,0,0.0020239118021,0.379570245743,0.0333383642137,0.0313144512475,6.26438570023,0.776918172836,-0.799034118652,-0.00851209368557,-6.50646591187,-0.141416043043,-4.48013305664,-0.12706027925,8.06312167645,93.870460510248,46.00939178463,35.25990295406,770
