%time,field.header.seq,field.header.stamp,field.header.frame_id,field.pose.header.seq,field.pose.header.stamp,field.pose.header.frame_id,field.pose.pose.position.x,field.pose.pose.position.y,field.pose.pose.position.z,field.pose.pose.orientation.x,field.pose.pose.orientation.y,field.pose.pose.orientation.z,field.pose.pose.orientation.w,field.label,field.main_output,field.scan_score,field.pose_score,field.cov_score,field.lhood_map_score,field.lhood_robot_score,field.lhood_map_score_all,field.lhood_robot_score_all,field.point_angle_diff,field.average_orientation,field.map_average_orientation,field.sensor_div,field.odom_div_x,field.odom_div_w,field.imu_div_w,field.kdtree_div,field.kdtree_div_p,field.cov_div,field.cov_div_p,field.likelihood_div,field.likelihood_div_p,field.normal_diff_div,field.normal_diff_div_p,field.kdtree_average,field.cov_average,field.likelihood_average,field.normal_diff_average,field.map_update_count
1.64952020704935E+018,0,1.64952020704935E+018,r1000913c5/base_footprint,0,1.64952020704935E+018,v/m1vw10zy74w/map,-8.71322431835,-0.785624535246,0,0,0,-0.85922442254,0.511598858199,0,61.0066413879,2.52100849152,100,95.2826309204,40.3428573608,40.3428573608,61.0066413879,61.0066413879,40.6007728577,0.315317481756,0,0.000981909688562,0.442348569632,0.036504752934,0.0355228446424,15.6905546188,0.861571013927,-0.728492736816,-0.00770450383425,6.20209884644,0.133249640465,-6.00639343262,-0.173623383045,18.21156311032,94.554138183584,46.54495620724,34.59437942508,1176
1.64952020714891E+018,1,1.64952020714891E+018,r1000913c5/base_footprint,0,1.64952020714891E+018,v/m1vw10zy74w/map,-8.71281037492,-0.78477492105,0,0,0,-0.82580872888,0.563950302159,0,61.3681716919,19.9614276886,36.6965065002,95.3180618286,40.6749649048,40.6749649048,61.3681716919,61.3681716919,37.8075675964,0.034511692822,0,0.000566547736526,0.411943554878,0.0470242984593,0.0464577525854,-1.74986457825,-0.0960853621364,-0.76392364502,-0.0080792196095,5.86999130249,0.126114442945,-3.21318817139,-0.0928817987442,18.21156311035,94.55413818358,46.54495620729,34.59437942501,1176
1.64952020724888E+018,2,1.64952020724888E+018,r1000913c5/base_footprint,0,1.64952020724888E+018,v/m1vw10zy74w/map,-8.71281037492,-0.78477492105,0,0,0,-0.82580872888,0.563950302159,0,61.6127967834,24.0986709595,38.3235855103,95.3180618286,40.9945640564,40.9945640564,61.6127967834,61.6127967834,36.8559303284,-0.0963503718376,0,4.17046576331E-05,0.313877314329,0.081477753818,0.0814360529184,-5.88710784912,-0.323262095451,-0.76392364502,-0.0080792196095,5.55039215088,0.119247980416,-2.26155090332,-0.0653733611107,18.21156311038,94.55413818358,46.54495620728,34.59437942508,1176
1.64952020734934E+018,3,1.64952020734934E+018,r1000913c5/base_footprint,0,1.64952020734934E+018,v/m1vw10zy74w/map,-8.71392637338,-0.787441628893,0,0,0,-0.791707141525,0.610900811964,0,61.7735900879,15.8371038437,40.1224327087,95.5927810669,41.0697250366,41.0697250366,61.7735900879,61.7735900879,35.7623939514,0.0229679048061,0,0.000897451245692,0.263249307871,0.0977263376117,0.0968288853765,2.37445926666,0.130381956697,-1.0386428833,-0.0109846368432,5.47523117065,0.11763317883,-1.16801452637,-0.0337631292641,18.21156311036,94.5541381836,46.54495620725,34.59437942503,1176
1.64952020745027E+018,4,1.64952020745027E+018,r1000913c5/base_footprint,0,1.64952020745027E+018,v/m1vw10zy74w/map,-8.71556184017,-0.789948277698,0,0,0,-0.757077302575,0.653325307887,0,61.9040412903,16.0966720581,41.6437110901,95.677772522,41.3906593323,41.3906593323,61.9040412903,61.9040412903,37.186340332,0.0486981272697,0,0.00184638949577,0.219141229987,0.108850419521,0.107004031539,2.11489105225,0.116129025817,-1.12363433838,-0.0118835028261,5.154296875,0.110738031566,-2.59196090698,-0.0749243348837,18.21156311035,94.55413818362,46.5449562073,34.59437942502,1176
1.6495202083499E+018,5,1.6495202083499E+018,r1000913c5/base_footprint,0,1.6495202083499E+018,v/m1vw10zy74w/map,-8.71374095047,-0.789762093333,0,0,0,-0.721321412036,0.692600476854,0,62.1725883484,19.7860965729,42.7968444824,96.1870956421,41.5409851074,41.5409851074,62.1725883484,62.1725883484,35.8095703125,0.092047534883,0,0.00035016098991,0.0651717931032,0.220226988196,0.219876825809,-1.57453346252,-0.086457900703,-1.6329574585,-0.0172700788826,5.00397109985,0.107508338988,-1.21519088745,-0.0351268313825,18.21156311038,94.5541381836,46.54495620725,34.59437942505,1176
1.64952020844954E+018,6,1.64952020844954E+018,r1000913c5/base_footprint,0,1.64952020844954E+018,v/m1vw10zy74w/map,-8.71374095047,-0.789762093333,0,0,0,-0.721321412036,0.692600476854,0,62.0139045715,15.2249135971,43.6664543152,96.1870956421,41.5457115173,41.5457115173,62.0139045715,62.0139045715,38.7169265747,0.0349995158613,0,0.00276069506072,0.0027694797609,0.216730728745,0.213970035315,2.98664951324,0.163997426629,-1.6329574585,-0.0172700788826,4.99924468994,0.107406795025,-4.12254714966,-0.119168117642,18.21156311034,94.5541381836,46.54495620724,34.59437942504,1176
1.64952020854924E+018,7,1.64952020854924E+018,r1000913c5/base_footprint,0,1.64952020854924E+018,v/m1vw10zy74w/map,-8.71374095047,-0.789762093333,0,0,0,-0.721321412036,0.692600476854,0,62.2133674622,15.2249135971,44.3535308838,96.1870956421,41.5977592468,41.5977592468,62.2133674622,62.2133674622,35.6887359619,0.161573246121,0,0.00426668906584,0.0634167715907,0.212874278426,0.208607584238,2.98664951324,0.163997426629,-1.6329574585,-0.0172700788826,4.94719696045,0.106288574636,-1.09435653687,-0.031633939594,18.21156311034,94.5541381836,46.54495620725,34.59437942503,1176
1.64952020864903E+018,8,1.64952020864903E+018,r1000913c5/base_footprint,0,1.64952020864903E+018,v/m1vw10zy74w/map,-8.71374095047,-0.789762093333,0,0,0,-0.721321412036,0.692600476854,0,61.8865242004,15.4684095383,44.9085884094,96.1870956421,41.5009460449,41.5009460449,61.8865242004,61.8865242004,40.5263137817,0.225266188383,0,0.00749277230352,0.108238644898,0.206607162952,0.199114382267,2.74315357208,0.150627031922,-1.6329574585,-0.0172700788826,5.04401016235,0.108368568122,-5.93193435669,-0.171471044421,18.21156311038,94.5541381836,46.54495620725,34.59437942501,1176
1.64952020874918E+018,9,1.64952020874918E+018,r1000913c5/base_footprint,0,1.64952020874918E+018,v/m1vw10zy74w/map,-8.71374095047,-0.789762093333,0,0,0,-0.721321412036,0.692600476854,0,62.0448646545,18.3494300842,45.3656539917,96.1870956421,41.6098060608,41.6098060608,62.0448646545,62.0448646545,38.8518943787,0.0277318954468,0,0.00685412157327,0.112200193107,0.209681764245,0.202827632427,-0.137866973877,-0.00757029885426,-1.6329574585,-0.0172700788826,4.93515014648,0.106029748917,-4.25751495361,-0.123069554567,18.211563110323,94.5541381836,46.54495620728,34.59437942509,1176
1.64952020884905E+018,10,1.64952020884905E+018,r1000913c5/base_footprint,0,1.64952020884905E+018,v/m1vw10zy74w/map,-8.71374095047,-0.789762093333,0,0,0,-0.721321412036,0.692600476854,0,62.0739021301,19.5046443939,45.7482261658,96.1870956421,41.6345405579,41.6345405579,62.0739021301,62.0739021301,38.5963745117,0.151306182146,0,0.00508063379675,0.114510796964,0.215177953243,0.210097327828,-1.29308128357,-0.0710033103824,-1.6329574585,-0.0172700788826,4.91041564941,0.105498343706,-4.00199508667,-0.11568339169,18.21156311033,94.5541381836,46.54495620731,34.59437942503,1176
1.64952020904931E+018,11,1.64952020904931E+018,r1000913c5/base_footprint,0,1.64952020904931E+018,v/m1vw10zy74w/map,-8.71495266219,-0.929465300799,0,0,0,-0.704136073803,0.710065060096,0,62.196647644,15.0818223953,46.0729522705,96.4664764404,41.6831169128,41.6831169128,62.196647644,62.196647644,37.9173278809,0.286454975605,0,0.00171148998197,0.111329883337,0.222568884492,0.220857396722,2.9194726944,0.162181258202,-1.87744140625,-0.0198484044522,4.56965637207,0.09879745543,-3.21477127075,-0.0926378816366,18.0012950897,94.58903503415,46.25277328487,34.70255661015,1167
1.64952020924899E+018,12,1.64952020924899E+018,r1000913c5/base_footprint,0,1.64952020924899E+018,v/m1vw10zy74w/map,-8.71495266219,-0.929465300799,0,0,0,-0.704136073803,0.710065060096,0,61.9834327698,20.96991539,46.3519210815,96.4664764404,41.650680542,41.650680542,61.9834327698,61.9834327698,41.4048423767,0.0719767361879,0,0.0019336900441,0.107689373195,0.221075087786,0.2191413939,-2.96862030029,-0.164911478758,-1.87744140625,-0.0198484044522,4.60209274292,0.0994987413287,-6.7022857666,-0.193135216832,18.00129508971,94.58903503415,46.25277328492,34.7025566101,1167
1.64952020934896E+018,13,1.64952020934896E+018,r1000913c5/base_footprint,0,1.64952020934896E+018,v/m1vw10zy74w/map,-8.71495266219,-0.929465300799,0,0,0,-0.704136073803,0.710065060096,0,62.1041145325,16.4795684814,46.5941047668,96.4664764404,41.6489715576,41.6489715576,62.1041145325,62.1041145325,39.2141342163,0.135534107685,0,0.00214640330523,0.105854645371,0.217471987009,0.215325579047,1.52172660828,0.0845342874527,-1.87744140625,-0.0198484044522,4.60380172729,0.0995356887579,-4.5115776062,-0.130007073283,18.00129508968,94.58903503415,46.25277328489,34.7025566101,1167
1.64952020944923E+018,14,1.64952020944923E+018,r1000913c5/base_footprint,0,1.64952020944923E+018,v/m1vw10zy74w/map,-8.71495266219,-0.929465300799,0,0,0,-0.704136073803,0.710065060096,0,62.1743545532,17.0086631775,46.8062858582,96.4664764404,41.6019058228,41.6019058228,62.1743545532,62.1743545532,37.4414749146,0.129723206162,0,0.00231587677263,0.102544993162,0.208532109857,0.206216230989,0.992631912231,0.055142249912,-1.87744140625,-0.0198484044522,4.65086746216,0.100553266704,-2.73891830444,-0.078925549984,18.001295089731,94.58903503415,46.25277328496,34.70255661016,1167
1.64952020964896E+018,15,1.64952020964896E+018,r1000913c5/base_footprint,0,1.64952020964896E+018,v/m1vw10zy74w/map,-8.71495266219,-0.929465300799,0,0,0,-0.704136073803,0.710065060096,0,62.0777626038,17.2113285065,46.993686676,96.4664764404,41.4454193115,41.4454193115,62.0777626038,62.0777626038,37.4900932312,0.0977631509304,0,0.00231956457719,0.100981324911,0.204406142235,0.202086567879,0.789966583252,0.0438838750124,-1.87744140625,-0.0198484044522,4.80735397339,0.103936553001,-2.78753662109,-0.0803265497088,18.001295089752,94.58903503415,46.25277328489,34.70255661011,1167
1.649520209749E+018,16,1.649520209749E+018,r1000913c5/base_footprint,0,1.649520209749E+018,v/m1vw10zy74w/map,-8.71603604347,-1.05654293166,0,0,0,-0.705352586281,0.70885663503,0,62.227519989,18.8948307037,47.1464614868,96.2403182983,41.454662323,41.454662323,62.227519989,62.227519989,34.0801696777,0.28843075037,0,0.00284029194154,0.0977165997028,0.196906462312,0.194066181779,-0.970727920532,-0.0541576854885,-1.61212921143,-0.0170364584774,4.59519195557,0.0997873321176,0.675792694092,0.0194439347833,17.924102783168,94.62818908687,46.04985427857,34.755962371792,1079
1.6495202098495E+018,17,1.6495202098495E+018,r1000913c5/base_footprint,0,1.6495202098495E+018,v/m1vw10zy74w/map,-8.72273398649,-1.03665821298,0,0,0,-0.703573111445,0.710622879488,0,62.3265686035,18.2757072449,46.9167671204,96.4269561768,41.4717941284,41.4717941284,62.3265686035,62.3265686035,33.1542129517,0.20279186964,0,0.00311712501571,0.0961373895407,0.193186745048,0.190069615841,-0.35160446167,-0.0196162927896,-1.79876708984,-0.0190087873489,4.57806015015,0.0994153022766,1.60174942017,0.0460855998099,17.92410278323,94.62818908696,46.04985427855,34.75596237187,1079
1.64952020995171E+018,18,1.64952020995171E+018,r1000913c5/base_footprint,0,1.64952020995171E+018,v/m1vw10zy74w/map,-8.72273398649,-1.03665821298,0,0,0,-0.703573111445,0.710622879488,0,62.433719635,18.5520362854,46.7244873047,96.4269561768,41.4861526489,41.4861526489,62.433719635,62.433719635,31.3805770874,0.427403569221,0,0.00352520286106,0.0932632610202,0.186223730445,0.182698518038,-0.627933502197,-0.0350329130888,-1.79876708984,-0.0190087873489,4.56370162964,0.0991034954786,3.37538528442,0.0971167236567,17.924102783203,94.62818908696,46.04985427854,34.75596237182,1079
1.6495202100488E+018,19,1.6495202100488E+018,r1000913c5/base_footprint,0,1.6495202100488E+018,v/m1vw10zy74w/map,-8.72273398649,-1.03665821298,0,0,0,-0.703573111445,0.710622879488,0,62.2409439087,16.7420806885,46.5851211548,96.4269561768,41.4321517944,41.4321517944,62.2409439087,62.2409439087,34.2672805786,0.225770831108,0,0.00448650494218,0.0898265242577,0.178096711636,0.173610210419,1.18202209473,0.0659459531307,-1.79876708984,-0.0190087873489,4.61770248413,0.10027615726,0.488681793213,0.0140603724867,17.92410278323,94.62818908696,46.04985427853,34.755962371813,1079
1.64952021014918E+018,20,1.64952021014918E+018,r1000913c5/base_footprint,0,1.64952021014918E+018,v/m1vw10zy74w/map,-8.72273398649,-1.03665821298,0,0,0,-0.703573111445,0.710622879488,0,62.3552360535,15.3297681808,48.1118736267,96.4269561768,41.4260597229,41.4260597229,62.3552360535,62.3552360535,32.1442298889,0.281401902437,0,0.00588865112513,0.0836969837546,0.161964178085,0.156075522304,2.59433460236,0.144740000367,-1.79876708984,-0.0190087873489,4.62379455566,0.100408449769,2.61173248291,0.0751448795199,17.92410278316,94.62818908696,46.04985427856,34.75596237181,1079
1.64952021024882E+018,21,1.64952021024882E+018,r1000913c5/base_footprint,0,1.64952021024882E+018,v/m1vw10zy74w/map,-8.72526375064,-1.16999305981,0,0,0,-0.709481164655,0.704724397903,0,61.9322776794,18.9542484283,47.2469978333,95.8379821777,41.4056739807,41.4056739807,61.9322776794,61.9322776794,37.417011261,0.296306848526,0,0.00532405171543,0.0764784663916,0.145613878965,0.140289828181,-0.951732635498,-0.0528666451573,-0.96142578125,-0.0101334387437,3.79719924927,0.0840034931898,-2.81896972656,-0.0814777240157,18.002515792802,94.87655639645,45.20287322997,34.59804153444,763
1.64952021034895E+018,22,1.64952021034895E+018,r1000913c5/base_footprint,0,1.64952021034895E+018,v/m1vw10zy74w/map,-8.72656948564,-1.29953202325,0,0,0,-0.711562934765,0.702622366474,0,61.7530784607,17.2113285065,46.456867218,95.3545684814,41.3599205017,41.3599205017,61.7530784607,61.7530784607,38.4081306458,0.615636706352,0,0.00499535212293,0.0707049146295,0.138493299484,0.133497953415,-1.00324630737,-0.0618979036808,-0.198425292969,-0.00208525988273,0.0817375183105,0.00197235145606,-2.40866470337,-0.0669083446264,16.20808219913,95.156143188431,41.4416580200105,35.99946594243,325
1.64952021044961E+018,23,1.64952021044961E+018,r1000913c5/base_footprint,0,1.64952021044961E+018,v/m1vw10zy74w/map,-8.72625739094,-1.31555792076,0,0,0,-0.711639566177,0.702544751494,0,61.7397842407,18.9542484283,45.698299408,95.4551696777,41.2550392151,41.2550392151,61.7397842407,61.7397842407,37.8769302368,0.231822431087,0,0.00539481965825,0.0579327940941,0.100962519646,0.0955676957965,-2.9593706131,-0.185019895434,-0.299354553223,-0.00314594060183,0.078685760498,0.00190366967581,-1.530834198,-0.042118255049,15.9948778152,95.155815124477,41.333724975598,36.3460960388,315
1.64952021054916E+018,24,1.64952021054916E+018,r1000913c5/base_footprint,0,1.64952021054916E+018,v/m1vw10zy74w/map,-8.72625739094,-1.31555792076,0,0,0,-0.711639566177,0.702544751494,0,61.2699165344,15.8437099457,45.0696563721,95.4551696777,41.0988807678,41.0988807678,61.2699165344,61.2699165344,44.6480331421,0.225109800696,0,0.00495773367584,0.0551315806806,0.090143814683,0.0851860791445,0.151167869568,0.00945101771504,-0.299354553223,-0.00314594060183,0.234844207764,0.00568166095763,-8.30193710327,-0.228413447738,15.994877815268,95.155815124477,41.333724975564,36.34609603883,315
1.6495202140491E+018,25,1.6495202140491E+018,r1000913c5/base_footprint,0,1.6495202140491E+018,v/m1vw10zy74w/map,-8.72933159846,-2.24878703425,0,0,0,-0.705791938486,0.708419183512,0,61.3016357422,13.224864006,44.5994491577,95.1671218872,41.0350914001,41.0350914001,61.3016357422,61.3016357422,42.3512001038,0.205162152648,0,0.000775606720708,0.0208979360759,0.0101010091603,0.0108766164631,-1.12027740479,-0.0925498306751,0.246849060059,0.002587137511,-0.586845397949,-0.0145085500553,-13.6471424103,-0.47544297576,12.10458660121,95.413970947259,40.448246002151,28.7040576935,206
1.64952021544918E+018,26,1.64952021544918E+018,r1000913c5/base_footprint,0,1.64952021544918E+018,v/m1vw10zy74w/map,-8.7280079256,-2.38024287866,0,0,0,-0.70763125837,0.706581914698,0,62.9331626892,14.5154466629,44.0853424072,95.5393829346,40.9164733887,40.9164733887,62.9331626892,62.9331626892,13.0427904129,1.32751047611,0,0.00711895897985,0.0795402601361,0.0196087379009,0.0267276968807,-3.18176269531,-0.280735075474,-0.148910522461,-0.00156106287614,-0.572834014893,-0.0141988685355,13.7195367813,0.512643635273,11.33368396759,95.390472412139,40.343639373807,26.7623271942,163
1.64952021555143E+018,27,1.64952021555143E+018,r1000913c5/base_footprint,0,1.64952021555144E+018,v/m1vw10zy74w/map,-8.7280079256,-2.38024287866,0,0,0,-0.70763125837,0.706581914698,0,61.5332984924,7.20795345306,43.2932929993,95.5393829346,40.7079238892,40.7079238892,61.5332984924,61.5332984924,35.9879798889,1.20524084568,0,0.00724467076361,0.0961478576064,0.0196911226958,0.0269357934594,4.12573051453,0.364023774862,-0.148910522461,-0.00156106287614,-0.364284515381,-0.00902954023331,-9.2256526947,-0.344725340605,11.33368396759,95.390472412139,40.343639373819,26.7623271942,163
1.64952021564901E+018,28,1.64952021564901E+018,r1000913c5/base_footprint,0,1.64952021564901E+018,v/m1vw10zy74w/map,-8.7280079256,-2.38024287866,0,0,0,-0.70763125837,0.706581914698,0,61.4135093689,8.86495399475,42.7149963379,95.5393829346,40.4526252747,40.4526252747,61.4135093689,61.4135093689,35.3869438171,1.25746512413,0,0.00745945004746,0.117650158703,0.0200922843069,0.0275517329574,2.46872997284,0.217822372913,-0.148910522461,-0.00156106287614,-0.108985900879,-0.00270143942907,-8.62461662292,-0.322267055511,11.33368396759,95.390472412139,40.343639373821,26.76232719418,163
1.64952021574939E+018,29,1.64952021574939E+018,r1000913c5/base_footprint,0,1.64952021574939E+018,v/m1vw10zy74w/map,-8.7280079256,-2.38024287866,0,0,0,-0.70763125837,0.706581914698,0,61.1233558655,8.21860694885,42.3504524231,95.5393829346,40.2137451172,40.2137451172,61.1233558655,61.1233558655,38.0298309326,1.29379892349,0,0.00776464352384,0.127788737416,0.0209410917014,0.0287057347596,3.11507701874,0.274851232767,-0.148910522461,-0.00156106287614,0.129894256592,0.00321969599463,-11.2675037384,-0.421021074057,11.33368396759,95.390472412139,40.343639373792,26.7623271942,163
1.64952021584916E+018,30,1.64952021584916E+018,r1000913c5/base_footprint,0,1.64952021584916E+018,v/m1vw10zy74w/map,-8.7280079256,-2.38024287866,0,0,0,-0.70763125837,0.706581914698,0,61.1453208923,8.4033613205,42.1996612549,95.5393829346,39.9902305603,39.9902305603,61.1453208923,61.1453208923,35.2204933167,1.33001470566,0,0.0085650999099,0.1449726969,0.0232198685408,0.0317849703133,2.93032264709,0.258549869061,-0.148910522461,-0.00156106287614,0.353408813477,0.00875996332616,-8.45816612244,-0.316047489643,11.33368396759,95.390472412139,40.343639373777,26.76232719426,163
1.64952021594908E+018,31,1.64952021594908E+018,r1000913c5/base_footprint,0,1.64952021594908E+018,v/m1vw10zy74w/map,-8.7280079256,-2.38024287866,0,0,0,-0.70763125837,0.706581914698,0,61.0989112854,8.21860694885,42.2626190186,95.5393829346,39.7287940979,39.7287940979,61.0989112854,61.0989112854,33.2323989868,1.22162973881,0,0.00889281462878,0.151708036661,0.024093516171,0.0329863317311,3.11507701874,0.274851232767,-0.148910522461,-0.00156106287614,0.614845275879,0.0152402035892,-6.4700717926,-0.24176043272,11.33368396759,95.390472412139,40.343639373779,26.7623271942,163
1.64952021604913E+018,32,1.64952021604913E+018,r1000913c5/base_footprint,0,1.64952021604913E+018,v/m1vw10zy74w/map,-8.7280079256,-2.38024287866,0,0,0,-0.70763125837,0.706581914698,0,61.1449661255,9.24369716644,42.5393333435,95.5393829346,39.4580574036,39.4580574036,61.1449661255,61.1449661255,29.4794082642,1.37127792835,0,0.00834068190306,0.162060260773,0.0219788402319,0.0303195212036,2.08998680115,0.18440489471,-0.148910522461,-0.00156106287614,0.885581970215,0.0219509694725,-2.71708106995,-0.101526334882,11.33368396759,95.390472412139,40.343639373815,26.76232719425,163
1.64952021614913E+018,33,1.64952021614913E+018,r1000913c5/base_footprint,0,1.64952021614913E+018,v/m1vw10zy74w/map,-8.7280079256,-2.38024287866,0,0,0,-0.70763125837,0.706581914698,0,60.9805488586,7.56302499771,43.029800415,95.5393829346,39.3072509766,39.3072509766,60.9805488586,60.9805488586,30.8102226257,1.49301433563,0,0.0103873796761,0.1665610075,0.0228353384882,0.033222720027,3.77065896988,0.332694917917,-0.148910522461,-0.00156106287614,1.03638839722,0.025689015165,-4.04789543152,-0.15125349164,11.33368396759,95.390472412139,40.34363937382,26.76232719418,163
1.64952021624952E+018,34,1.64952021624952E+018,r1000913c5/base_footprint,0,1.64952021624952E+018,v/m1vw10zy74w/map,-8.7280079256,-2.38024287866,0,0,0,-0.70763125837,0.706581914698,0,61.077205658,10.2835378647,43.6608352661,95.5393829346,39.1535072327,39.1535072327,61.077205658,61.077205658,27.4099826813,1.39646756649,0,0.0136833833531,0.172080546618,0.0277691595256,0.0414525456727,1.05014610291,0.0926570817828,-0.148910522461,-0.00156106287614,1.19013214111,0.0294998697937,-0.647655487061,-0.0242002680898,11.33368396761,95.390472412139,40.34363937381,26.762327194239,163
1.64952021634997E+018,35,1.64952021634997E+018,r1000913c5/base_footprint,0,1.64952021634997E+018,v/m1vw10zy74w/map,-8.7280079256,-2.38024287866,0,0,0,-0.70763125837,0.706581914698,0,61.0125617981,9.3137254715,44.3650512695,95.5393829346,39.0457954407,39.0457954407,61.0125617981,61.0125617981,27.410276413,1.41043078899,0,0.0153694599867,0.173016384244,0.0309130419046,0.0462825037539,2.01995849609,0.178226113319,-0.148910522461,-0.00156106287614,1.29784393311,0.0321697294712,-0.64794921875,-0.024211242795,11.33368396759,95.390472412139,40.34363937381,26.76232719425,163
1.64952021644925E+018,36,1.64952021644925E+018,r1000913c5/base_footprint,0,1.64952021644925E+018,v/m1vw10zy74w/map,-8.7280079256,-2.38024287866,0,0,0,-0.70763125837,0.706581914698,0,60.5490760803,7.3327960968,45.039390564,95.5393829346,38.9316253662,38.9316253662,60.5490760803,60.5490760803,34.5199775696,1.53243267536,0,0.0179340336472,0.172267869115,0.0369488932192,0.0548829287291,4.00088787079,0.353008598089,-0.148910522461,-0.00156106287614,1.41201400757,0.0349996685982,-7.75765037537,-0.289872050285,11.33368396759,95.390472412139,40.34363937377,26.76232719423,163
1.64952021654914E+018,37,1.64952021654914E+018,r1000913c5/base_footprint,0,1.64952021654914E+018,v/m1vw10zy74w/map,-8.7280079256,-2.38024287866,0,0,0,-0.70763125837,0.706581914698,0,60.7169723511,7.3327960968,45.5027313232,95.5393829346,38.7733955383,38.7733955383,60.7169723511,60.7169723511,29.7889518738,1.44131851196,0,0.0188185740262,0.168931111693,0.0424275137484,0.0612460896373,4.00088787079,0.353008598089,-0.148910522461,-0.00156106287614,1.57024383545,0.0389217212796,-3.02662467957,-0.113092727959,11.33368396759,95.390472412139,40.34363937375,26.76232719423,163
1.64952021664902E+018,38,1.64952021664902E+018,r1000913c5/base_footprint,0,1.64952021664902E+018,v/m1vw10zy74w/map,-8.7280079256,-2.38024287866,0,0,0,-0.70763125837,0.706581914698,0,60.777759552,3.96158456802,46.1196670532,95.5393829346,38.5872116089,38.5872116089,60.777759552,60.777759552,26.6840286255,1.40465128422,0,0.0191273298115,0.166629090905,0.0448798835278,0.0640072077513,7.37209939957,0.650459229946,-0.148910522461,-0.00156106287614,1.75642776489,0.043536670506,0.0782985687256,0.00292570097372,11.33368396759,95.390472412139,40.34363937379,26.7623271942256,163
1.64952021674908E+018,39,1.64952021674908E+018,r1000913c5/base_footprint,0,1.64952021674908E+018,v/m1vw10zy74w/map,-8.7280079256,-2.38024287866,0,0,0,-0.70763125837,0.706581914698,0,60.6200523376,5.88235282898,46.8195800781,95.5393829346,38.4015922546,38.4015922546,60.6200523376,60.6200523376,27.518075943,1.24433004856,0,0.0190786216408,0.160982340574,0.0495017543435,0.0685803741217,5.45133113861,0.480984926224,-0.148910522461,-0.00156106287614,1.94204711914,0.048137627542,-0.755748748779,-0.0282392762601,11.33368396759,95.390472412139,40.34363937374,26.762327194221,163
1.64952021684965E+018,40,1.64952021684965E+018,r1000913c5/base_footprint,0,1.64952021684965E+018,v/m1vw10zy74w/map,-8.7280079256,-2.38024287866,0,0,0,-0.70763125837,0.706581914698,0,60.6619720459,8.1385974884,47.6714935303,95.5393829346,38.4189682007,38.4189682007,60.6619720459,60.6619720459,26.9511508942,1.35757756233,0,0.0189701821655,0.157548293471,0.0509369410574,0.0699071213603,3.19508647919,0.281910687685,-0.148910522461,-0.00156106287614,1.9246711731,0.0477069281042,-0.188823699951,-0.00705557828769,11.33368396759,95.390472412139,40.3436393738,26.762327194249,163
1.64952021694906E+018,41,1.64952021694906E+018,r1000913c5/base_footprint,0,1.64952021694906E+018,v/m1vw10zy74w/map,-8.71863088457,-2.24629119828,0,0,0,-0.720663552287,0.693284966234,0,60.6531562805,9.75020122528,48.0464935303,95.5175704956,38.2174835205,38.2174835205,60.6531562805,60.6531562805,24.8552284241,1.1833384037,0,0.0185806900263,0.150532916188,0.0516601614654,0.0702408477664,2.35438537598,0.194503575563,-0.10359954834,-0.00108579010703,2.23076248169,0.0551510304213,3.84882926941,0.134086593986,12.10458660126,95.41397094726,40.44824600219,28.70405769351,206
1.64952021704952E+018,42,1.64952021704952E+018,r1000913c5/base_footprint,0,1.64952021704952E+018,v/m1vw10zy74w/map,-8.71712822004,-2.24562785622,0,0,0,-0.720057383907,0.693914522028,0,60.3000602722,6.36254501343,51.2086486816,95.8746185303,38.0297470093,38.0297470093,60.3000602722,60.3000602722,30.4688434601,1.31584310532,0,0.0180722028017,0.145118072629,0.0496289767325,0.0677011832595,5.74204158783,0.474369078875,-0.460647583008,-0.00482788402587,2.41849899292,0.059792432934,-1.7647857666,-0.0614821016788,12.10458660126,95.413970947292,40.44824600222,28.7040576935,206
1.64952021714987E+018,43,1.64952021714987E+018,r1000913c5/base_footprint,0,1.64952021714987E+018,v/m1vw10zy74w/map,-8.71712822004,-2.24562785622,0,0,0,-0.720057383907,0.693914522028,0,60.1806488037,4.91539096832,62.5047683716,95.8746185303,37.877456665,37.877456665,60.1806488037,60.1806488037,30.9734802246,1.19258630276,0,0.0181085076183,0.144301250577,0.0480800047517,0.0661885142326,7.18919563293,0.593923270702,-0.460647583008,-0.00482788402587,2.57078933716,0.063557498157,-2.26942253113,-0.0790627747774,12.10458660125,95.413970947292,40.44824600216,28.70405769347,206
1.64952021724957E+018,44,1.64952021724957E+018,r1000913c5/base_footprint,0,1.64952021724957E+018,v/m1vw10zy74w/map,-8.71712822004,-2.24562785622,0,0,0,-0.720057383907,0.693914522028,0,60.1783828735,8.31643009186,75.4884033203,95.8746185303,37.7310905457,37.7310905457,60.1783828735,60.1783828735,29.4334812164,1.06271970272,0,0.0186767168343,0.143196061254,0.046214427799,0.0648911446333,3.7881565094,0.312952160835,-0.460647583008,-0.00482788402587,2.71715545654,0.0671761035919,-0.729423522949,-0.0254118610173,12.10458660126,95.413970947292,40.44824600224,28.704057693451,206
1.64952021734881E+018,45,1.64952021734881E+018,r1000913c5/base_footprint,0,1.64952021734881E+018,v/m1vw10zy74w/map,-8.71712822004,-2.24562785622,0,0,0,-0.720057383907,0.693914522028,0,59.9002418518,4.10958909988,90.4408874512,95.8746185303,37.5114059448,37.5114059448,59.9002418518,59.9002418518,32.067489624,1.02117753029,0,0.018902823329,0.142372116446,0.046021502465,0.0649243295193,7.99499750137,0.660493254662,-0.460647583008,-0.00482788402587,2.93684005737,0.0726073533297,-3.36343193054,-0.117176182568,12.10458660125,95.413970947292,40.44824600217,28.70405769346,206
1.64952021744918E+018,46,1.64952021744918E+018,r1000913c5/base_footprint,0,1.64952021744918E+018,v/m1vw10zy74w/map,-8.71712822004,-2.24562785622,0,0,0,-0.720057383907,0.693914522028,0,59.9384841919,4.46111345291,100,95.8746185303,37.4226837158,37.4226837158,59.9384841919,59.9384841919,30.4209270477,1.05837106705,0,0.0177531987429,0.134271293879,0.0409494005144,0.0587025992572,7.64347314835,0.631452620029,-0.460647583008,-0.00482788402587,3.02556228638,0.0748008266091,-1.71686935425,-0.0598127767444,12.10458660126,95.413970947292,40.44824600218,28.70405769345,206
1.64952021754925E+018,47,1.64952021754925E+018,r1000913c5/base_footprint,0,1.64952021754925E+018,v/m1vw10zy74w/map,-8.71825295369,-2.1124046717,0,0,0,-0.716862479302,0.697214590904,0,59.8910179138,9.5638256073,96.9618301392,96.0417480469,37.512386322,37.512386322,59.8910179138,59.8910179138,32.8457221985,1.01053285599,0,0.0169272571802,0.112405203283,0.0363708846271,0.0532981418073,2.98335361481,0.237770855427,-0.692596435547,-0.00726379221305,3.00138473511,0.0740830749273,-2.92632484436,-0.0978069454432,12.54717922211,95.349151611353,40.51377105711,29.91939735414,242
1.64952021764925E+018,48,1.64952021764925E+018,r1000913c5/base_footprint,0,1.64952021764925E+018,v/m1vw10zy74w/map,-8.7095317388,-1.97722284085,0,0,0,-0.721149121139,0.692779867693,0,59.9528579712,8.67955589294,94.2434616089,95.8775482178,37.5842247009,37.5842247009,59.9528579712,59.9528579712,31.917388916,0.823166847229,0,0.0163876488805,0.089430950582,0.0331404209137,0.0495280697942,4.19414806366,0.325791865587,-0.544097900391,-0.00570731377229,3.0601348877,0.0752905160189,-0.805906295776,-0.0259038209915,12.8737039566,95.333450317409,40.6443595886,31.111482620224,290
1.649520217749E+018,49,1.649520217749E+018,r1000913c5/base_footprint,0,1.649520217749E+018,v/m1vw10zy74w/map,-8.7095317388,-1.97722284085,0,0,0,-0.721149121139,0.692779867693,0,59.8218917847,8.4033613205,94.023109436,95.8775482178,37.7958030701,37.7958030701,59.8218917847,59.8218917847,36.5598297119,0.423500150442,0,0.0157980024815,0.0775161609054,0.0321179032326,0.047915905714,4.47034263611,0.347246021032,-0.544097900391,-0.00570731377229,2.84855651855,0.0700849145651,-5.44834709167,-0.175123348832,12.87370395661,95.333450317409,40.64435958865,31.11148262023,290
1.64952021784963E+018,50,1.64952021784963E+018,r1000913c5/base_footprint,0,1.64952021784963E+018,v/m1vw10zy74w/map,-8.7095317388,-1.97722284085,0,0,0,-0.721149121139,0.692779867693,0,60.0631904602,11.9703826904,93.802734375,95.8775482178,38.1406974792,38.1406974792,60.0631904602,60.0631904602,35.9412918091,0.59693980217,0,0.0129412654787,0.0595540180802,0.0309419929981,0.0438832603395,0.903321266174,0.0701679363847,-0.544097900391,-0.00570731377229,2.50366210938,0.0615992508829,-4.82980918884,-0.155242010951,12.873703956574,95.333450317409,40.64435958858,31.11148262026,290
1.64952021795128E+018,51,1.64952021795128E+018,r1000913c5/base_footprint,0,1.64952021795128E+018,v/m1vw10zy74w/map,-8.70415691551,-1.84461106211,0,0,0,-0.72172165494,0.692183395344,0,59.4518585205,13.6157960892,82.5225372314,95.3517303467,38.4140396118,38.4140396118,59.4518585205,59.4518585205,48.0043983459,0.530262649059,0,0.0122953010723,0.0543252713978,0.0302649773657,0.0425602793694,0.00713729858398,0.000523917900864,-0.0414962768555,-0.000435381138232,2.35546112061,0.057775080204,-15.3635406494,-0.470684349537,13.622933387784,95.3102340698445,40.76950073241,32.6408576965,307
1.64952021804974E+018,52,1.64952021804974E+018,r1000913c5/base_footprint,0,1.64952021804974E+018,v/m1vw10zy74w/map,-8.70415691551,-1.84461106211,0,0,0,-0.72172165494,0.692183395344,0,60.1612854004,14.4385023117,72.5783233643,95.3517303467,38.681728363,38.681728363,60.1612854004,60.1612854004,38.1257400513,0.647116184235,0,0.0113299032673,0.0411440990865,0.0289681050926,0.0402980074286,-0.81556892395,-0.0598673485219,-0.0414962768555,-0.000435381138232,2.08777236938,0.0512091703713,-5.48488235474,-0.168037325144,13.62293338775,95.3102340698445,40.76950073238,32.64085769656,307
1.64952021814899E+018,53,1.64952021814899E+018,r1000913c5/base_footprint,0,1.64952021814899E+018,v/m1vw10zy74w/map,-8.69391046204,-1.70892218167,0,0,0,-0.722588088538,0.691278854228,0,59.5474700928,13.1845846176,64.1776885986,95.0563812256,38.7707977295,38.7707977295,59.5474700928,59.5474700928,49.0731658936,0.344940751791,0,0.0111271124333,0.0320355072618,0.0295020285994,0.0406291410327,1.52328014374,0.103569090366,0.189804077148,0.00199277349748,2.18532180786,0.0533576384187,-14.4244384766,-0.41630500555,14.70786476134,95.246185302748,40.95611953736,34.648727417,309
1.64952021824919E+018,54,1.64952021824919E+018,r1000913c5/base_footprint,0,1.64952021824919E+018,v/m1vw10zy74w/map,-8.69391046204,-1.70892218167,0,0,0,-0.722588088538,0.691278854228,0,59.7672119141,17.7293300629,57.2651939392,95.0563812256,38.8195915222,38.8195915222,59.7672119141,59.7672119141,45.644733429,0.326664417982,0,0.0108894482255,0.0251260437071,0.0307443086058,0.0416337586939,-3.02146530151,-0.205431953073,0.189804077148,0.00199277349748,2.13652801514,0.0521662719548,-10.996006012,-0.317356705666,14.70786476139,95.246185302748,40.95611953734,34.648727417,309
1.64952021834922E+018,55,1.64952021834922E+018,r1000913c5/base_footprint,0,1.64952021834922E+018,v/m1vw10zy74w/map,-8.68472745802,-1.55688693056,0,0,0,-0.725682429708,0.688029804016,0,59.2878875732,12.3732252121,51.2652740479,94.9528579712,38.756942749,38.756942749,59.2878875732,59.2878875732,53.2233200073,0.119859084487,0,0.0104239536449,0.0155052598566,0.0312098041177,0.0416337586939,3.07726860046,0.199169591069,0.242477416992,0.00254715653136,2.36906433105,0.0576050169766,-17.3009872437,-0.481622040272,15.45049381256,95.195335388192,41.12600708005,35.9223327636,314
1.64952021844923E+018,56,1.64952021844923E+018,r1000913c5/base_footprint,0,1.64952021844923E+018,v/m1vw10zy74w/map,-8.68472745802,-1.55688693056,0,0,0,-0.725682429708,0.688029804016,0,59.7134437561,13.5654258728,48.1011199951,94.9528579712,38.7288665771,38.7288665771,59.7134437561,59.7134437561,45.260055542,0.334353297949,0,0.0104168131948,0.00924159958959,0.0312169454992,0.0416337586939,1.88506793976,0.122006967664,0.242477416992,0.00254715653136,2.39714050293,0.0582877025008,-9.33772277832,-0.259941995144,15.45049381256,95.195335388192,41.12600708003,35.92233276368,314
1.64952021854916E+018,57,1.64952021854916E+018,r1000913c5/base_footprint,0,1.64952021854916E+018,v/m1vw10zy74w/map,-8.6782951884,-1.41383411142,0,0,0,-0.724951141523,0.688800292105,0,59.5446395874,13.1464662552,47.8847923279,95.0925445557,38.6351737976,38.6351737976,59.5446395874,59.5446395874,47.7895317078,0.430339038372,0,0.0100428434089,0.00324314436875,0.0315909124911,0.0416337586939,2.55856609344,0.162913769484,0.09521484375,0.00100028456654,2.56741714478,0.0623120330274,-11.5129432678,-0.317365646362,15.70503234864,95.18775939945,41.20259094238,36.27658844,312
1.64952021864961E+018,58,1.64952021864961E+018,r1000913c5/base_footprint,0,1.64952021864961E+018,v/m1vw10zy74w/map,-8.6782951884,-1.41383411142,0,0,0,-0.724951141523,0.688800292105,0,59.6078224182,13.1464662552,47.4737167358,95.0925445557,38.6206512451,38.6206512451,59.6078224182,59.6078224182,46.495388031,0.354437440634,0,0.00951388198882,0.0043836934492,0.0316058844328,0.0411197654903,2.55856609344,0.162913769484,0.09521484375,0.00100028456654,2.58193969727,0.062664501369,-10.2187995911,-0.28169131279,15.70503234864,95.18775939945,41.20259094237,36.2765884399,312
1.64952021875182E+018,59,1.64952021875182E+018,r1000913c5/base_footprint,0,1.64952021875183E+018,v/m1vw10zy74w/map,-8.67005544132,-1.28761900257,0,0,0,-0.724742191562,0.689020141774,0,59.8320198059,13.9959430695,47.1594619751,95.6129150391,38.5930671692,38.5930671692,59.8320198059,59.8320198059,44.0352592468,0.437338918447,0,0.00948816165328,0.0138731859624,0.0310051497072,0.0404933132231,2.24155235291,0.138047918677,-0.459579467773,-0.00482988310978,2.84963989258,0.068760946393,-7.95600891113,-0.220514804125,16.23749542241,95.153335571327,41.44270706178,36.07925033567,321
1.64952021884913E+018,60,1.64952021884913E+018,r1000913c5/base_footprint,0,1.64952021884913E+018,v/m1vw10zy74w/map,-8.67005544132,-1.28761900257,0,0,0,-0.724742191562,0.689020141774,0,59.8001403809,16.4300193787,47.0067138672,95.6129150391,38.5496253967,38.5496253967,59.8001403809,59.8001403809,44.1399116516,0.28971862793,0,0.00948036741465,0.0214740559459,0.0310129448771,0.0404933132231,-0.192523956299,-0.0118567524478,-0.459579467773,-0.00482988310978,2.89308166504,0.0698091834784,-8.06066131592,-0.223415434361,16.237495422401,95.153335571327,41.44270706174,36.07925033568,321
1.64952021894913E+018,61,1.64952021894913E+018,r1000913c5/base_footprint,0,1.64952021894913E+018,v/m1vw10zy74w/map,-8.67005544132,-1.28761900257,0,0,0,-0.724742191562,0.689020141774,0,60.3509674072,18.0527381897,46.9378471375,95.6129150391,38.608455658,38.608455658,60.3509674072,60.3509674072,34.8604164124,0.585042178631,0,0.00991104543209,0.0582450516522,0.0311636719853,0.0410747155547,-1.81524276733,-0.111793272197,-0.459579467773,-0.00482988310978,2.83425140381,0.0683896318078,1.21883392334,0.0337821282446,16.23749542237,95.153335571327,41.44270706181,36.07925033574,321
1.64952021904916E+018,62,1.64952021904916E+018,r1000913c5/base_footprint,0,1.64952021904916E+018,v/m1vw10zy74w/map,-8.66520291928,-1.16506684496,0,0,0,-0.724947747444,0.688803864301,0,60.5294342041,16.5623703003,46.9540977478,95.5448455811,38.7071838379,38.7071838379,60.5294342041,60.5294342041,32.4692268372,0.156735762954,0,0.00855086371303,0.106730654836,0.028185011819,0.0367358736694,1.46527671814,0.0812794193625,-0.638229370117,-0.0067248144187,6.48724746704,0.143540859222,2.2327041626,0.0643394812942,18.02764701844,94.906616210983,45.19443130494,34.7019309998,787
1.64952021914905E+018,63,1.64952021914905E+018,r1000913c5/base_footprint,0,1.64952021914905E+018,v/m1vw10zy74w/map,-8.65545726173,-1.01587050099,0,0,0,-0.724233780353,0.689554516624,0,60.1910514832,21.2865009308,47.0463027954,95.5056686401,38.7472572327,38.7472572327,60.1910514832,60.1910514832,38.851890564,0.215161934495,0,0.00512577733025,0.144991070032,0.026497323066,0.0316230989993,-3.19298934937,-0.17647151649,-0.877563476562,-0.00927381403744,7.2532081604,0.157676845789,-4.06605148315,-0.11688812077,18.09351158143,94.628105163538,46.0004653931,34.78583908085,1080
1.64952021924897E+018,64,1.64952021924897E+018,r1000913c5/base_footprint,0,1.64952021924897E+018,v/m1vw10zy74w/map,-8.65395844472,-1.01523558812,0,0,0,-0.724744289643,0.689017934912,0,60.5550079346,21.2865009308,47.0875167847,95.7884216309,38.725769043,38.725769043,60.5550079346,60.5550079346,33.0864601135,0.171956658363,0,0.00130382447969,0.159296408296,0.0113831199706,0.0100792953745,-3.19298934937,-0.17647151649,-1.16031646729,-0.0122618591413,7.2746963501,0.15814396739,1.69937896729,0.0488526076078,18.09351158143,94.62810516361,46.0004653931,34.78583908079,1080
1.64952021934904E+018,65,1.64952021934904E+018,r1000913c5/base_footprint,0,1.64952021934904E+018,v/m1vw10zy74w/map,-8.65392709285,-0.886872660342,0,0,0,-0.722006296956,0.691886484299,0,61.118106842,15.7279930115,47.129524231,95.7122268677,38.8418426514,38.8418426514,61.118106842,61.118106842,23.9300041199,0.433588713408,0,0.00183575809933,0.16034257412,0.00379609665833,0.001960338559,2.39575958252,0.132188931108,-1.13864898682,-0.012039821595,7.47817230225,0.161445811391,10.7914886475,0.310801416636,18.12375259402,94.57357788088,46.32001495365,34.7214927674,1191
1.64952021944945E+018,66,1.64952021944945E+018,r1000913c5/base_footprint,0,1.64952021944945E+018,v/m1vw10zy74w/map,-8.65509852857,-0.893170975269,0,0,0,-0.722299497214,0.691580390355,0,61.1769561768,18.1585674286,47.2916603088,95.8572387695,39.0054855347,39.0054855347,61.1769561768,61.1769561768,25.1601142883,0.303206145763,0,0.000855163554661,0.15669259429,0.00095953833079,0.000104374754301,-0.0348148345947,-0.00192095071543,-1.28366088867,-0.0135731454939,7.31452941895,0.157912939787,9.561378479,0.275373488665,18.1237525940053,94.57357788083,46.32001495365,34.7214927673,1191
1.64952021954972E+018,67,1.64952021954972E+018,r1000913c5/base_footprint,0,1.64952021954972E+018,v/m1vw10zy74w/map,-8.65509852857,-0.893170975269,0,0,0,-0.722299497214,0.691580390355,0,61.1913108826,23.8754329681,47.3786239624,95.8572387695,39.1733207703,39.1733207703,61.1913108826,61.1913108826,26.714345932,0.200269266963,0,0.00102723529562,0.155184850097,0.00540217384696,0.00437493855134,-5.75168037415,-0.317355930805,-1.28366088867,-0.0135731454939,7.14669418335,0.154289543629,8.00714683533,0.230610668659,18.12375259395,94.57357788083,46.32001495365,34.72149276733,1191
1.6495202196491E+018,68,1.6495202196491E+018,r1000913c5/base_footprint,0,1.6495202196491E+018,v/m1vw10zy74w/map,-8.64441911981,-0.753375971278,0,0,0,-0.725167247684,0.688572772397,0,61.1998939514,22.9792633057,47.5490493774,95.894241333,39.4221725464,39.4221725464,61.1998939514,61.1998939514,29.3805980682,0.0652713254094,0,0.000926191336475,0.155040204525,0.00503095239401,0.00410476094112,-4.75236320496,-0.260733485222,-1.35216522217,-0.0143022583798,7.21370315552,0.154681414366,5.30195045471,0.152870848775,18.22690010074,94.54207611083,46.63587570192,34.68254852291,1166
1.649520219749E+018,69,1.649520219749E+018,r1000913c5/base_footprint,0,1.649520219749E+018,v/m1vw10zy74w/map,-8.64441911981,-0.753375971278,0,0,0,-0.725167247684,0.688572772397,0,61.5215759277,21.5686283112,47.8124542236,95.894241333,39.5893783569,39.5893783569,61.5215759277,61.5215759277,25.3961982727,0.390575140715,0,0.000496128690429,0.154786303639,0.00183908268809,0.00134295399766,-3.34172821045,-0.183340460062,-1.35216522217,-0.0143022583798,7.04649734497,0.151096060872,9.28635025024,0.267752826214,18.22690010075,94.54207611083,46.63587570187,34.68254852294,1166
1.64952021994899E+018,70,1.64952021994899E+018,r1000913c5/base_footprint,0,1.64952021994899E+018,v/m1vw10zy74w/map,-8.63851652528,-0.62643383755,0,0,0,-0.723931562661,0.689871794309,0,61.4804992676,24.0717563629,48.0944671631,95.9613342285,39.7595176697,39.7595176697,61.4804992676,61.4804992676,28.2145824432,0.10230743885,0,0.000181723575224,0.154549002647,0.00142928480636,0.00161100842524,-5.8433303833,-0.320561438799,-1.44105529785,-0.0152459908277,7.04661941528,0.150549054146,6.45994377136,0.186302289367,18.2284259796,94.52027893065,46.80613708498,34.67452621456,1116
1.64952022004921E+018,71,1.64952022004921E+018,r1000913c5/base_footprint,0,1.64952022004921E+018,v/m1vw10zy74w/map,-8.63851652528,-0.62643383755,0,0,0,-0.723931562661,0.689871794309,0,61.6586341858,18.7473545074,48.1269760132,95.9613342285,39.8080253601,39.8080253601,61.6586341858,61.6586341858,25.532037735,0.197617769241,0,0.000371821399312,0.154475018382,0.00150806014426,0.00187988160178,-0.518928527832,-0.0284680929035,-1.44105529785,-0.0152459908277,6.99811172485,0.149512693286,9.14248847961,0.263665854931,18.228425979568,94.52027893065,46.80613708495,34.67452621461,1116
1.64952022014907E+018,72,1.64952022014907E+018,r1000913c5/base_footprint,0,1.64952022014907E+018,v/m1vw10zy74w/map,-8.63851652528,-0.62643383755,0,0,0,-0.723931562661,0.689871794309,0,61.5914306641,22.9792633057,48.2090301514,95.9613342285,39.9667930603,39.9667930603,61.5914306641,61.5914306641,28.4564266205,0.0889687985182,0,0.000223433205974,0.154314294457,0.00135022029281,0.00157365354244,-4.75083732605,-0.260627955198,-1.44105529785,-0.0152459908277,6.83934402466,0.146120667458,6.21809959412,0.179327607155,18.22842597965,94.52027893065,46.80613708496,34.67452621462,1116
1.64952022024953E+018,73,1.64952022024953E+018,r1000913c5/base_footprint,0,1.64952022024953E+018,v/m1vw10zy74w/map,-8.63851652528,-0.62643383755,0,0,0,-0.723931562661,0.689871794309,0,61.5367965698,22.9792633057,49.9949035645,95.9613342285,40.1355819702,40.1355819702,61.5367965698,61.5367965698,31.2627620697,0.0748302340508,0,3.39155521942E-05,0.154228568077,0.000937048636843,0.000903133070096,-4.75083732605,-0.260627955198,-1.44105529785,-0.0152459908277,6.67055511475,0.142514541745,3.4117641449,0.0983939692378,18.22842597965,94.52027893065,46.80613708495,34.6745262146,1116
1.6495202204493E+018,74,1.6495202204493E+018,r1000913c5/base_footprint,0,1.6495202204493E+018,v/m1vw10zy74w/map,-8.63851652528,-0.62643383755,0,0,0,-0.723931562661,0.689871794309,0,61.8707237244,21.5686283112,55.3767929077,95.9613342285,40.2741966248,40.2741966248,61.8707237244,61.8707237244,26.7490653992,0.056790933013,0,0.000141078679007,0.154134631157,0.000140788019053,0.00028186669806,-3.34020233154,-0.183241397142,-1.44105529785,-0.0152459908277,6.53194046021,0.139553070068,7.92546081543,0.228567242622,18.22842597966,94.52027893065,46.80613708501,34.67452621463,1116
1.64952022054928E+018,75,1.64952022054928E+018,r1000913c5/base_footprint,0,1.64952022054928E+018,v/m1vw10zy74w/map,-8.63851652528,-0.62643383755,0,0,0,-0.723931562661,0.689871794309,0,61.8453407288,23.0103797913,61.5483894348,95.9613342285,40.4335403442,40.4335403442,61.8453407288,61.8453407288,28.9268932343,0.271137773991,0,7.40545801818E-05,0.154176786542,0.000355921278242,0.00028186669806,-4.78195381165,-0.26233497262,-1.44105529785,-0.0152459908277,6.37259674072,0.136148735881,5.74763298035,0.165759518743,18.22842597965,94.52027893065,46.80613708492,34.67452621465,1116
1.64952022144899E+018,76,1.64952022144899E+018,r1000913c5/base_footprint,0,1.64952022144899E+018,v/m1vw10zy74w/map,-8.63723613017,-0.508084964215,0,0,0,-0.722931431811,0.690919781813,0,62.0866241455,22.4211425781,65.8413925171,95.7943496704,40.4764175415,40.4764175415,62.0866241455,62.0866241455,24.4457073212,0.195968702435,0,0.00244660465978,0.207523465157,0.0338138900697,0.0362604930997,-4.31642341614,-0.238414272666,-1.28699493408,-0.0136179337278,6.25286102295,0.133810341358,10.1087932587,0.292546361685,18.10471916196,94.50735473632,46.72927856445,34.5545005799,1004
1.64952022154903E+018,77,1.64952022154903E+018,r1000913c5/base_footprint,0,1.64952022154903E+018,v/m1vw10zy74w/map,-8.63723613017,-0.508084964215,0,0,0,-0.722931431811,0.690919781813,0,61.809967041,16.2082099915,67.1708526611,95.7943496704,40.5906486511,40.5906486511,61.809967041,61.809967041,30.6592330933,0.352590978146,0,0.000848283700179,0.205317631364,0.0470751672983,0.0479234531522,1.89650917053,0.104752197862,-1.28699493408,-0.0136179337278,6.13862991333,0.131365820765,3.89526748657,0.112728223205,18.10471916203,94.50735473632,46.72927856443,34.55450057987,1004
1.64952022164887E+018,78,1.64952022164887E+018,r1000913c5/base_footprint,0,1.64952022164887E+018,v/m1vw10zy74w/map,-8.62951377887,-0.463302675699,0,0,0,-0.684749917469,0.728778121602,0,61.7173461914,21.5686283112,65.2057113647,95.1240844727,40.616027832,40.616027832,61.7173461914,61.7173461914,30.187582016,0.264682471752,0,0.00135058164597,0.201093673706,0.0553440637887,0.0566946454346,-3.2970161438,-0.180444732308,-0.593116760254,-0.00627431180328,6.1431350708,0.13137820363,4.41105461121,0.127492144704,18.2716121674,94.530967712446,46.7591629028,34.59863662721,1007
1.64952022174907E+018,79,1.64952022174907E+018,r1000913c5/base_footprint,0,1.64952022174907E+018,v/m1vw10zy74w/map,-8.62951377887,-0.463302675699,0,0,0,-0.684749917469,0.728778121602,0,61.5598258972,19.5046443939,63.6946792603,95.1240844727,40.6326217651,40.6326217651,61.5598258972,61.5598258972,33.2021369934,0.102066501975,0,0.0023902556859,0.198240697384,0.067292355001,0.0696826130152,-1.23303222656,-0.0674834921956,-0.593116760254,-0.00627431180328,6.1265411377,0.131023332477,1.39649963379,0.0403628498316,18.27161216734,94.530967712446,46.7591629028,34.59863662719,1007
1.64952022184984E+018,80,1.64952022184984E+018,r1000913c5/base_footprint,0,1.64952022184984E+018,v/m1vw10zy74w/map,-8.62170816595,-0.51194290836,0,0,0,-0.647146906616,0.762365320078,0,61.5931816101,18.419921875,61.1985359192,94.9897460938,40.6394309998,40.6394309998,61.5931816101,61.5931816101,32.1916732788,0.125104635954,0,0.0034006529022,0.194608107209,0.107214577496,0.110615231097,-0.186977386475,-0.010254919529,-0.466918945312,-0.00493974797428,6.11735153198,0.130833461881,2.43984603882,0.0704516023397,18.232944488525,94.522827148488,46.75678253178,34.63151931762,1045
1.64952022194977E+018,81,1.64952022194977E+018,r1000913c5/base_footprint,0,1.64952022194977E+018,v/m1vw10zy74w/map,-8.61228400111,-0.563290956986,0,0,0,-0.60705905759,0.794656718714,0,61.4231681824,17.5611858368,59.6462631226,94.6152801514,40.6492118835,40.6492118835,61.4231681824,61.4231681824,34.0094337463,0.139581754804,0,0.00227025151253,0.186921164393,0.128587603569,0.130857855082,0.668455123901,0.0366685837507,-0.0914688110352,-0.000967680069152,6.10236358643,0.130527436733,0.708889007568,0.0204182956368,18.229640960701,94.5238113403648,46.75157546993,34.718322753868,1095
1.64952022204909E+018,82,1.64952022204909E+018,r1000913c5/base_footprint,0,1.64952022204909E+018,v/m1vw10zy74w/map,-8.5966554267,-0.614270447576,0,0,0,-0.551238702035,0.83434758547,0,61.2333259583,16.3398685455,57.9105987549,94.3642044067,40.6294746399,40.6294746399,61.2333259583,61.2333259583,36.3096008301,0.00636415276676,0,0.00144146778621,0.180566266179,0.141180217266,0.142621695995,1.86562919617,0.102476142347,0.170036315918,0.00179867434781,6.14060211182,0.131293401122,-1.55319595337,-0.0446880497038,18.20549774167,94.534240722618,46.77007675172,34.75640487673,1120
1.64952022214903E+018,83,1.64952022214903E+018,r1000913c5/base_footprint,0,1.64952022214903E+018,v/m1vw10zy74w/map,-8.57252361761,-0.627282579002,0,0,0,-0.50476581273,0.863256320162,0,61.2602119446,18.6851215363,51.4696464539,94.6565628052,40.6437339783,40.6437339783,61.2602119446,61.2602119446,37.0321311951,0.0190828647465,0,0.000967188912909,0.175438970327,0.136049300432,0.137016490102,-0.537506103516,-0.0296185519546,-0.119705200195,-0.00126622780226,6.10562133789,0.130603328347,-2.14841079712,-0.0615877769887,18.147615432784,94.536857605005,46.74935531619,34.88372039798,1118
1.64952022224898E+018,84,1.64952022224898E+018,r1000913c5/base_footprint,0,1.64952022224898E+018,v/m1vw10zy74w/map,-8.55301405005,-0.661260990165,0,0,0,-0.448109564206,0.89397864542,0,61.5837440491,13.0434780121,48.1314048767,94.7225494385,40.8590698242,40.8590698242,61.5837440491,61.5837440491,33.7717437744,-0.206058830023,0,0.000822688627522,0.16980342567,0.116153538227,0.116976223886,5.12123680115,0.281933248043,-0.181129455566,-0.00191587407608,5.8401184082,0.125058248639,1.08354949951,0.0310870856047,18.16471481325,94.541419982934,46.6991882324,34.85529327391,1144
1.64952022234984E+018,85,1.64952022234984E+018,r1000913c5/base_footprint,0,1.64952022234984E+018,v/m1vw10zy74w/map,-8.48667964585,-0.732627036965,0,0,0,-0.31566710706,0.948870000327,0,61.2928009033,13.2674970627,47.7926597595,94.2587432861,40.9695129395,40.9695129395,61.2928009033,61.2928009033,38.5318107605,-0.173524856567,0,0.00182626326568,0.162958160043,0.0554344728589,0.0572607368231,5.01590251923,0.274341911077,0.30598449707,0.00323571497574,5.70017623901,0.122138723731,-3.55602645874,-0.101671099663,18.28339958193,94.56472778317,46.66968917851,34.97578430176,1174
1.64952022244911E+018,86,1.64952022244911E+018,r1000913c5/base_footprint,0,1.64952022244911E+018,v/m1vw10zy74w/map,-8.45042143432,-0.752705782737,0,0,0,-0.260062704022,0.965591730483,0,61.4280204773,6.7873301506,47.4916191101,94.5286483765,40.8740997314,40.8740997314,61.4280204773,61.4280204773,36.0390548706,-0.028043653816,0,0.000890982279088,0.156444042921,0.019175644964,0.0200666282326,11.3921966553,0.626649796963,0.00814819335938,8.61907101353E-05,5.79713058472,0.12421207875,-0.838218688965,-0.0238124653697,18.1795268059,94.5367965698594,46.67123031612,35.200836181635,1190
1.64952022254886E+018,87,1.64952022254886E+018,r1000913c5/base_footprint,0,1.64952022254886E+018,v/m1vw10zy74w/map,-8.39779638178,-0.769834978563,0,0,0,-0.193659662116,0.981068771937,0,61.3599052429,11.3122167587,47.2336769104,94.9087982178,40.8820762634,40.8820762634,61.3599052429,61.3599052429,38.7198181152,-0.227603763342,0,0.000617440906353,0.149878904223,0.0193588454276,0.0187414046377,6.7983045578,0.375378727913,-0.393760681152,-0.00416611693799,5.67887496948,0.121966473758,-3.48421859741,-0.0988834798336,18.1105213165,94.515037536648,46.56095123288,35.23559951779,1211
1.64952022264952E+018,88,1.64952022264952E+018,r1000913c5/base_footprint,0,1.64952022264952E+018,v/m1vw10zy74w/map,-8.34158346397,-0.788264759541,0,0,0,-0.135347003014,0.990798258363,0,60.7436408997,9.73630809784,46.8575057983,94.8029251099,41.0136947632,41.0136947632,60.7436408997,60.7436408997,50.8529129028,-0.381714463234,0,0.00259036431089,0.143569126725,0.054629996419,0.0520396344364,8.44398975372,0.464458286762,-0.284881591797,-0.00301404460333,5.63339996338,0.120766364038,-15.5745124817,-0.441474437714,18.18029785156,94.518043518103,46.64709472658,35.2784004211,1193
1.64952022275017E+018,89,1.64952022275017E+018,r1000913c5/base_footprint,0,1.64952022275017E+018,v/m1vw10zy74w/map,-8.24372614727,-0.806263899512,0,0,0,-0.0725153212937,0.99736729853,0,61.3644142151,15.3380975723,46.6008872986,94.8684158325,41.3067169189,41.3067169189,61.3644142151,61.3644142151,43.079410553,-0.178986370564,0,0.0033695762977,0.113246448338,0.098184786737,0.0948152169585,2.74126911163,0.151624172926,-0.393577575684,-0.00416595116258,5.71449279785,0.121530108154,-7.32028198242,-0.20471085608,18.07936668393,94.474838256816,47.02120971675,35.75912857058,1098
1.64952022284911E+018,90,1.64952022284911E+018,r1000913c5/base_footprint,0,1.64952022284911E+018,v/m1vw10zy74w/map,-8.12547582522,-0.810242848878,0,0,0,-0.0186862834011,0.999825396163,0,61.8837547302,18.0672264099,46.3493995667,94.7707672119,41.6278305054,41.6278305054,61.8837547302,61.8837547302,36.8477706909,0.129358097911,0,0.0064652771689,0.0264905858785,0.151909157634,0.145443886518,0.176399230957,0.00966908875853,-0.419082641602,-0.00444170832634,6.44438934326,0.134056419134,0.136604309082,0.00369356805459,18.243625640857,94.351684570298,48.07221984866,36.984374999982,857
1.64952022294901E+018,91,1.64952022294901E+018,r1000913c5/base_footprint,0,1.64952022294901E+018,v/m1vw10zy74w/map,-8.01196736287,-0.816921263235,0,0,0,0.0258909053845,0.999664774321,0,62.0862579346,12.2632102966,45.8103218079,94.8416595459,42.0548782349,42.0548782349,62.0862579346,62.0862579346,38.0700263977,0.330331712961,0,0.0079226763919,0.020524840802,0.165734604001,0.157811924815,5.41481781006,0.306302130222,-0.575332641602,-0.0061032678932,6.11931991577,0.127024844289,-0.574787139893,-0.0153296031058,17.67802810666,94.266326904298,48.17419815067,37.495239257807,800
1.64952022304983E+018,92,1.64952022304983E+018,r1000913c5/base_footprint,0,1.64952022304983E+018,v/m1vw10zy74w/map,-7.87084679669,-0.811290326791,0,0,0,0.0412439349432,0.999149106906,0,62.4609947205,14.1755065918,45.36951828,94.6520767212,42.5289001465,42.5289001465,62.4609947205,62.4609947205,35.7616920471,0.356951475143,0,0.00840897765011,0.0168796870857,0.174037784338,0.165628805757,2.43033027649,0.146353974938,-0.45378112793,-0.00481729675084,5.63983917236,0.117085047066,1.80866241455,0.0481406785548,16.60583686829,94.19829559327,48.16873931886,37.57035446165,781
1.64952022314905E+018,93,1.64952022314905E+018,r1000913c5/base_footprint,0,1.64952022314905E+018,v/m1vw10zy74w/map,-7.87084679669,-0.811290326791,0,0,0,0.0412439349432,0.999149106906,0,62.6421966553,15.1398267746,45.008518219,94.6520767212,43.1096153259,43.1096153259,62.6421966553,62.6421966553,38.7717895508,0.38240852952,0,0.008858891204,0.0141821699217,0.176844120026,0.167985215783,1.46601009369,0.088282816112,-0.45378112793,-0.00481729675084,5.05912399292,0.105029195547,-1.20143508911,-0.0319782756269,16.60583686829,94.19829559327,48.16873931882,37.57035446169,781
1.64952022324892E+018,94,1.64952022324892E+018,r1000913c5/base_footprint,0,1.64952022324892E+018,v/m1vw10zy74w/map,-7.87084679669,-0.811290326791,0,0,0,0.0412439349432,0.999149106906,0,62.8452529907,13.211186409,44.7648277283,94.6520767212,43.6650466919,43.6650466919,62.8452529907,62.8452529907,41.1153869629,0.538954496384,0,0.00928254052997,0.0129094980657,0.177235201001,0.167952656746,3.39465045929,0.204425141215,-0.45378112793,-0.00481729675084,4.50369262695,0.0934982448816,-3.54503250122,-0.0943571776152,16.60583686829,94.19829559327,48.16873931885,37.57035446168,781
1.64952022334909E+018,95,1.64952022334909E+018,r1000913c5/base_footprint,0,1.64952022334909E+018,v/m1vw10zy74w/map,-7.68729520544,-0.784514017304,0,0,0,0.040568210107,0.999176771312,0,63.3548736572,12.9603061676,45.011100769,94.8337249756,44.1798439026,44.1798439026,63.3548736572,63.3548736572,38.1559829712,0.367403775454,0,0.00907532125711,0.00721187144518,0.178444564342,0.169369235635,3.04495429993,0.190247088671,-0.503746032715,-0.00534025393426,3.34132766724,0.0703124031425,-1.12532043457,-0.0303888823837,16.00526046753,94.329978942885,47.52117156984,37.03066253663,925
1.64952022344959E+018,96,1.64952022344959E+018,r1000913c5/base_footprint,0,1.64952022344959E+018,v/m1vw10zy74w/map,-7.5715084821,-0.784257265581,0,0,0,0.0418053279137,0.999125775144,0,63.9677429199,16.9550170898,45.3234634399,94.4465942383,44.7862281799,44.7862281799,63.9677429199,63.9677429199,32.2796401978,0.20316568017,0,0.0085182832554,0.00388232199475,0.180820643902,0.172302365303,-1.10986232758,-0.0700442716479,0.0426483154297,0.000451356318081,1.83957290649,0.0394539684057,4.08824539185,0.112413614988,15.84515476222,94.4892425537297,46.62580108639,36.36788558965,1152
1.64952022354998E+018,97,1.64952022354998E+018,r1000913c5/base_footprint,0,1.64952022354998E+018,v/m1vw10zy74w/map,-7.4407579908,-0.760224586975,0,0,0,0.0376149539901,0.999292307204,0,63.8847541809,24.8640632629,45.5753860474,94.6656799316,45.1034049988,45.1034049988,63.8847541809,63.8847541809,37.9876365662,0.55764311552,0,0.00815328489989,0.0215485058725,0.198614254594,0.190460965037,-8.95829486847,-0.563210427761,-0.141639709473,-0.00149845168926,1.32611083984,0.0285618063062,-1.9203453064,-0.0532434023917,15.90576839443,94.524040222127,46.42951583864,36.0672912598,1208
1.64952022364913E+018,98,1.64952022364913E+018,r1000913c5/base_footprint,0,1.64952022364913E+018,v/m1vw10zy74w/map,-7.28681291971,-0.746913192889,0,0,0,0.0322373884351,0.999480240318,0,64.5441894531,17.849899292,46.0159187317,94.2313232422,45.4301338196,45.4301338196,64.5441894531,64.5441894531,28.082775116,0.557649731636,0,0.00869431626052,0.0331188216805,0.21113923192,0.202444925904,-1.93263339996,-0.121417425573,0.285629272461,0.00302198994905,0.910232543945,0.0196423251182,7.81727981567,0.217751190066,15.91726589204,94.516952514661,46.340366363545,35.90005493167,1231
1.64952022374889E+018,99,1.64952022374889E+018,r1000913c5/base_footprint,0,1.64952022374889E+018,v/m1vw10zy74w/map,-7.12339949607,-0.752894250397,0,0,0,0.0304589184949,0.999536019503,0,64.9230422974,22.6006183624,46.5119514465,93.88230896,45.9722061157,45.9722061157,64.9230422974,64.9230422974,25.8614177704,0.717559456825,0,0.0107602393255,0.0561350919306,0.235422313213,0.224662080407,-6.47160720825,-0.401240170002,0.615478515625,0.00651315273717,0.256195068359,0.00554194115102,9.8747882843,0.276324480772,16.12901115415,94.497787475625,46.228401184059,35.7362060547,1241
1.64952022384899E+018,100,1.64952022384899E+018,r1000913c5/base_footprint,0,1.64952022384899E+018,v/m1vw10zy74w/map,-6.97092320389,-0.746720725821,0,0,0,0.0235929352063,0.999721647964,0,64.5843887329,18.2452640533,46.8624343872,93.8619232178,46.3334617615,46.3334617615,64.5843887329,64.5843887329,35.7852630615,0.531656980515,0,0.0103964572772,0.0746690109372,0.236631885171,0.226235434413,-1.76012611389,-0.106770478189,0.648567199707,0.00686238333583,0.00657653808594,0.000141919139423,0.0819511413574,0.00228484813124,16.48513793941,94.510490417507,46.3400382995859,35.8672142028574,1257
1.64952022394907E+018,101,1.64952022394907E+018,r1000913c5/base_footprint,0,1.64952022394907E+018,v/m1vw10zy74w/map,-6.67118490817,-0.716102883497,0,0,0,0.0124289543722,0.999922757563,0,64.7618484497,18.9322795868,47.1712837219,93.8871536255,46.6379318237,46.6379318237,64.7618484497,64.7618484497,35.9700927734,0.350862503052,0,0.00844200700521,0.0891079902649,0.258764326572,0.250322341919,-2.16303825378,-0.128988444805,0.380157470703,0.00403276039287,0.814826965332,0.0171713288873,1.14316177368,0.0308019816875,16.76924133302,94.267311096203,47.452758789032,37.11325454708,923
