%time,field.header.seq,field.header.stamp,field.header.frame_id,field.pose.header.seq,field.pose.header.stamp,field.pose.header.frame_id,field.pose.pose.position.x,field.pose.pose.position.y,field.pose.pose.position.z,field.pose.pose.orientation.x,field.pose.pose.orientation.y,field.pose.pose.orientation.z,field.pose.pose.orientation.w,field.label,field.main_output,field.scan_score,field.pose_score,field.cov_score,field.lhood_map_score,field.lhood_robot_score,field.lhood_map_score_all,field.lhood_robot_score_all,field.point_angle_diff,field.average_orientation,field.map_average_orientation,field.sensor_div,field.odom_div_x,field.odom_div_w,field.imu_div_w,field.kdtree_div,field.kdtree_div_p,field.cov_div,field.cov_div_p,field.likelihood_div,field.likelihood_div_p,field.normal_diff_div,field.normal_diff_div_p,field.kdtree_average,field.cov_average,field.likelihood_average,field.normal_diff_average,field.map_update_count
1.64951603378168E+018,0,1.64951603378168E+018,r1000913c5/base_footprint,0,1.64951603378168E+018,v/m1vw10zy74w/map,-6.31919790347,-0.712124364572,0,0,0,-0.999997221266,0.00235742659314,0,57.7666664124,6.23617887497,100,95.9887390137,34.0075187683,34.0075187683,57.7666664124,57.7666664124,33.0406761169,-0.115350075066,0,0.0100273489952,0.461338877678,0.0927553400397,0.0827279910445,9.0004825592,0.590712249279,-1.88371276855,-0.020017132163,13.6507492065,0.286429822445,4.70338821411,0.124612659216,15.23666143417,94.10502624515,47.6582679748,37.74406433101,826
1.64951603388148E+018,1,1.64951603388148E+018,r1000913c5/base_footprint,0,1.64951603388148E+018,v/m1vw10zy74w/map,-6.31919790347,-0.712124364572,0,0,0,-0.999997221266,0.00235742659314,0,59.3835716248,41.9822731018,46.2725028992,95.9887390137,35.6327934265,35.6327934265,59.3835716248,59.3835716248,21.4893608093,0.571894586086,0,0.00836593378335,0.465135633945,0.0881137400866,0.0797478109598,-26.7456111908,-1.75534582138,-1.88371276855,-0.020017132163,12.0254745483,0.252327144146,16.2547035217,0.430655896664,15.236661911,94.10502624515,47.6582679748,37.744064331,826
1.64951603648116E+018,2,1.64951603648116E+018,r1000913c5/base_footprint,0,1.64951603648116E+018,v/m1vw10zy74w/map,-6.68520357777,-0.718936188495,0,0,0,-0.999837583149,0.0180224116952,0,60.1695289612,35.6120834351,46.2725028992,96.0522003174,37.0742454529,37.0742454529,60.1695289612,60.1695289612,23.1382884979,0.356711566448,0,0.00134795974009,0.0257834903896,0.00495407683775,0.00360611686483,-18.8219776154,-1.12101602554,-1.70709228516,-0.0180941261351,10.1382369995,0.214736372232,13.6389141083,0.370852410793,16.7901058197,94.34510803224,47.2124824524,36.7772026062,984
1.6495160365809E+018,3,1.6495160365809E+018,r1000913c5/base_footprint,0,1.6495160365809E+018,v/m1vw10zy74w/map,-6.81365891923,-0.722348545048,0,0,0,-0.999823357355,0.0187950548883,0,60.4384040833,31.7153434753,47.504611969,96.17552948,37.8479385376,37.8479385376,60.4384040833,60.4384040833,27.0983638763,0.181533694267,0,0.00163821526803,0.0149122001603,0.00628409767523,0.00464588264003,-15.0240783691,-0.900116205215,-1.71562194824,-0.0181624349207,8.63519668579,0.185770526528,8.93503761292,0.247965425253,16.6912651062,94.45990753176,46.48313522339,36.03340148922,1234
1.64951603668134E+018,4,1.64951603668134E+018,r1000913c5/base_footprint,0,1.64951603668134E+018,v/m1vw10zy74w/map,-6.81365891923,-0.722348545048,0,0,0,-0.999823357355,0.0187950548883,0,60.5930099487,26.9776878357,47.504611969,96.17552948,38.4755592346,38.4755592346,60.5930099487,60.5930099487,31.0937862396,0.624556601048,0,0.00159302470274,0.00902551040053,0.00533337751403,0.00374035281129,-10.2864227295,-0.616275787354,-1.71562194824,-0.0181624349207,8.00757598877,0.172268420458,4.93961524963,0.13708434999,16.6912651062,94.45990753176,46.48313522337,36.03340148923,1234
1.64951603678259E+018,5,1.64951603678259E+018,r1000913c5/base_footprint,0,1.6495160367826E+018,v/m1vw10zy74w/map,-6.92218995014,-0.72318731733,0,0,0,-0.999876927682,0.015688514549,0,61.1065864563,27.2875823975,47.504611969,96.1425933838,38.9870300293,38.9870300293,61.1065864563,61.1065864563,27.2547283173,0.237979874015,0,0.00169582816307,0.018113983795,0.000737409864087,0.000958418357186,-10.6833877563,-0.643414974213,-1.6555557251,-0.0175215117633,7.38436889648,0.159244045615,8.61973381042,0.24027492106,16.6041946412,94.4870376587,46.37139892578,35.87446212772,1261
1.6495160368812E+018,6,1.6495160368812E+018,r1000913c5/base_footprint,0,1.6495160368812E+018,v/m1vw10zy74w/map,-6.93495185667,-0.72554428123,0,0,0,-0.999856774465,0.0169242593816,0,61.1490249634,25.3549690247,47.8620033264,96.1393280029,39.4034996033,39.4034996033,61.1490249634,61.1490249634,30.9769248962,0.136228993535,0,0.00117195339408,0.0306151974946,0.00225878297351,0.00108682969585,-8.86983108521,-0.538050174713,-1.62883758545,-0.0172344632447,6.93653869629,0.149687811732,4.89028930664,0.136344268918,16.48513793949,94.51049041745,46.34003829959,35.86721420284,1257
1.64951603698197E+018,7,1.64951603698197E+018,r1000913c5/base_footprint,0,1.64951603698197E+018,v/m1vw10zy74w/map,-6.93495185667,-0.72554428123,0,0,0,-0.999856774465,0.0169242593816,0,61.0556297302,23.2026138306,47.8620033264,96.1393280029,39.6853713989,39.6853713989,61.0556297302,61.0556297302,35.702293396,0.41318500042,0,0.00190474907868,0.0345979519188,0.00158647913486,0.00031827003113,-6.71747589111,-0.407486796379,-1.62883758545,-0.0172344632447,6.65466690063,0.143605127931,0.164920806885,0.00459809368476,16.48513793949,94.51049041745,46.34003829953,35.867214202885,1257
1.64951603708239E+018,8,1.64951603708239E+018,r1000913c5/base_footprint,0,1.64951603708239E+018,v/m1vw10zy74w/map,-7.07017862707,-0.726043618723,0,0,0,-0.999918710644,0.0127503766584,0,61.5429611206,27.731092453,48.7035751343,96.3886795044,40.1932640076,40.1932640076,61.5429611206,61.5429611206,33.3131561279,0.210544377565,0,0.00156627083197,0.0329353176057,0.0007940204232,0.000772250408772,-11.4989433289,-0.70840549469,-1.86483764648,-0.0197287537158,6.08619308472,0.13150960207,2.3797454834,0.0666727945209,16.2321491241,94.52384185792,46.27945709232,35.6929016113,1249
1.64951603718096E+018,9,1.64951603718096E+018,r1000913c5/base_footprint,0,1.64951603718096E+018,v/m1vw10zy74w/map,-7.18778949704,-0.730922870523,0,0,0,-0.999913497497,0.0131528523,0,61.5498046875,24.9061317444,48.0450401306,96.3773803711,40.7129440308,40.7129440308,61.5498046875,61.5498046875,38.7618598938,0.332118362188,0,0.00165338325314,0.0292621906847,0.000538200198207,0.00111518299673,-8.8719959259,-0.553319215775,-1.85976409912,-0.0196763761342,5.54463577271,0.119864374399,-2.99195480347,-0.0836444720626,16.0341358185,94.51761627198,46.25757980351,35.76990509033,1235
1.6495160372818E+018,10,1.6495160372818E+018,r1000913c5/base_footprint,0,1.6495160372818E+018,v/m1vw10zy74w/map,-7.20578837737,-0.734885208054,0,0,0,-0.999908142384,0.0135538479744,0,61.9348526001,27.0072994232,48.0450401306,96.6856918335,41.2299728394,41.2299728394,61.9348526001,61.9348526001,38.5248413086,0.218928962946,0,0.00166034454014,0.0273738708347,0.0021019121632,0.000441567623056,-10.9731636047,-0.684362649918,-2.16807556152,-0.0229383222759,5.02760696411,0.108687199652,-2.75493621826,-0.0770182684064,16.0341358185,94.51761627198,46.25757980351,35.76990509034,1235
1.649516037382E+018,11,1.649516037382E+018,r1000913c5/base_footprint,0,1.649516037382E+018,v/m1vw10zy74w/map,-7.33907761105,-0.72423116492,0,0,0,-0.999999384386,0.00110960661517,0,62.4618721008,32.5259513855,48.0450401306,96.5860519409,41.8363876343,41.8363876343,62.4618721008,62.4618721008,35.2291030884,0.721409499645,0,0.00231380830519,0.0214336384088,0.00340200145729,0.00108819303568,-16.5727844238,-1.03883969784,-2.06135559082,-0.0218075867742,4.58686447144,0.0988053232431,0.738525390625,0.0205330569297,15.9531669617,94.52469635008,46.42325210574,35.967628479025,1230
1.64951603748177E+018,12,1.64951603748177E+018,r1000913c5/base_footprint,0,1.64951603748177E+018,v/m1vw10zy74w/map,-7.33907761105,-0.72423116492,0,0,0,-0.999999384386,0.00110960661517,0,62.7388038635,33.2748031616,47.6995162964,96.5860519409,42.4654350281,42.4654350281,62.7388038635,62.7388038635,37.0380439758,0.221917152405,0,0.001924977405,0.0180413667113,0.00350936548784,0.00543434312567,-17.3216362,-1.08578038216,-2.06135559082,-0.0218075867742,3.95781707764,0.0852550566196,-1.07041549683,-0.0297605246305,15.9531669616,94.52469635008,46.42325210574,35.96762847897,1230
1.64951603758256E+018,13,1.64951603758256E+018,r1000913c5/base_footprint,0,1.64951603758257E+018,v/m1vw10zy74w/map,-7.47112706593,-0.7448211189,0,0,0,0.999995570501,0.0029764035584,0,63.0059394836,27.2111721039,47.2138175964,96.2311935425,43.185798645,43.185798645,63.0059394836,63.0059394836,38.7319869995,0.0519047677517,0,0.00146242778283,0.0121749024838,0.00106280180626,0.0025252297055,-11.2961874008,-0.709783136845,-1.72157287598,-0.018215848133,3.26877975464,0.0703650712967,-2.70149612427,-0.0749780535698,15.9149847031,94.50962066652,46.45457839964,36.03049087523,1202
1.64951603768171E+018,14,1.64951603768171E+018,r1000913c5/base_footprint,0,1.64951603768171E+018,v/m1vw10zy74w/map,-7.59349793546,-0.744622251383,0,0,0,-0.999999290639,0.00119110131076,0,63.2310562134,30.9462909698,47.0172653198,96.135055542,43.7592468262,43.7592468262,63.2310562134,63.2310562134,40.5270729065,0.041359949857,0,0.00205356278457,0.00787996966392,0.00488959671929,0.00283603393473,-15.0448226929,-0.946127891541,-1.67343902588,-0.0177155453712,3.00453567505,0.0642492026091,-4.17104721069,-0.114727810025,15.9014682769,94.46161651612,46.76378250125,36.35602569581,1103
1.6495160377821E+018,15,1.6495160377821E+018,r1000913c5/base_footprint,0,1.64951603778211E+018,v/m1vw10zy74w/map,-7.61716624638,-0.743587046224,0,0,0,-0.999998215344,0.00188926156435,0,63.987991333,30.7467670441,47.0172653198,96.2431335449,44.252117157,44.252117157,63.987991333,63.987991333,32.6142807007,0.391703993082,0,0.0030774413608,0.00205549993552,0.00547822145745,0.00240078009665,-14.8452987671,-0.93358039856,-1.78151702881,-0.0188596919179,2.51166534424,0.0537096261978,3.74174499512,0.102919526398,15.901468277,94.46161651609,46.76378250124,36.35602569582,1103
1.64951603788641E+018,16,1.64951603788641E+018,r1000913c5/base_footprint,0,1.64951603788641E+018,v/m1vw10zy74w/map,-7.76985934759,-0.744731763117,0,0,0,0.999999817686,0.000603844281525,0,64.682510376,28.7489643097,46.9762039185,96.5006637573,44.6945114136,44.6945114136,64.682510376,64.682510376,25.8178787231,0.714721918106,0,0.00319756520912,0.00610527442768,0.00477900821716,0.00158144312445,-12.5689601898,-0.776820600033,-2.25614929199,-0.0239393170923,3.39197158813,0.070538982749,11.722328186,0.312260627747,16.1800041199,94.24451446531,48.08648300173,37.5402069091,808
1.6495160380809E+018,17,1.6495160380809E+018,r1000913c5/base_footprint,0,1.6495160380809E+018,v/m1vw10zy74w/map,-7.89632115717,-0.74164980188,0,0,0,0.999977481784,0.00671088112314,0,64.5437545776,22.6655693054,46.9762039185,96.5517501831,44.9614219666,44.9614219666,64.5437545776,64.5437545776,31.3821144104,0.537387728691,0,0.00480991462246,0.043003231287,0.00534623349085,0.0101561481133,-5.74534416199,-0.339554816484,-2.3298034668,-0.0247267596424,3.23612976074,0.0671430304646,6.12058639526,0.163203880191,16.92022514341,94.2219467163,48.19755172734,37.50270080566,803
1.64951603818101E+018,18,1.64951603818101E+018,r1000913c5/base_footprint,0,1.64951603818101E+018,v/m1vw10zy74w/map,-8.03185888899,-0.738099969059,0,0,0,0.99995900425,0.00905482304222,0,64.6217880249,25.6535949707,47.0770149231,96.3779144287,45.3159751892,45.3159751892,64.6217880249,64.6217880249,33.1808280945,0.380837798119,0,0.00290432199836,0.0712654665112,0.006564471405,0.00946879386902,-7.9109954834,-0.445875793695,-2.10541534424,-0.0223332922906,2.86574172974,0.0594777837396,4.23154449463,0.113105483353,17.7425994873,94.27249908446,48.18171691894,37.41237258913,824
1.64951603828113E+018,19,1.64951603828113E+018,r1000913c5/base_footprint,0,1.64951603828113E+018,v/m1vw10zy74w/map,-8.03890018305,-0.738943375942,0,0,0,0.99996767752,0.00804014395451,0,65.0832748413,38.6554603577,47.17735672,96.5518417358,45.7465209961,45.7465209961,65.0832748413,65.0832748413,30.1500606537,0.310699045658,0,0.00210965564474,0.102233968675,0.000219777750317,0.00232943356968,-20.5226974487,-1.13180196285,-2.23751831055,-0.0237240567803,2.39316558838,0.0497129447758,7.0620098114,0.189777389169,18.132762909,94.31432342525,48.13968658448,37.2120704651,853
1.6495160383814E+018,20,1.6495160383814E+018,r1000913c5/base_footprint,0,1.6495160383814E+018,v/m1vw10zy74w/map,-8.16804290639,-0.736444789321,0,0,0,0.999995655513,0.00294770346657,0,65.6142959595,38.6554603577,47.184879303,96.6267089844,46.2897262573,46.2897262573,65.6142959595,65.6142959595,26.7278957367,0.248857095838,0,0.00270669115707,0.124873735011,0.019079329446,0.0217860210687,-20.2013492584,-1.09468019009,-2.24211883545,-0.0237551368773,1.53514480591,0.0320992991328,9.82781028748,0.268844753504,18.4541110993,94.38459014895,47.82487106321,36.55570602418,929
1.64951603848218E+018,21,1.64951603848218E+018,r1000913c5/base_footprint,0,1.64951603848219E+018,v/m1vw10zy74w/map,-8.16804290639,-0.736444789321,0,0,0,0.999995655513,0.00294770346657,0,65.5374450684,43.2624130249,47.2388763428,96.6267089844,46.7706832886,46.7706832886,65.5374450684,65.5374450684,33.3055038452,0.303255736828,0,0.00480058090761,0.132368758321,0.0276938136667,0.0324943959713,-24.8083019257,-1.34432387352,-2.24211883545,-0.0237551368773,1.05418777466,0.0220426674932,3.25020217896,0.0889109373093,18.4541110992,94.38459014895,47.82487106326,36.55570602416,929
1.64951603858343E+018,22,1.64951603858343E+018,r1000913c5/base_footprint,0,1.64951603858343E+018,v/m1vw10zy74w/map,-8.29451101534,-0.735343990923,0,0,0,-0.999995786327,0.00290298595794,0,65.4425354004,39.9249076843,47.2388763428,96.3219909668,47.118434906,47.118434906,65.4425354004,65.4425354004,37.6726570129,0.288295686245,0,0.00586856715381,0.141463294625,0.0380332767963,0.0439018420875,-21.9245643616,-1.21800816059,-1.81404876709,-0.0191946700215,-0.358448028564,-0.00766569981351,-2.22688674927,-0.0628251731396,18.0003433227,94.50794219971,46.759986877436,35.44577026363,1181
1.6495160386821E+018,23,1.6495160386821E+018,r1000913c5/base_footprint,0,1.6495160386821E+018,v/m1vw10zy74w/map,-8.29451101534,-0.735343990923,0,0,0,-0.999995786327,0.00290298595794,0,65.8880462646,29.2472229004,47.3862075806,96.3219909668,47.2065925598,47.2065925598,65.8880462646,65.8880462646,30.6055469513,0.147850900888,0,0.00380173395388,0.161535948515,0.0333849973977,0.037186730653,-11.2468795776,-0.624814748764,-1.81404876709,-0.0191946700215,-0.446605682373,-0.00955102220178,4.84022331238,0.136552914977,18.0003433228,94.50794219971,46.759986877427,35.44577026368,1181
1.64951603878101E+018,24,1.64951603878101E+018,r1000913c5/base_footprint,0,1.64951603878101E+018,v/m1vw10zy74w/map,-8.42193051091,-0.737087593506,0,0,0,-0.999360221442,0.035765175779,0,65.5569076538,26.3647899628,47.5329627991,96.4010925293,47.0686683655,47.0686683655,65.5569076538,65.5569076538,35.3612213135,0.0698463022709,0,0.00332910381258,0.170656785369,0.0275717973709,0.0309009011835,-8.20983695984,-0.452209204435,-1.89305114746,-0.0200305823237,-0.389133453369,-0.00833627488464,-0.153564453125,-0.00436167791486,18.15495300296,94.50804138184,46.679534912131,35.207656860375,1196
1.6495160388817E+018,25,1.6495160388817E+018,r1000913c5/base_footprint,0,1.6495160388817E+018,v/m1vw10zy74w/map,-8.42193051091,-0.737087593506,0,0,0,-0.999360221442,0.035765175779,0,65.7096099854,21.8428630829,47.6575965881,96.4010925293,46.7345275879,46.7345275879,65.7096099854,65.7096099854,29.0039272308,0.0876458138227,0,0.00337096862495,0.178293526173,0.0280415806919,0.0314125493169,-3.68791007996,-0.203135207295,-1.89305114746,-0.0200305823237,-0.0549926757812,-0.00117808964569,6.20372962952,0.176203995943,18.15495300294,94.50804138184,46.6795349121188,35.20765686032,1196
1.649516038982E+018,26,1.649516038982E+018,r1000913c5/base_footprint,0,1.649516038982E+018,v/m1vw10zy74w/map,-8.54644580935,-0.753527696408,0,0,0,-0.997511574957,0.0705028923331,0,65.3441085815,24.0717563629,47.6575965881,96.398727417,46.3376693726,46.3376693726,65.3441085815,65.3441085815,31.288230896,0.0356501452625,0,0.00395847624168,0.186120867729,0.0300064571202,0.0339649319649,-5.89927482605,-0.324626803398,-1.84343719482,-0.0194958653301,0.272899627686,0.00585488742217,3.60486984253,0.103311821818,18.17248153685,94.55529022218,46.610569000286,34.89310073853,1171
1.64951603908329E+018,27,1.64951603908329E+018,r1000913c5/base_footprint,0,1.6495160390833E+018,v/m1vw10zy74w/map,-8.54644580935,-0.753527696408,0,0,0,-0.997511574957,0.0705028923331,0,64.9503479004,21.5686283112,47.7374153137,96.398727417,45.9762458801,45.9762458801,64.9503479004,64.9503479004,34.4725799561,0.234860226512,0,0.00375986751169,0.191497460008,0.0287250429392,0.0324849113822,-3.39614677429,-0.186884045601,-1.84343719482,-0.0194958653301,0.634323120117,0.0136089976877,0.420520782471,0.0120516885072,18.17248153691,94.55529022218,46.610569000217,34.893100738571,1171
1.64951603928222E+018,28,1.64951603928222E+018,r1000913c5/base_footprint,0,1.64951603928222E+018,v/m1vw10zy74w/map,-8.65833899389,-0.77503587823,0,0,0,-0.994214950065,0.107408719697,0,64.8943328857,21.2924613953,47.7374153137,96.3837051392,45.6314353943,45.6314353943,64.8943328857,64.8943328857,31.7028198242,-0.0344268940389,0,0.000342891376931,0.245566010475,0.0202174969018,0.020560387522,-3.04518318176,-0.166884243488,-1.82173919678,-0.019265031442,0.919258117676,0.0197474639863,2.97348022461,0.0857496410608,18.24727821354,94.56196594242,46.550693511976,34.67630004881,1182
1.64951603938215E+018,29,1.64951603938215E+018,r1000913c5/base_footprint,0,1.64951603938215E+018,v/m1vw10zy74w/map,-8.65833899389,-0.77503587823,0,0,0,-0.994214950065,0.107408719697,0,64.8694381714,22.68907547,47.766998291,96.3837051392,45.3261489868,45.3261489868,64.8694381714,64.8694381714,28.8538074493,-0.0735502690077,0,0.00235550384969,0.270797789097,0.0647499933839,0.0671054944396,-4.44179725647,-0.243422448635,-1.82173919678,-0.019265031442,1.22454452515,0.0263056121767,5.82249259949,0.167909860611,18.24727821353,94.56196594242,46.55069351195,34.67630004879,1182
1.64951603948203E+018,30,1.64951603948203E+018,r1000913c5/base_footprint,0,1.64951603948203E+018,v/m1vw10zy74w/map,-8.65833899389,-0.77503587823,0,0,0,-0.994214950065,0.107408719697,0,64.2653579712,26.263463974,47.766998291,96.3837051392,45.1069145203,45.1069145203,64.2653579712,64.2653579712,37.3595581055,-0.15965719521,0,0.00091804243857,0.269871711731,0.07946767658,0.0785496383905,-8.0161857605,-0.439308583736,-1.82173919678,-0.019265031442,1.4437789917,0.0310151986778,-2.68325805664,-0.0773801729083,18.2472782135,94.56196594242,46.550693512,34.67630004886,1182
1.64951603958096E+018,31,1.64951603958096E+018,r1000913c5/base_footprint,0,1.64951603958096E+018,v/m1vw10zy74w/map,-8.67894192517,-0.778337515134,0,0,0,-0.98768479836,0.156456828193,0,64.3788528442,20.7342510223,47.6979217529,96.6329345703,44.9323959351,44.9323959351,64.3788528442,64.3788528442,34.3290977478,0.146654725075,0,0.00221270229667,0.268536031246,0.0608523152769,0.0586396157742,-2.48697280884,-0.136292815208,-2.07096862793,-0.0219006519765,1.6182975769,0.034764200449,0.347202301025,0.0100126685575,18.24727821346,94.56196594237,46.550693512,34.676300048825,1182
1.64951603968099E+018,32,1.64951603968099E+018,r1000913c5/base_footprint,0,1.64951603968099E+018,v/m1vw10zy74w/map,-8.67754317054,-0.777001707031,0,0,0,-0.975594399321,0.219580436318,0,63.741645813,14.0592403412,47.6979217529,96.4508895874,44.4653968811,44.4653968811,63.741645813,63.741645813,40.099899292,-0.00562212150544,0,0.00313487183303,0.264131426811,0.0401803739369,0.0370455011725,4.18803787231,0.229515761137,-1.88892364502,-0.0199755113572,2.08529663086,0.0447962544858,-5.42359924316,-0.156406521797,18.24727821351,94.56196594238,46.55069351196,34.67630004884,1182
1.64951603978077E+018,33,1.64951603978077E+018,r1000913c5/base_footprint,0,1.64951603978077E+018,v/m1vw10zy74w/map,-8.68206293776,-0.773512830605,0,0,0,-0.959704958446,0.281009595448,0,63.5940742493,12.4087591171,47.5341796875,96.3918685913,44.0808982849,44.0808982849,63.5940742493,63.5940742493,38.391078949,0.322502851486,0,0.00286128697917,0.262525141239,0.0364848822355,0.0336235947907,5.83851909637,0.319966584444,-1.82990264893,-0.0193513594568,2.46979522705,0.0530560351908,-3.71477890015,-0.107127316296,18.24727821347,94.56196594237,46.55069351195,34.67630004885,1182
1.64951603988127E+018,34,1.64951603988127E+018,r1000913c5/base_footprint,0,1.64951603988127E+018,v/m1vw10zy74w/map,-8.68548834705,-0.774700992725,0,0,0,-0.942648347012,0.333787498083,0,64.0031356812,13.8959932327,47.425907135,96.0961761475,43.8612174988,43.8612174988,64.0031356812,64.0031356812,27.5909862518,0.246105998755,0,0.00220576650463,0.258570581675,0.0293395556509,0.0271337889135,4.31556987762,0.236968666315,-1.54203796387,-0.0163085181266,2.6837387085,0.0576590672135,7.00339317322,0.202443093061,18.21156311032,94.55413818363,46.5449562073,34.59437942502,1176
1.64951603998191E+018,35,1.64951603998191E+018,r1000913c5/base_footprint,0,1.64951603998191E+018,v/m1vw10zy74w/map,-8.67747252433,-0.769056012717,0,0,0,-0.92108488337,0.389361833809,0,63.8938560486,14.7485084534,47.0125389099,95.9338760376,43.5019073486,43.5019073486,63.8938560486,63.8938560486,25.0931224823,0.49592757225,0,0.000858620391227,0.253867834806,0.0157650317997,0.0149064119905,3.49876976013,0.191742002964,-1.37191009521,-0.0145080536604,3.04878616333,0.0654938966036,9.58317756653,0.276361018419,18.24727821353,94.56196594239,46.55069351193,34.67630004883,1182
1.64951604008428E+018,36,1.64951604008428E+018,r1000913c5/base_footprint,0,1.64951604008428E+018,v/m1vw10zy74w/map,-8.67747252433,-0.769056012717,0,0,0,-0.92108488337,0.389361833809,0,63.709274292,14.0592403412,46.5507392883,95.9338760376,43.2105789185,43.2105789185,63.709274292,63.709274292,25.2692775726,0.0346519052982,0,0.000585973262787,0.248864918947,0.00639508292079,0.005809109658,4.18803787231,0.229515761137,-1.37191009521,-0.0145080536604,3.34011459351,0.0717521980405,9.4070224762,0.271281033754,18.24727821351,94.56196594239,46.55069351201,34.6763000488,1182
1.64951604018233E+018,37,1.64951604018233E+018,r1000913c5/base_footprint,0,1.64951604018233E+018,v/m1vw10zy74w/map,-8.67019435478,-0.762802592695,0,0,0,-0.900168876664,0.435541035364,0,63.034034729,16.4535369873,46.0552024841,95.8240203857,42.9206809998,42.9206809998,63.034034729,63.034034729,33.8972320557,0.0781430900097,0,0.000468467973405,0.247715577483,0.00631051370874,0.00584204588085,1.7937412262,0.0983018502593,-1.26205444336,-0.0133463218808,3.63001251221,0.077979773283,0.779067993164,0.0224668718874,18.2472782135,94.56196594234,46.55069351201,34.676300048864,1182
1.64951604028274E+018,38,1.64951604028274E+018,r1000913c5/base_footprint,0,1.64951604028274E+018,v/m1vw10zy74w/map,-8.67445287028,-0.762416679008,0,0,0,-0.90029422441,0.435281873611,0,62.7687759399,17.9784584045,45.5973358154,96.0003585815,42.6328392029,42.6328392029,62.7687759399,62.7687759399,36.1980171204,0.0947122573853,0,0.00128383899573,0.241642251611,0.00391924567521,0.00263540656306,0.26881980896,0.0147320497781,-1.43839263916,-0.0152111118659,3.91785430908,0.0841631814837,-1.52171707153,-0.0438834913075,18.24727821346,94.56196594234,46.55069351198,34.67630004887,1182
1.64951604038082E+018,39,1.64951604038082E+018,r1000913c5/base_footprint,0,1.64951604038082E+018,v/m1vw10zy74w/map,-8.67563474387,-0.764523968798,0,0,0,-0.872911266855,0.487879001596,0,62.696762085,14.4385023117,45.2266120911,95.6499099731,42.361164093,42.361164093,62.696762085,62.696762085,33.2985305786,0.020684177056,0,0.00193710625172,0.225228443742,0.0098760779947,0.0118131842464,3.80877590179,0.208731174469,-1.08794403076,-0.0115050906315,4.18952941895,0.0899992883205,1.37776947021,0.0397323071957,18.24727821349,94.56196594234,46.55069351195,34.67630004881,1182
1.64951604048082E+018,40,1.64951604048082E+018,r1000913c5/base_footprint,0,1.64951604048082E+018,v/m1vw10zy74w/map,-8.69026398252,-0.771100876994,0,0,0,-0.840795678388,0.541352590465,0,62.9719581604,19.8998756409,45.0617828369,95.7273101807,42.2583808899,42.2583808899,62.9719581604,62.9719581604,27.5135879517,0.0912672057748,0,0.00271957297809,0.203780636191,0.0287145953625,0.0314341671765,-1.68831253052,-0.0927055254579,-1.17317199707,-0.0124074099585,4.28657531738,0.092095375061,7.08079147339,0.204680398107,18.21156311038,94.55413818363,46.54495620728,34.59437942509,1176
1.64951604058082E+018,41,1.64951604058082E+018,r1000913c5/base_footprint,0,1.64951604058082E+018,v/m1vw10zy74w/map,-8.68879808976,-0.771969550826,0,0,0,-0.81233835762,0.58318641337,0,63.1634712219,14.2156858444,44.434387207,96.1876983643,42.1436538696,42.1436538696,63.1634712219,63.1634712219,24.4846725464,0.147021859884,0,0.00312384450808,0.184023976326,0.051598854363,0.0547226965427,3.99587726593,0.219414293766,-1.63356018066,-0.0172764528543,4.40130233765,0.0945602431893,10.1097068787,0.292235523462,18.21156311033,94.55413818364,46.54495620725,34.5943794251,1176
1.64951604068118E+018,42,1.64951604068118E+018,r1000913c5/base_footprint,0,1.64951604068119E+018,v/m1vw10zy74w/map,-8.68879808976,-0.771969550826,0,0,0,-0.81233835762,0.58318641337,0,62.8320426941,18.3006534576,43.9016990662,96.1876983643,42.0167884827,42.0167884827,62.8320426941,62.8320426941,29.0802497864,0.074948117137,0,0.00052164925728,0.167906373739,0.0596841536462,0.0602058023214,-0.08909034729,-0.00489196600392,-1.63356018066,-0.0172764528543,4.52816772461,0.0972858965397,5.51412963867,0.159393802285,18.21156311031,94.55413818364,46.54495620731,34.59437942507,1176
1.64951604078089E+018,43,1.64951604078089E+018,r1000913c5/base_footprint,0,1.64951604078089E+018,v/m1vw10zy74w/map,-8.69052299186,-0.770196198539,0,0,0,-0.777442932818,0.628953484934,0,62.6970787048,15.3908138275,43.4613304138,96.1304626465,41.8336029053,41.8336029053,62.6970787048,62.6970787048,29.3251819611,0.195838838816,0,0.00112355640158,0.148344859481,0.0748982876539,0.0737747326493,2.82074928284,0.154887825251,-1.57632446289,-0.0166711322963,4.711353302,0.101221561432,5.26919746399,0.152313679457,18.21156311034,94.55413818361,46.5449562073,34.59437942509,1176
1.64951604098223E+018,44,1.64951604098223E+018,r1000913c5/base_footprint,0,1.64951604098223E+018,v/m1vw10zy74w/map,-8.69052299186,-0.770196198539,0,0,0,-0.777442932818,0.628953484934,0,62.2542991638,15.3908138275,43.207157135,96.1304626465,41.5331192017,41.5331192017,62.2542991638,62.2542991638,34.0499534607,0.0604519918561,0,0.00150462717284,0.145086824894,0.0817728340626,0.0802682042122,2.82074928284,0.154887825251,-1.57632446289,-0.0166711322963,5.01183700562,0.107677340508,0.544425964355,0.0157374106348,18.21156311034,94.55413818361,46.54495620732,34.594379425055,1176
1.64951604188228E+018,45,1.64951604188228E+018,r1000913c5/base_footprint,0,1.64951604188229E+018,v/m1vw10zy74w/map,-8.68818137459,-0.769506468161,0,0,0,-0.739820433463,0.672804374414,0,62.2668685913,15.8496732712,43.207157135,96.0801467896,41.3770294189,41.3770294189,62.2668685913,62.2668685913,31.9568328857,0.093270175159,0,0.00183778768405,0.0180985406041,0.22417935729,0.226017147303,2.36188983917,0.129691764712,-1.52600860596,-0.0161389932036,5.16792678833,0.111030869186,2.63754653931,0.0762420520186,18.21156311037,94.55413818364,46.54495620723,34.59437942501,1176
1.64951604198101E+018,46,1.64951604198101E+018,r1000913c5/base_footprint,0,1.64951604198101E+018,v/m1vw10zy74w/map,-8.68818137459,-0.769506468161,0,0,0,-0.739820433463,0.672804374414,0,61.7531242371,10.6187925339,42.7394104004,96.0801467896,41.0178985596,41.0178985596,61.7531242371,61.7531242371,37.3256111145,0.192544072866,0,0.00120155594777,0.0552273131907,0.235324114561,0.234122559428,7.59277057648,0.416920304298,-1.52600860596,-0.0161389932036,5.52705764771,0.118746653199,-2.73123168945,-0.0789501592517,18.21156311038,94.55413818364,46.54495620731,34.59437942505,1176
1.64951604208075E+018,47,1.64951604208075E+018,r1000913c5/base_footprint,0,1.64951604208075E+018,v/m1vw10zy74w/map,-8.68818137459,-0.769506468161,0,0,0,-0.739820433463,0.672804374414,0,61.4940910339,7.56302499771,42.7394104004,96.0801467896,40.6771469116,40.6771469116,61.4940910339,61.4940910339,38.3080978394,0.190780952573,0,0.00537952175364,0.113075114787,0.20012421906,0.194744691253,10.6485385895,0.584713041782,-1.52600860596,-0.0161389932036,5.86780929565,0.126067563891,-3.71371841431,-0.107350341976,18.21156358721,94.55413818364,46.54495620725,34.59437942509,1176
1.64951604218093E+018,48,1.64951604218093E+018,r1000913c5/base_footprint,0,1.64951604218093E+018,v/m1vw10zy74w/map,-8.68818137459,-0.769506468161,0,0,0,-0.739820433463,0.672804374414,0,61.3754005432,10.2167186737,42.7394104004,96.0801467896,40.4028549194,40.4028549194,61.3754005432,61.3754005432,37.4821166992,0.20828564465,0,0.00570934824646,0.121271967888,0.193368017673,0.187658667564,7.99484443665,0.438998252153,-1.52600860596,-0.0161389932036,6.14210128784,0.131960615516,-2.88773727417,-0.0834741741419,18.21156311035,94.55413818364,46.54495620724,34.59437942503,1176
1.64951604228113E+018,49,1.64951604228113E+018,r1000913c5/base_footprint,0,1.64951604228113E+018,v/m1vw10zy74w/map,-8.7050924161,-0.892052309141,0,0,0,-0.722934223648,0.690916860612,0,61.2307014465,14.8606815338,42.7394104004,95.7201309204,40.2059898376,40.2059898376,61.2307014465,61.2307014465,36.6645469666,0.138074234128,0,0.00348045164719,0.119207054377,0.181144729257,0.177664265037,3.2773399353,0.180688947439,-1.13437652588,-0.0119931008667,6.15225601196,0.132711142302,-2.01110839844,-0.0580348856747,18.1380214691,94.58575439452,46.35824584956,34.65343856816,1181
1.64951604238122E+018,50,1.64951604238122E+018,r1000913c5/base_footprint,0,1.64951604238122E+018,v/m1vw10zy74w/map,-8.7050924161,-0.892052309141,0,0,0,-0.722934223648,0.690916860612,0,61.2367401123,10.9907121658,42.7394104004,95.7201309204,40.0827598572,40.0827598572,61.2367401123,61.2367401123,35.2249755859,0.145315349102,0,0.00186202302575,0.115856945515,0.179791346192,0.177929326892,7.14730930328,0.394051223993,-1.13437652588,-0.0119931008667,6.27548599243,0.135369360447,-0.571537017822,-0.0164929386228,18.13802146908,94.58575439452,46.35824584963,34.653438568078,1181
1.64951604248321E+018,51,1.64951604248321E+018,r1000913c5/base_footprint,0,1.64951604248321E+018,v/m1vw10zy74w/map,-8.7050924161,-0.892052309141,0,0,0,-0.722934223648,0.690916860612,0,61.1015357971,11.5724725723,42.7394104004,95.7201309204,39.9169654846,39.9169654846,61.1015357971,61.1015357971,35.8680229187,0.196376472712,0,0.00036944981548,0.109194897115,0.177535235882,0.177904695272,6.56554889679,0.361977130175,-1.13437652588,-0.0119931008667,6.44128036499,0.13894572854,-1.21458435059,-0.0350494608283,18.13802146909,94.58575439452,46.35824584959,34.65343856811,1181
1.64951604258238E+018,52,1.64951604258238E+018,r1000913c5/base_footprint,0,1.64951604258238E+018,v/m1vw10zy74w/map,-8.71064733724,-1.02770509151,0,0,0,-0.72215394127,0.691732379687,0,61.216583252,10.6187925339,42.5621185303,96.037940979,39.7382583618,39.7382583618,61.216583252,61.216583252,33.011264801,0.26750510931,0,6.42243394395E-05,0.104227669537,0.172200948,0.172136723995,7.30531024933,0.407569080591,-1.40975189209,-0.014897800982,6.31159591675,0.137060061097,1.7446975708,0.0501985102892,17.92410278323,94.62818908691,46.04985427855,34.7559623718,1079
1.64951604268261E+018,53,1.64951604268261E+018,r1000913c5/base_footprint,0,1.64951604268261E+018,v/m1vw10zy74w/map,-8.71064733724,-1.02770509151,0,0,0,-0.72215394127,0.691732379687,0,60.926235199,10.8035373688,42.7644538879,96.037940979,39.606262207,39.606262207,60.926235199,60.926235199,36.8119812012,0.0889190733433,0,0.000253562931903,0.0998376011848,0.166276961565,0.166023403406,7.12056541443,0.3972620368,-1.40975189209,-0.014897800982,6.44359207153,0.139926433563,-2.05601882935,-0.0591558590531,17.92410278323,94.62818908691,46.04985427853,34.75596237185,1079
1.64951604278101E+018,54,1.64951604278101E+018,r1000913c5/base_footprint,0,1.64951604278102E+018,v/m1vw10zy74w/map,-8.71064733724,-1.02770509151,0,0,0,-0.72215394127,0.691732379687,0,61.147064209,12.1466770172,42.7644538879,96.037940979,39.5196609497,39.5196609497,61.147064209,61.147064209,31.9017391205,0.185591056943,0,0.000855354068335,0.093948610127,0.15341258049,0.152557224035,5.77742576599,0.322327196598,-1.40975189209,-0.014897800982,6.53019332886,0.141807034612,2.85422325134,0.0821218341589,17.92410278319,94.62818908691,46.04985427856,34.75596237184,1079
1.64951604288084E+018,55,1.64951604288084E+018,r1000913c5/base_footprint,0,1.64951604288084E+018,v/m1vw10zy74w/map,-8.72713729745,-1.15868461425,0,0,0,-0.726584164516,0.687077471523,0,61.4320335388,13.3126935959,43.067325592,95.6291503906,39.4328269958,39.4328269958,61.4320335388,61.4320335388,24.3628673553,0.204428076744,0,0.00159830693156,0.0892189368606,0.139585494995,0.137987181544,4.42640590668,0.249528214335,-0.887184143066,-0.00936421472579,6.12058258057,0.134360581636,10.4135150909,0.29944217205,17.73909950258,94.741966247534,45.55340957637,34.7763824462,924
1.64951604298216E+018,56,1.64951604298216E+018,r1000913c5/base_footprint,0,1.64951604298216E+018,v/m1vw10zy74w/map,-8.72713729745,-1.15868461425,0,0,0,-0.726584164516,0.687077471523,0,61.0662384033,13.8792772293,43.067325592,95.6291503906,39.3418312073,39.3418312073,61.0662384033,61.0662384033,29.9644298553,0.183554857969,0,0.0039225644432,0.0828681066632,0.11606939137,0.112146824598,3.85982227325,0.21758839488,-0.887184143066,-0.00936421472579,6.21157836914,0.136358141899,4.81195259094,0.138368412852,17.73909950255,94.741966247534,45.55340957644,34.77638244624,924
1.649516043081E+018,57,1.649516043081E+018,r1000913c5/base_footprint,0,1.649516043081E+018,v/m1vw10zy74w/map,-8.72713729745,-1.15868461425,0,0,0,-0.726584164516,0.687077471523,0,61.1495628357,13.6745605469,43.067325592,95.6291503906,39.3076477051,39.3076477051,61.1495628357,61.1495628357,28.0953674316,0.140344053507,0,0.00355072272941,0.0772573053837,0.0898885801435,0.0863378569484,4.06453895569,0.229128822684,-0.887184143066,-0.00936421472579,6.24576187134,0.137108549476,6.68101501465,0.19211357832,17.73909950259,94.741966247534,45.55340957644,34.77638244625,924
1.64951604318119E+018,58,1.64951604318119E+018,r1000913c5/base_footprint,0,1.64951604318119E+018,v/m1vw10zy74w/map,-8.72756469342,-1.2875189545,0,0,0,-0.731971851006,0.681334873124,0,61.0446014404,10.8035373688,43.6043281555,95.7354049683,39.2736167908,39.2736167908,61.0446014404,61.0446014404,29.9997005463,0.157091647387,0,0.00261055887677,0.0725409388542,0.0824481323361,0.0798375681043,5.40454483032,0.333447515965,-0.579261779785,-0.00608748709783,2.16804122925,0.0523155033588,5.99976539612,0.166662618518,16.20808219912,95.156143188515,41.44165802005,35.99946594242,325
1.64951604328244E+018,59,1.64951604328244E+018,r1000913c5/base_footprint,0,1.64951604328245E+018,v/m1vw10zy74w/map,-8.72756469342,-1.2875189545,0,0,0,-0.731971851006,0.681334873124,0,61.0510482788,8.74811458588,43.6043281555,95.7354049683,39.2648429871,39.2648429871,61.0510482788,61.0510482788,29.7888965607,0.17123106122,0,0.00266532925889,0.0694257244468,0.0780052617192,0.0753399282694,7.45996761322,0.460262209177,-0.579261779785,-0.00608748709783,2.17681503296,0.0525272190571,6.21056938171,0.172518372536,16.2080821991,95.156143188515,41.44165802006,35.99946594241,325
1.64951604338232E+018,60,1.64951604338232E+018,r1000913c5/base_footprint,0,1.64951604338232E+018,v/m1vw10zy74w/map,-8.72756469342,-1.2875189545,0,0,0,-0.731971851006,0.681334873124,0,61.1328620911,8.91840648651,43.6043281555,95.7354049683,39.1835212708,39.1835212708,61.1328620911,61.1328620911,27.4379482269,0.195856064558,0,0.00239681173116,0.0649211481214,0.0684025138617,0.0660056993365,7.28967571259,0.449755609035,-0.579261779785,-0.00608748709783,2.25813674927,0.0544895380735,8.56151771545,0.237823471427,16.2080821991,95.156143188515,41.44165802007,35.99946594235,325
1.64951604878124E+018,61,1.64951604878124E+018,r1000913c5/base_footprint,0,1.64951604878124E+018,v/m1vw10zy74w/map,-8.68022287792,-2.39280963371,0,0,0,-0.701290324771,0.712875781874,0,61.2567062378,8.74811458588,44.3224639893,96.1280059814,39.1664505005,39.1664505005,61.2567062378,61.2567062378,26.4377841949,0.295653313398,0,0.015530503355,0.131978332996,0.0389106832445,0.0544411875308,2.58556938171,0.22813141346,-0.737533569336,-0.00773173198104,1.17718887329,0.0291790459305,0.324542999268,0.0121268602088,11.33368396759,95.390472412064,40.34363937379,26.762327194168,163
1.64951604888187E+018,62,1.64951604888187E+018,r1000913c5/base_footprint,0,1.64951604888187E+018,v/m1vw10zy74w/map,-8.68022287792,-2.39280963371,0,0,0,-0.701290324771,0.712875781874,0,60.3462677002,0,43.5783538818,96.1280059814,38.7491531372,38.7491531372,60.3462677002,60.3462677002,38.3188667297,1.54198157787,0,0.014595868066,0.189703539014,0.0413628704846,0.0559587404132,11.3336839676,1,-0.737533569336,-0.00773173198104,1.59448623657,0.0395226180553,-11.5565395355,-0.431821167469,11.3336839676,95.390472412064,40.34363937377,26.7623271942,163
1.64951604898167E+018,63,1.64951604898167E+018,r1000913c5/base_footprint,0,1.64951604898167E+018,v/m1vw10zy74w/map,-8.68022287792,-2.39280963371,0,0,0,-0.701290324771,0.712875781874,0,60.0351753235,0,43.5783538818,96.1280059814,38.378780365,38.378780365,60.0351753235,60.0351753235,39.91847229,1.41734468937,0,0.0163729414344,0.202535927296,0.0486179552972,0.0649909004569,11.3336839676,1,-0.737533569336,-0.00773173198104,1.96485900879,0.0487030670047,-13.1561450958,-0.491591960192,11.3336839676,95.390472412064,40.34363937379,26.7623271942,163
1.6495160490818E+018,64,1.6495160490818E+018,r1000913c5/base_footprint,0,1.6495160490818E+018,v/m1vw10zy74w/map,-8.68022287792,-2.39280963371,0,0,0,-0.701290324771,0.712875781874,0,60.616104126,0,43.5783538818,96.1280059814,38.1383056641,38.1383056641,60.616104126,60.616104126,26.8646717072,1.54711508751,0,0.0172065012157,0.20205116272,0.0508649982512,0.0680714994669,11.3336839676,1,-0.737533569336,-0.00773173198104,2.20533370972,0.0546637289226,-0.102344512939,-0.00382420071401,11.3336839676,95.390472412064,40.34363937382,26.762327194261,163
1.64951604918109E+018,65,1.64951604918109E+018,r1000913c5/base_footprint,0,1.64951604918109E+018,v/m1vw10zy74w/map,-8.68022287792,-2.39280963371,0,0,0,-0.701290324771,0.712875781874,0,60.1725921631,0,43.5783538818,96.1280059814,37.920501709,37.920501709,60.1725921631,60.1725921631,32.4955711365,1.33735990524,0,0.0181831996888,0.183903753757,0.0616899542511,0.0798731520772,11.3336839676,1,-0.737533569336,-0.00773173198104,2.42313766479,0.0600624457002,-5.73324394226,-0.214228153229,11.3336839676,95.390472412064,40.34363937379,26.76232719424,163
1.64951604928093E+018,66,1.64951604928093E+018,r1000913c5/base_footprint,0,1.64951604928093E+018,v/m1vw10zy74w/map,-8.68179488705,-2.26112089164,0,0,0,-0.712377277412,0.701796704628,0,60.1447906494,0,43.5783538818,96.2969512939,37.7710342407,37.7710342407,60.1447906494,60.1447906494,31.989944458,1.56895637512,0,0.0175264440477,0.171958357096,0.0577319823205,0.0752584263682,11.8273382187,1,-0.895919799805,-0.00939109176397,2.65878295898,0.0657629221678,-3.86307907104,-0.137344807386,11.8273382187,95.401031494095,40.42981719968,28.12686538696,194
1.64951604938089E+018,67,1.64951604938089E+018,r1000913c5/base_footprint,0,1.64951604938089E+018,v/m1vw10zy74w/map,-8.68179488705,-2.26112089164,0,0,0,-0.712377277412,0.701796704628,0,60.354057312,0,43.5783538818,96.2969512939,37.7178001404,37.7178001404,60.354057312,60.354057312,27.6482257843,1.54926729202,0,0.0172713361681,0.16608351469,0.0563904903829,0.073661826551,11.8273382187,1,-0.895919799805,-0.00939109176397,2.71201705933,0.0670796260238,0.478639602661,0.0170171689242,11.8273382187,95.401031494095,40.42981719973,28.126865386961,194
1.64951604948126E+018,68,1.64951604948126E+018,r1000913c5/base_footprint,0,1.64951604948126E+018,v/m1vw10zy74w/map,-8.68170420074,-2.1344339028,0,0,0,-0.712515469403,0.701656401568,0,60.4011268616,0,43.5783538818,96.6921539307,37.6169891357,37.6169891357,60.4011268616,60.4011268616,27.134979248,1.50561571121,0,0.0134497499093,0.138770759106,0.0408823527396,0.0543320998549,12.5471792221,1,-1.34300231934,-0.0140851000324,2.89678192139,0.0715011656284,2.78441810608,0.093063980341,12.5471792221,95.34915161136,40.51377105709,29.91939735408,242
1.64951604958143E+018,69,1.64951604958143E+018,r1000913c5/base_footprint,0,1.64951604958144E+018,v/m1vw10zy74w/map,-8.68170420074,-2.1344339028,0,0,0,-0.712515469403,0.701656401568,0,60.2520256042,0,42.9267349243,96.6921539307,37.5707740784,37.5707740784,60.2520256042,60.2520256042,29.3196411133,1.48559224606,0,0.0128427967429,0.120069392025,0.0316467173398,0.0444895140827,12.5471792221,1,-1.34300231934,-0.0140851000324,2.94299697876,0.0726418942213,0.599756240845,0.0200457330793,12.5471792221,95.34915161136,40.51377105716,29.919397354145,242
1.64951604968105E+018,70,1.64951604968105E+018,r1000913c5/base_footprint,0,1.64951604968105E+018,v/m1vw10zy74w/map,-8.68170420074,-2.1344339028,0,0,0,-0.712515469403,0.701656401568,0,60.6478500366,4.16828966141,42.1714782715,96.6921539307,37.7030982971,37.7030982971,60.6478500366,60.6478500366,23.6239070892,1.08603918552,0,0.0106351412833,0.114835962653,0.0298349577934,0.040470097214,8.37888908386,0.667790651321,-1.34300231934,-0.0140851000324,2.81067276001,0.0693757385015,6.29549026489,0.210415005684,12.54717874527,95.34915161136,40.51377105711,29.91939735409,242
1.64951604978202E+018,71,1.64951604978202E+018,r1000913c5/base_footprint,0,1.64951604978203E+018,v/m1vw10zy74w/map,-8.68132157613,-2.01619286383,0,0,0,-0.712157476044,0.702019749946,0,60.1501579285,6.50564861298,41.5536308289,96.5716705322,37.8957023621,37.8957023621,60.1501579285,60.1501579285,34.2287521362,0.972974121571,0,0.0065312506631,0.10133060813,0.026041617617,0.0325728692114,6.25470924377,0.490167230368,-1.22818756104,-0.0128817148507,2.73009109497,0.0672009289265,-3.38493919373,-0.109744511545,12.76035785675,95.34348297116,40.62579345707,30.84381294247,278
1.64951604988189E+018,72,1.64951604988189E+018,r1000913c5/base_footprint,0,1.64951604988189E+018,v/m1vw10zy74w/map,-8.67750957392,-1.88731186566,0,0,0,-0.713170384536,0.70099072934,0,59.6482849121,9.09090900421,41.5536308289,96.1645355225,38.1145744324,38.1145744324,59.6482849121,59.6482849121,44.1606445312,0.89891898632,0,0.00505424570292,0.0907338485122,0.02162120305,0.0266754496843,4.41392612457,0.326840430498,-0.891494750977,-0.00935726147145,2.59989929199,0.0638568773866,-12.2565231323,-0.384167402983,13.50483512878,95.273040771523,40.71447372439,31.9041213989,302
1.649516049982E+018,73,1.649516049982E+018,r1000913c5/base_footprint,0,1.649516049982E+018,v/m1vw10zy74w/map,-8.67793008432,-1.89060348553,0,0,0,-0.71342542268,0.700731165479,0,60.1161384583,9.90320205688,40.6886329651,96.1130905151,38.3847618103,38.3847618103,60.1161384583,60.1161384583,38.4720306396,0.786549210548,0,0.00279577472247,0.0788882300258,0.0182466544211,0.0210424289107,3.6016330719,0.266692131758,-0.840049743652,-0.00881728716195,2.32971191406,0.0572207309306,-6.56790924072,-0.205863967538,13.50483512878,95.273040771448,40.71447372436,31.90412139888,302
1.64951605008098E+018,74,1.64951605008098E+018,r1000913c5/base_footprint,0,1.64951605008098E+018,v/m1vw10zy74w/map,-8.67793008432,-1.89060348553,0,0,0,-0.71342542268,0.700731165479,0,59.8119010925,7.08130407333,40.6886329651,96.1130905151,38.527179718,38.527179718,59.8119010925,59.8119010925,45.4864044189,0.600006878376,0,0.00153546954971,0.0732958912849,0.0188308358192,0.0203663054854,6.42353105545,0.47564676404,-0.840049743652,-0.00881728716195,2.18729400635,0.0537227615714,-13.58228302,-0.425721883774,13.50483512878,95.273040771448,40.71447372435,31.9041213989,302
1.64951605018082E+018,75,1.64951605018082E+018,r1000913c5/base_footprint,0,1.64951605018082E+018,v/m1vw10zy74w/map,-8.67769221068,-1.76038449322,0,0,0,-0.713653579763,0.700498799493,0,60.0756645203,9.67741966248,39.6464920044,95.9418106079,38.6176872253,38.6176872253,60.0756645203,60.0756645203,41.0995597839,0.800795197487,0,0.00136392656714,0.062898054719,0.0179278906435,0.0192918181419,4.34668731689,0.309943974018,-0.668487548828,-0.00701652374119,2.19850158691,0.0538634695113,-7.68153381348,-0.229861989617,14.02410697937,95.273323059072,40.81618881221,33.41802597042,305
1.64951605028114E+018,76,1.64951605028114E+018,r1000913c5/base_footprint,0,1.64951605028114E+018,v/m1vw10zy74w/map,-8.67769221068,-1.76038449322,0,0,0,-0.713653579763,0.700498799493,0,60.281879425,9.15859985352,38.788066864,95.9418106079,38.6945266724,38.6945266724,60.281879425,60.281879425,38.2176055908,1.00328230858,0,0.00112927996088,0.0562115199864,0.0181625373662,0.0192918181419,4.86550712585,0.346938818693,-0.668487548828,-0.00701652374119,2.12166213989,0.0519808977842,-4.79957962036,-0.143622472882,14.02410697937,95.273323059072,40.81618881229,33.41802597044,305
1.64951605038165E+018,77,1.64951605038165E+018,r1000913c5/base_footprint,0,1.64951605038166E+018,v/m1vw10zy74w/map,-8.67384215018,-1.63140009931,0,0,0,-0.714005733581,0.700139852039,0,59.6812515259,8.74811458588,38.788066864,95.5964889526,38.7212257385,38.7212257385,59.6812515259,59.6812515259,48.0740623474,0.719195008278,0,0.000873358047102,0.0497814044356,0.0184184592217,0.0192918181419,6.21918487549,0.415518164635,-0.354484558105,-0.00372193497606,2.28210449219,0.0556565634906,-13.083732605,-0.373924255371,14.96729946137,95.242004394495,41.00333023069,34.9903297424,316
1.64951605048193E+018,78,1.64951605048193E+018,r1000913c5/base_footprint,0,1.64951605048193E+018,v/m1vw10zy74w/map,-8.673692878,-1.6227661507,0,0,0,-0.714109345823,0.700034172172,0,59.7693710327,7.99396657944,38.1065368652,95.7061920166,38.7305145264,38.7305145264,59.7693710327,59.7693710327,46.9831695557,0.525058507919,0,0.000522523070686,0.0435806028545,0.0187692958862,0.0192918181419,6.97333288193,0.465904533863,-0.46418762207,-0.00487376982346,2.27281570435,0.0554300285876,-11.9928398132,-0.342747271061,14.96729946137,95.24200439453,41.00333023075,34.9903297425,316
1.64951605058195E+018,79,1.64951605058195E+018,r1000913c5/base_footprint,0,1.64951605058195E+018,v/m1vw10zy74w/map,-8.673692878,-1.6227661507,0,0,0,-0.714109345823,0.700034172172,0,59.9059410095,9.50226211548,38.1065368652,95.7061920166,38.723487854,38.723487854,59.9059410095,59.9059410095,44.4490089417,0.562103033066,0,7.04638441675E-05,0.0376747474074,0.0182345379144,0.0183050017804,5.46503734589,0.365131825209,-0.46418762207,-0.00487376982346,2.27984237671,0.0556013956666,-9.45867919922,-0.270322650671,14.96729946137,95.24200439453,41.00333023071,34.99032974248,316
1.64951605068168E+018,80,1.64951605068168E+018,r1000913c5/base_footprint,0,1.64951605068168E+018,v/m1vw10zy74w/map,-8.6739652414,-1.48490833507,0,0,0,-0.712634352432,0.701535658206,0,59.572555542,9.50226211548,37.6909141541,95.7079315186,38.7710113525,38.7710113525,59.572555542,59.572555542,50.9694671631,0.409422397614,0,7.3911905929E-05,0.0347785837948,0.0183789152652,0.0183050017804,6.11314868927,0.391481757164,-0.526657104492,-0.00553320068866,2.37934494019,0.0578207634389,-14.7290267944,-0.406425148249,15.61541080475,95.181274414108,41.15035629269,36.2404403687,309
1.64951605088088E+018,81,1.64951605088088E+018,r1000913c5/base_footprint,0,1.64951605088088E+018,v/m1vw10zy74w/map,-8.6739652414,-1.48490833507,0,0,0,-0.712634352432,0.701535658206,0,59.6301498413,10.4364328384,37.4913978577,95.7079315186,38.8281021118,38.8281021118,59.6301498413,59.6301498413,50.5493736267,0.732630193233,0,0.000203192699701,0.0287783090025,0.0185081958771,0.0183050017804,5.17897796631,0.331658124924,-0.526657104492,-0.00553320068866,2.32225418091,0.056433390826,-14.3089332581,-0.39483332634,15.61541080471,95.181274414108,41.15035629271,36.2404403686,309
1.64951605098107E+018,82,1.64951605098107E+018,r1000913c5/base_footprint,0,1.64951605098107E+018,v/m1vw10zy74w/map,-8.67429127709,-1.36844285774,0,0,0,-0.712044270868,0.702134571378,0,59.4973487854,10.6187925339,37.4913978577,95.1883621216,38.8634757996,38.8634757996,59.4973487854,59.4973487854,51.4513587952,0.39847099781,0,4.77463545394E-05,0.0210529454052,0.0183527488261,0.0183050017804,5.1355047226,0.325974851847,-0.0228576660156,-0.000240188572207,2.36573791504,0.0573801361024,-15.1724700928,-0.418217599392,15.7542972565,95.1655044555844,41.22921371464,36.2788887024,324
1.64951605108232E+018,83,1.64951605108232E+018,r1000913c5/base_footprint,0,1.64951605108232E+018,v/m1vw10zy74w/map,-8.67115276209,-1.34771129593,0,0,0,-0.713580099948,0.700573651344,0,59.5826454163,13.4724855423,37.5424194336,95.3045349121,38.8339004517,38.8339004517,59.5826454163,59.5826454163,50.0148468018,0.169916242361,0,7.40415853215E-05,0.01647500135,0.0183790437877,0.0183050017804,2.61370944977,0.1624815166,-0.146667480469,-0.00154130696319,2.53268432617,0.0612253658473,-13.7114677429,-0.377691239119,16.08619499207,95.157867431631,41.36658477787,36.3033790589,316
1.64951605118132E+018,84,1.64951605118132E+018,r1000913c5/base_footprint,0,1.64951605118132E+018,v/m1vw10zy74w/map,-8.67115276209,-1.34771129593,0,0,0,-0.713580099948,0.700573651344,0,59.468170166,12.3414068222,37.5424194336,95.3045349121,38.8073730469,38.8073730469,59.468170166,59.468170166,51.7888946533,0.272727280855,0,5.60681255592E-05,0.00951314065605,0.0175885912031,0.0175325237215,3.74478816986,0.232795149088,-0.146667480469,-0.00154130696319,2.55921173096,0.0618666447699,-15.4855155945,-0.42655852437,16.08619499206,95.157867431631,41.36658477786,36.3033790588,316
1.64951605128201E+018,85,1.64951605128201E+018,r1000913c5/base_footprint,0,1.64951605128201E+018,v/m1vw10zy74w/map,-8.67054881727,-1.20849969408,0,0,0,-0.713147187748,0.701014328389,0,59.6681022644,13.4724855423,37.8743476868,95.4201126099,38.8395385742,38.8395385742,59.6681022644,59.6681022644,48.9536170959,0.308027476072,0,0.000150760693941,0.0650934204459,0.0167522300035,0.0169029906392,4.55516147614,0.252676427364,-0.513496398926,-0.00541054364294,6.35489273071,0.14061228931,-14.2516860962,-0.41068854928,18.02764701844,94.906616210974,45.19443130491,34.7019309997,787
1.64951605138167E+018,86,1.64951605138167E+018,r1000913c5/base_footprint,0,1.64951605138167E+018,v/m1vw10zy74w/map,-8.67054881727,-1.20849969408,0,0,0,-0.713147187748,0.701014328389,0,60.043056488,19.0221538544,38.5487327576,95.4201126099,38.8938980103,38.8938980103,60.043056488,60.043056488,42.791519165,0.288238108158,0,0.00234351190738,0.110987238586,0.0162847191095,0.0186282303184,-0.994506835938,-0.0551656484604,-0.513496398926,-0.00541054364294,6.30053329468,0.139409512281,-8.08958816528,-0.23311637342,18.027647018462,94.906616210974,45.19443130498,34.70193099972,787
1.6495160514821E+018,87,1.6495160514821E+018,r1000913c5/base_footprint,0,1.6495160514821E+018,v/m1vw10zy74w/map,-8.67054881727,-1.20849969408,0,0,0,-0.713147187748,0.701014328389,0,59.9973564148,14.4385023117,38.5487327576,95.4201126099,38.8330802917,38.8330802917,59.9973564148,59.9973564148,42.9572525024,0.133136883378,0,0.000729088205844,0.12806096673,0.014170050621,0.0148991392925,3.58914470673,0.199091136456,-0.513496398926,-0.00541054364294,6.36135101318,0.140755191445,-8.25532150269,-0.237892284989,18.02764701843,94.906616210974,45.19443130488,34.70193099971,787
1.64951605158235E+018,88,1.64951605158235E+018,r1000913c5/base_footprint,0,1.64951605158236E+018,v/m1vw10zy74w/map,-8.667441375,-1.07987441038,0,0,0,-0.713235236828,0.700924744139,0,60.221282959,14.4385023117,39.4063644409,95.5075759888,38.8510704041,38.8510704041,60.221282959,60.221282959,39.4357261658,0.514915466309,0,0.00150533509441,0.151283115149,0.00699743954465,0.00549210421741,3.51191616058,0.195645362139,-0.827644348145,-0.00874149706215,6.96131515503,0.151952683926,-4.63879013062,-0.133310303092,17.95041847228,94.679931640655,45.81238555913,34.79693603518,1025
1.64951605168097E+018,89,1.64951605168097E+018,r1000913c5/base_footprint,0,1.64951605168097E+018,v/m1vw10zy74w/map,-8.667441375,-1.07987441038,0,0,0,-0.713235236828,0.700924744139,0,60.4496574402,16.9550170898,40.9018135071,95.5075759888,38.8633499146,38.8633499146,60.4496574402,60.4496574402,35.4575805664,0.264353007078,0,0.00240354146808,0.156217455864,0.00351692852564,0.00111338717397,0.995401382446,0.0554528236389,-0.827644348145,-0.00874149706215,6.94903564453,0.151684656739,-0.66064453125,-0.0189857091755,17.950418472246,94.679931640655,45.81238555913,34.79693603515,1025
1.64951605178084E+018,90,1.64951605178084E+018,r1000913c5/base_footprint,0,1.64951605178084E+018,v/m1vw10zy74w/map,-8.667441375,-1.07987441038,0,0,0,-0.713235236828,0.700924744139,0,60.3464546204,14.0271492004,40.9018135071,95.5075759888,38.9218864441,38.9218864441,60.3464546204,60.3464546204,37.9474334717,0.12777556479,0,0.00405216775835,0.158657297492,0.00157090299763,0.00562307052314,3.92326927185,0.218561440706,-0.827644348145,-0.00874149706215,6.89049911499,0.150406911969,-3.15049743652,-0.0905395075679,17.95041847225,94.679931640655,45.81238555909,34.79693603518,1025
1.64951605188113E+018,91,1.64951605188113E+018,r1000913c5/base_footprint,0,1.64951605188113E+018,v/m1vw10zy74w/map,-8.66557283293,-0.939512578263,0,0,0,-0.711782242552,0.702400198738,0,60.7152519226,14.4385023117,42.6383171082,95.2788314819,38.9777488708,38.9777488708,60.7152519226,60.7152519226,31.0889472961,0.146547570825,0,0.00459436886013,0.157777294517,0.00639955606312,0.0109939249232,3.70832538605,0.204351171851,-0.674613952637,-0.00713090784848,7.22694778442,0.156411543489,3.64461517334,0.104930646718,18.14682769775,94.604217529263,46.20469665522,34.73356246944,1170
1.64951605198156E+018,92,1.64951605198156E+018,r1000913c5/base_footprint,0,1.64951605198156E+018,v/m1vw10zy74w/map,-8.66633765514,-0.938412694317,0,0,0,-0.711972114729,0.702207738385,0,60.4249687195,12.1466770172,42.6383171082,95.4005661011,38.9929618835,38.9929618835,60.4249687195,60.4249687195,36.9165916443,0.167760819197,0,0.00293105072342,0.155158638954,0.0062472675927,0.00917831808329,6.00015068054,0.330644607544,-0.796348571777,-0.00841768551618,7.21173477173,0.156082287431,-2.1830291748,-0.0628507137299,18.14682769774,94.604217529323,46.20469665523,34.7335624695,1170
1.6495160520821E+018,93,1.6495160520821E+018,r1000913c5/base_footprint,0,1.6495160520821E+018,v/m1vw10zy74w/map,-8.66633765514,-0.938412694317,0,0,0,-0.711972114729,0.702207738385,0,60.7383995056,16.18608284,42.6383171082,95.4005661011,38.9975852966,38.9975852966,60.7383995056,60.7383995056,31.3247928619,0.144077897072,0,0.00318816863,0.15405908227,0.00299569964409,0.00618386827409,1.96074485779,0.108048908412,-0.796348571777,-0.00841768551618,7.20711135864,0.155982226133,3.40876960754,0.0981405153871,18.14682769779,94.604217529323,46.20469665524,34.73356246944,1170
1.64951605218211E+018,94,1.64951605218211E+018,r1000913c5/base_footprint,0,1.64951605218211E+018,v/m1vw10zy74w/map,-8.66441273946,-0.806884315422,0,0,0,-0.712306739764,0.701868298534,0,60.8068313599,13.6745605469,44.3477363586,95.465927124,38.9660110474,38.9660110474,60.8068313599,60.8068313599,29.9873313904,0.178264483809,0,0.00381648587063,0.153950288892,0.00415000598878,0.00796649139374,4.57271766663,0.250597238541,-0.903961181641,-0.00955945812166,7.5846824646,0.162933826447,4.68896865845,0.135221138597,18.24727821353,94.561965942359,46.550693512,34.67630004885,1182
1.64951605228197E+018,95,1.64951605228197E+018,r1000913c5/base_footprint,0,1.64951605228197E+018,v/m1vw10zy74w/map,-8.66441273946,-0.806884315422,0,0,0,-0.712306739764,0.701868298534,0,60.9599266052,14.6482124329,44.3477363586,95.465927124,38.9001274109,38.9001274109,60.9599266052,60.9599266052,26.52003479,0.244912788272,0,0.00335368420929,0.154036536813,0.00532157532871,0.00867525953799,3.59906578064,0.197238504887,-0.903961181641,-0.00955945812166,7.65056610107,0.164349138737,8.15626525879,0.235211521387,18.24727821354,94.561965942359,46.55069351197,34.67630004879,1182
1.64951605238146E+018,96,1.64951605238146E+018,r1000913c5/base_footprint,0,1.64951605238146E+018,v/m1vw10zy74w/map,-8.66057028923,-0.692060740765,0,0,0,-0.713024041233,0.701139584265,0,60.7840080261,16.7303276062,46.1843795776,95.3001098633,38.858165741,38.858165741,60.7840080261,60.7840080261,28.6364803314,0.275691241026,0,0.00295834662393,0.153973788023,0.00523487152532,0.00819321814924,1.49190139771,0.0818726047873,-0.765914916992,-0.00810198765248,7.85461425781,0.168147012591,6.00622749329,0.173376381397,18.22222900391,94.534194946308,46.71277999881,34.64270782469,1145
1.64951605248185E+018,97,1.64951605248185E+018,r1000913c5/base_footprint,0,1.64951605248185E+018,v/m1vw10zy74w/map,-8.66057028923,-0.692060740765,0,0,0,-0.713024041233,0.701139584265,0,60.289806366,14.4385023117,46.1843795776,95.3001098633,38.8268966675,38.8268966675,60.289806366,60.289806366,37.1943817139,-0.0426504015923,0,0.00272645312361,0.153890773654,0.00500184809789,0.00772830145434,3.7837266922,0.207643464208,-0.765914916992,-0.00810198765248,7.8858833313,0.168816402555,-2.55167388916,-0.073656886816,18.2222290039,94.534194946308,46.7127799988,34.64270782474,1145
1.64951605258175E+018,98,1.64951605258175E+018,r1000913c5/base_footprint,0,1.64951605258175E+018,v/m1vw10zy74w/map,-8.66057028923,-0.692060740765,0,0,0,-0.713024041233,0.701139584265,0,60.7196044922,13.6745605469,46.1843795776,95.3001098633,38.8032989502,38.8032989502,60.7196044922,60.7196044922,29.2031574249,0.234025418758,0,0.00248106475919,0.153848797083,0.00524723669514,0.00772830145434,4.54766845703,0.249567076564,-0.765914916992,-0.00810198765248,7.90948104858,0.16932156682,5.43955039978,0.157018631697,18.22222900393,94.534194946308,46.71277999878,34.64270782468,1145
1.64951605268129E+018,99,1.64951605268129E+018,r1000913c5/base_footprint,0,1.64951605268129E+018,v/m1vw10zy74w/map,-8.65972441202,-0.577220895625,0,0,0,-0.712892975461,0.701272846714,0,60.3486785889,13.8792772293,47.4923782349,94.7419433594,38.7785224915,38.7785224915,60.3486785889,60.3486785889,33.6028251648,0.256935924292,0,0.00343946297653,0.154145926237,0.00547899492085,0.00891845766455,4.31281375885,0.237070813775,-0.220527648926,-0.00233309715986,7.99863052368,0.170994386077,1.07895278931,0.0311100780964,18.19209098815,94.521415710474,46.77715301518,34.68177795411,1090
1.64951605368184E+018,100,1.64951605368184E+018,r1000913c5/base_footprint,0,1.64951605368184E+018,v/m1vw10zy74w/map,-8.66115566482,-0.450809687092,0,0,0,-0.711547614225,0.702637881623,0,60.0608596802,12.910618782,47.4923782349,94.3119049072,38.703918457,38.703918457,60.0608596802,60.0608596802,36.4296646118,0.0917266607285,0,0.00193394068629,0.211058333516,0.0182614214718,0.0163274798542,5.09479618073,0.282959103584,0.179023742676,0.00189461302944,8.01196670532,0.171504124999,-1.93699264526,-0.056156642735,18.00541496273,94.490928649876,46.71588516232,34.49267196654,943
1.64951605378204E+018,101,1.64951605378204E+018,r1000913c5/base_footprint,0,1.64951605378204E+018,v/m1vw10zy74w/map,-8.66115566482,-0.450809687092,0,0,0,-0.711547614225,0.702637881623,0,60.7742156982,12.1466770172,54.2793235779,94.3119049072,38.6945648193,38.6945648193,60.7742156982,60.7742156982,23.4882850647,0.173971921206,0,0.00201283232309,0.211656540632,0.0348530374467,0.0328402072191,5.85873794556,0.325387567282,0.179023742676,0.00189461302944,8.02132034302,0.171704337001,11.0043869019,0.319035500288,18.00541496276,94.490928649876,46.71588516232,34.4926719666,943
