%time,field.header.seq,field.header.stamp,field.header.frame_id,field.pose.header.seq,field.pose.header.stamp,field.pose.header.frame_id,field.pose.pose.position.x,field.pose.pose.position.y,field.pose.pose.position.z,field.pose.pose.orientation.x,field.pose.pose.orientation.y,field.pose.pose.orientation.z,field.pose.pose.orientation.w,field.label,field.main_output,field.scan_score,field.pose_score,field.cov_score,field.lhood_map_score,field.lhood_robot_score,field.lhood_map_score_all,field.lhood_robot_score_all,field.point_angle_diff,field.average_orientation,field.map_average_orientation,field.sensor_div,field.odom_div_x,field.odom_div_w,field.imu_div_w,field.kdtree_div,field.kdtree_div_p,field.cov_div,field.cov_div_p,field.likelihood_div,field.likelihood_div_p,field.normal_diff_div,field.normal_diff_div_p,field.kdtree_average,field.cov_average,field.likelihood_average,field.normal_diff_average,field.map_update_count
1.64952130202146E+018,0,1.64952130202146E+018,r1000913c5/base_footprint,0,1.64952130202146E+018,v/m1vw10zy74w/map,-7.37437636195,-0.75059878417,0,0,0,-0.0697096927739,0.997567320402,0,68.7143478394,28.2153530121,100,96.6369476318,52.389831543,52.389831543,68.7143478394,68.7143478394,36.8449287415,-0.105209693313,0,0.0019676531665,0.283611953259,0.0278267934918,0.029794447124,-12.2621850967,-0.768636345863,-2.11225128174,-0.0223460253328,-5.96657943726,-0.128525674343,-0.877300262451,-0.0243913847953,15.9531679154,94.52469635006,46.42325210574,35.967628479049,1230
1.64952130212073E+018,1,1.64952130212073E+018,r1000913c5/base_footprint,0,1.64952130212073E+018,v/m1vw10zy74w/map,-7.37437636195,-0.75059878417,0,0,0,-0.0697096927739,0.997567320402,0,68.6259689331,27.3075084686,48.7952079773,96.6369476318,52.2402801514,52.2402801514,68.6259689331,68.6259689331,36.8205490112,0.32678732276,0,0.000542918161955,0.286593794823,0.0124618671834,0.0130047854036,-11.3543405533,-0.71172952652,-2.11225128174,-0.0223460253328,-5.81702804565,-0.125304192305,-0.852920532227,-0.0237135607749,15.9531679153,94.52469635006,46.42325210575,35.967628478973,1230
1.64952130222084E+018,2,1.64952130222084E+018,r1000913c5/base_footprint,0,1.64952130222084E+018,v/m1vw10zy74w/map,-7.2604369703,-0.769577601744,0,0,0,-0.116537711526,0.99318626742,0,68.4876708984,25.3034553528,48.9290733337,96.2108078003,52.0352973938,52.0352973938,68.4876708984,68.4876708984,35.5620117188,0.287639319897,0,0.000620600301772,0.325117379427,0.00130778923631,0.000687188934535,-9.4663734436,-0.597734689713,-1.6978225708,-0.0179639086127,-5.83060073853,-0.126190647483,0.385883331299,0.0107345180586,15.8370819092,94.5129852295,46.20469665527,35.947895050099,1262
1.64952130232085E+018,3,1.64952130232085E+018,r1000913c5/base_footprint,0,1.64952130232085E+018,v/m1vw10zy74w/map,-7.2604369703,-0.769577601744,0,0,0,-0.116537711526,0.99318626742,0,68.4675674438,23.764705658,48.6975631714,96.2108078003,51.7813682556,51.7813682556,68.4675674438,68.4675674438,33.181438446,0.555431783199,0,0.00332791358232,0.364699602127,0.0159257818013,0.0125978672877,-7.92762374878,-0.500573515892,-1.6978225708,-0.0179639086127,-5.57667160034,-0.120694905519,2.766456604,0.0769574046135,15.83708190922,94.5129852295,46.20469665526,35.94789505,1262
1.64952130242202E+018,4,1.64952130242202E+018,r1000913c5/base_footprint,0,1.64952130242202E+018,v/m1vw10zy74w/map,-7.2604369703,-0.769577601744,0,0,0,-0.116537711526,0.99318626742,0,68.2028884888,22.2011394501,48.7184104919,96.2108078003,51.6193618774,51.6193618774,68.2028884888,68.2028884888,36.1959609985,0.286850124598,0,0.00021162746998,0.366485923529,0.039924737066,0.0397131070495,-6.36405754089,-0.40184533596,-1.6978225708,-0.0179639086127,-5.41466522217,-0.117188632488,-0.248065948486,-0.00690070865676,15.83708190921,94.5129852295,46.20469665523,35.947895050014,1262
1.64952130252082E+018,5,1.64952130252082E+018,r1000913c5/base_footprint,0,1.64952130252082E+018,v/m1vw10zy74w/map,-7.22153031614,-0.778817097771,0,0,0,-0.165476291133,0.986213768446,0,68.484916687,19.9209098816,48.6798439026,96.3958969116,51.5347366333,51.5347366333,68.484916687,68.484916687,30.8718967438,0.325380504131,0,0.00147169316188,0.364642500877,0.0536904074252,0.055162101984,-3.9542798996,-0.247659012675,-1.86656951904,-0.0197459310293,-5.36716842651,-0.116254083812,4.95052528381,0.138196274638,15.966629982,94.52932739256,46.16756820679,35.82242202761,1256
1.64952130262297E+018,6,1.64952130262297E+018,r1000913c5/base_footprint,0,1.64952130262297E+018,v/m1vw10zy74w/map,-7.22463604549,-0.776796950618,0,0,0,-0.225494667489,0.974244402054,0,68.4697418213,8.389585495,48.714050293,96.2669677734,51.2156867981,51.2156867981,68.4697418213,68.4697418213,27.2351036072,0.199750080705,0,0.00265275756828,0.352505266666,0.0386631973088,0.036010440439,7.577044487,0.474555015564,-1.73764038086,-0.01838202402,-5.04811859131,-0.109343394637,8.58731842041,0.239719092846,15.966629982,94.52932739254,46.16756820679,35.82242202761,1256
1.64952130272077E+018,7,1.64952130272077E+018,r1000913c5/base_footprint,0,1.64952130272077E+018,v/m1vw10zy74w/map,-7.22455518469,-0.776266293563,0,0,0,-0.271980892685,0.962302651983,0,67.1206665039,7.27816534042,48.698387146,96.0263137817,50.2492027283,50.2492027283,67.1206665039,67.1206665039,40.2141227722,0.127167165279,0,0.00141723605338,0.345372647047,0.0273307561874,0.0259135197848,8.68846511841,0.544164001942,-1.49698638916,-0.0158362109214,-4.08163452148,-0.0884091332555,-4.39170074463,-0.122596420348,15.96663045883,94.52932739254,46.16756820682,35.82242202757,1256
1.64952130282063E+018,8,1.64952130282063E+018,r1000913c5/base_footprint,0,1.64952130282063E+018,v/m1vw10zy74w/map,-7.21897409804,-0.776847454189,0,0,0,-0.278075780283,0.96055913947,0,67.5869827271,9.42217636108,48.5066070557,96.5906066895,49.4711875916,49.4711875916,67.5869827271,67.5869827271,25.4493560791,0.46514248848,0,0.00116436311509,0.339474111795,0.0234089642763,0.0222446024418,6.54445362091,0.409883201122,-2.06127929688,-0.0218057129532,-3.30361938477,-0.0715571418405,10.3730659485,0.289569079876,15.96662998199,94.52932739262,46.16756820683,35.8224220276,1256
1.64952130292082E+018,9,1.64952130292082E+018,r1000913c5/base_footprint,0,1.64952130292082E+018,v/m1vw10zy74w/map,-7.22007293872,-0.774501303446,0,0,0,-0.325657636365,0.945487759771,0,66.4805603027,17.248254776,48.0914573669,96.6308364868,48.7757644653,48.7757644653,66.4805603027,66.4805603027,37.9992179871,0.137433841825,0,0.00107601471245,0.327955812216,0.00583697902039,0.00476096430793,-1.28162479401,-0.0802689641714,-2.10150909424,-0.0222312919796,-2.60819625854,-0.0564941242337,-2.17679595947,-0.0607662983239,15.96662998199,94.52932739256,46.16756820676,35.82242202763,1256
1.64952130302073E+018,10,1.64952130302073E+018,r1000913c5/base_footprint,0,1.64952130302073E+018,v/m1vw10zy74w/map,-7.22722698257,-0.771046342499,0,0,0,-0.380689111555,0.924703087668,0,66.353553772,18.9322795868,47.4919281006,96.6293945312,48.0452461243,48.0452461243,66.353553772,66.353553772,32.3904533386,0.138118639588,0,0.000881796120666,0.320359677076,0.00361177651212,0.0044935727492,-2.9656496048,-0.185740485787,-2.10006713867,-0.0222160387784,-1.87767791748,-0.0406709313393,3.43196868896,0.095805041492,15.966629982,94.52932739253,46.16756820682,35.82242202756,1256
1.64952130312101E+018,11,1.64952130312101E+018,r1000913c5/base_footprint,0,1.64952130312101E+018,v/m1vw10zy74w/map,-7.2300144727,-0.770025080294,0,0,0,-0.433628381966,0.901091796852,0,66.0459823608,20.239282608,46.8753166199,96.7114639282,47.4339408875,47.4339408875,66.0459823608,66.0459823608,31.6201915741,0.147806480527,0,0.000631379429251,0.301950544119,0.017362639308,0.0179940182716,-4.27265262604,-0.267598897219,-2.18213653564,-0.0230842269957,-1.26637268066,-0.0274299196899,4.20223045349,0.117307268083,15.96662998196,94.52932739256,46.16756820684,35.82242202759,1256
1.64952130322054E+018,12,1.64952130322054E+018,r1000913c5/base_footprint,0,1.64952130322054E+018,v/m1vw10zy74w/map,-7.23082033014,-0.769183324296,0,0,0,-0.484819303631,0.874614339482,0,65.704246521,22.5741577148,46.2283668518,96.7574234009,46.9110603333,46.9110603333,65.704246521,65.704246521,32.2897377014,0.0904364511371,0,0.00264871283434,0.274622172117,0.0315982475877,0.0342469587922,-6.60752773285,-0.413833588362,-2.2280960083,-0.0235704202205,-0.743492126465,-0.0161042083055,3.53268432617,0.0986165702343,15.96662998195,94.5293273926,46.167568206835,35.82242202757,1256
1.64952130332095E+018,13,1.64952130332095E+018,r1000913c5/base_footprint,0,1.64952130332095E+018,v/m1vw10zy74w/map,-7.23630835273,-0.765978337455,0,0,0,-0.483871282869,0.875139178425,0,65.1914825439,20.6566352844,45.5703926086,96.6640472412,46.2331314087,46.2331314087,65.1914825439,65.1914825439,33.8616638184,0.246158108115,0,0.00153632205911,0.257425993681,0.0362074673176,0.0377437919378,-4.81955337524,-0.304320782423,-2.15106201172,-0.0227594338357,-0.028434753418,-0.000615408294834,2.08623123169,0.058034863323,15.83708190916,94.51298522948,46.204696655282,35.94789505009,1262
1.6495213034209E+018,14,1.6495213034209E+018,r1000913c5/base_footprint,0,1.64952130342092E+018,v/m1vw10zy74w/map,-7.23988220875,-0.76364399641,0,0,0,-0.539568823799,0.841941497008,0,65.2399673462,17.5544242859,44.8618812561,96.6828079224,45.6507644653,45.6507644653,65.2399673462,65.2399673462,26.7669754028,0.265521913767,0,0.00110761146061,0.211085408926,0.0450587831438,0.0461663939059,-1.71734237671,-0.108438059688,-2.16982269287,-0.022957932204,0.553932189941,0.011988655664,9.18091964722,0.255395203829,15.83708190919,94.51298522953,46.204696655241,35.94789505002,1262
1.64952130352109E+018,15,1.64952130352109E+018,r1000913c5/base_footprint,0,1.64952130352109E+018,v/m1vw10zy74w/map,-7.2453109262,-0.761499147503,0,0,0,-0.580814649182,0.814035836617,0,64.6643829346,18.0035648346,44.381855011,96.5745239258,45.2296257019,45.2296257019,64.6643829346,64.6643829346,32.189289093,0.244855999947,0,0.000518511631526,0.197216778994,0.0550824515522,0.0556009635329,-2.16648292542,-0.136798113585,-2.06153869629,-0.0218122266233,0.975070953369,0.0211032871157,3.75860595703,0.104557052255,15.83708190918,94.51298522951,46.204696655269,35.94789505003,1262
1.64952130362106E+018,16,1.64952130362106E+018,r1000913c5/base_footprint,0,1.64952130362106E+018,v/m1vw10zy74w/map,-7.2453109262,-0.761499147503,0,0,0,-0.580814649182,0.814035836617,0,64.8400497437,20.9558830261,43.7445335388,96.5745239258,44.8808822632,44.8808822632,64.8400497437,64.8400497437,25.2608604431,0.252227157354,0,5.53912468604E-06,0.18218241632,0.067571438849,0.0675769820809,-5.11880111694,-0.323216170073,-2.06153869629,-0.0218122266233,1.32381439209,0.028651079163,10.6870346069,0.297292351723,15.83708190916,94.51298522951,46.20469665529,35.94789505,1262
1.64952130372077E+018,17,1.64952130372077E+018,r1000913c5/base_footprint,0,1.64952130372077E+018,v/m1vw10zy74w/map,-7.25547108653,-0.75932241974,0,0,0,-0.627517732552,0.77860227031,0,64.8371963501,13.5472373962,43.0225219727,96.1827774048,44.4867324829,44.4867324829,64.8371963501,64.8371963501,19.6451931,0.181078732014,0,0.000712072767783,0.168793141842,0.07823343575,0.0775213614106,2.28984451294,0.144587531686,-1.66979217529,-0.0176673308015,1.71796417236,0.0371815934777,16.3027019501,0.45350921154,15.83708190914,94.51298522951,46.20469665526,35.9478950501,1262
1.64952130382244E+018,18,1.64952130382244E+018,r1000913c5/base_footprint,0,1.64952130382244E+018,v/m1vw10zy74w/map,-7.25547108653,-0.75932241974,0,0,0,-0.627517732552,0.77860227031,0,64.0752182007,21.2802772522,42.483165741,96.1827774048,44.3593826294,44.3593826294,64.0752182007,64.0752182007,31.985370636,0.0539262853563,0,0.0011959526455,0.160449564457,0.0888339728117,0.0876380205154,-5.44319534302,-0.343699395657,-1.66979217529,-0.0176673308015,1.84531402588,0.0399378016591,3.96252441406,0.110229663551,15.83708190918,94.51298522951,46.20469665528,35.94789505006,1262
1.64952130582156E+018,19,1.64952130582156E+018,r1000913c5/base_footprint,0,1.64952130582156E+018,v/m1vw10zy74w/map,-7.25442785291,-0.760102128738,0,0,0,-0.712509712763,0.701662247252,0,64.704574585,15.4684095383,41.9182853699,96.9361114502,44.3308525085,44.3308525085,64.704574585,64.704574585,23.0609436035,0.150577127934,0,0.000774958229158,0.0304456520826,0.15403200686,0.15480697155,0.368672370911,0.0232790596783,-2.4231262207,-0.025638025254,1.87384414673,0.0405552759767,12.8869514465,0.358489751816,15.837081909211,94.5129852295,46.20469665523,35.94789505,1262
1.64952130592327E+018,20,1.64952130592327E+018,r1000913c5/base_footprint,0,1.64952130592327E+018,v/m1vw10zy74w/map,-7.25442785291,-0.760102128738,0,0,0,-0.712509712763,0.701662247252,0,64.5219421387,14.1972579956,41.4409332275,96.9361114502,43.9887466431,43.9887466431,64.5219421387,64.5219421387,22.6535110474,0.117599070072,0,0.00118777249008,0.0956429168582,0.0642702877522,0.0630825161934,1.63982391357,0.103543311357,-2.4231262207,-0.025638025254,2.21595001221,0.0479594096541,13.2943840027,0.369823724031,15.83708190917,94.5129852295,46.20469665531,35.9478950501,1262
1.64952130602076E+018,21,1.64952130602076E+018,r1000913c5/base_footprint,0,1.64952130602076E+018,v/m1vw10zy74w/map,-7.25442785291,-0.760102128738,0,0,0,-0.712509712763,0.701662247252,0,64.2155761719,9.29501533508,41.2819671631,96.9361114502,43.6600990295,43.6600990295,64.2155761719,64.2155761719,24.618719101,0.171945691109,0,0.00159669993445,0.113253720105,0.0319036878645,0.0335003882647,6.5420665741,0.413085341454,-2.4231262207,-0.025638025254,2.54459762573,0.0550722703338,11.3291759491,0.315155476332,15.83708190918,94.5129852295,46.20469665523,35.9478950501,1262
1.64952130612076E+018,22,1.64952130612076E+018,r1000913c5/base_footprint,0,1.64952130612076E+018,v/m1vw10zy74w/map,-7.26094875309,-0.873843068426,0,0,0,-0.737124568541,0.675756887092,0,64.2631759644,12.2036876678,41.2744255066,96.9352722168,43.3433418274,43.3433418274,64.2631759644,64.2631759644,20.3379669189,0.215335279703,0,0.0043331598863,0.112789414823,0.0438095889986,0.0481427498162,3.67738437653,0.231557697058,-2.39544677734,-0.0253379642963,2.68271255493,0.0582868233323,15.5612716675,0.433470785618,15.88107204433,94.53982543946,46.02605438233,35.8992385864,1265
1.64952130622071E+018,23,1.64952130622071E+018,r1000913c5/base_footprint,0,1.64952130622072E+018,v/m1vw10zy74w/map,-7.26094875309,-0.873843068426,0,0,0,-0.737124568541,0.675756887092,0,63.8182258606,11.5367078781,41.3577842712,96.9352722168,43.2655982971,43.2655982971,63.8182258606,63.8182258606,27.5073814392,0.041954614222,0,0.00496759312227,0.100357174873,0.0752144306898,0.0801820233464,4.34436416626,0.273556113243,-2.39544677734,-0.0253379642963,2.76045608521,0.0599759444594,8.39185714722,0.233761429787,15.88107204436,94.53982543946,46.02605438231,35.89923858642,1265
1.64952130632061E+018,24,1.64952130632061E+018,r1000913c5/base_footprint,0,1.64952130632061E+018,v/m1vw10zy74w/map,-7.26661974693,-0.99061724516,0,0,0,-0.757143145711,0.65324900069,0,63.4457397461,12.2171945572,41.6143455505,96.7937545776,43.0175018311,43.0175018311,63.4457397461,63.4457397461,31.0232276917,0.194705694914,0,0.0042365998961,0.0969936326146,0.0708104521036,0.0750470533967,3.36930561066,0.216168195009,-2.22793579102,-0.0235596317798,2.79399108887,0.060988869518,5.04749298096,0.139933243394,15.58650016786,94.56581878658,45.81149291997,36.07072067266,1212
1.64952130642087E+018,25,1.64952130642087E+018,r1000913c5/base_footprint,0,1.64952130642087E+018,v/m1vw10zy74w/map,-7.26661974693,-0.99061724516,0,0,0,-0.757143145711,0.65324900069,0,63.3491516113,11.3257246017,41.877948761,96.7937545776,42.5993309021,42.5993309021,63.3491516113,63.3491516113,28.2455177307,0.125216960907,0,0.00461270380765,0.0875577926636,0.0497301481664,0.0543428510427,4.2607755661,0.27336320281,-2.22793579102,-0.0235596317798,3.21216201782,0.0701169446111,7.82520294189,0.216940581799,15.5865001678,94.56581878658,45.81149291992,36.07072067259,1212
1.6495213065209E+018,26,1.6495213065209E+018,r1000913c5/base_footprint,0,1.6495213065209E+018,v/m1vw10zy74w/map,-7.26647141417,-1.12612831376,0,0,0,-0.74930195587,0.662228494502,0,63.127456665,11.1111106873,42.3130111694,96.6616973877,42.2112503052,42.2112503052,63.127456665,63.127456665,27.5693950653,0.195611491799,0,0.00462394859642,0.0844143480062,0.0429178141057,0.0475417599082,4.4900226593,0.2878010571,-1.94946289062,-0.0205830093473,3.24334716797,0.0713535547256,9.02732276917,0.246670290828,15.6011333466,94.71223449708,45.45459747317,36.59671783447,1002
1.64952130662169E+018,27,1.64952130662169E+018,r1000913c5/base_footprint,0,1.64952130662169E+018,v/m1vw10zy74w/map,-7.2739412552,-1.24418922196,0,0,0,-0.736089713093,0.676883988788,0,62.9626083374,10.6590003967,43.2034721375,96.5732116699,41.9164428711,41.9164428711,62.9626083374,62.9626083374,27.0341777802,0.103042326868,0,0.000481773138745,0.0739160552621,0.0466984957457,0.0462167225778,4.34016895294,0.289360612631,-1.3812713623,-0.0145103810355,2.06763076782,0.0470086224377,10.4890422821,0.279534697533,14.99916934964,95.1919403076,43.98407363892,37.5232200623,528
1.64952130672146E+018,28,1.64952130672146E+018,r1000913c5/base_footprint,0,1.64952130672146E+018,v/m1vw10zy74w/map,-7.27638170377,-1.24640950081,0,0,0,-0.736109942048,0.676861989786,0,62.8066978455,12.6297578812,44.1729164124,96.7992172241,41.6277389526,41.6277389526,62.8066978455,62.8066978455,27.5362014771,0.0491793006659,0,0.00231427070685,0.0709173381329,0.0636305660009,0.0659448355436,2.36941146851,0.157969519496,-1.6072769165,-0.0168845895678,2.35633468628,0.0535724535584,9.98701858521,0.266155689955,14.99916934971,95.1919403076,43.98407363888,37.52322006231,528
1.64952130682109E+018,29,1.64952130682109E+018,r1000913c5/base_footprint,0,1.64952130682109E+018,v/m1vw10zy74w/map,-7.27638170377,-1.24640950081,0,0,0,-0.736109942048,0.676861989786,0,62.8033370972,13.6690645218,44.412563324,96.7992172241,41.4930229187,41.4930229187,62.8033370972,62.8033370972,26.141740799,0.0144634451717,0,0.00348095386289,0.0646621584892,0.079887650907,0.0833686068654,1.33010482788,0.0886785686016,-1.6072769165,-0.0168845895678,2.49105072021,0.0566352903843,11.3814792633,0.303318291903,14.99916934968,95.1919403076,43.98407363891,37.5232200623,528
1.64952130692103E+018,30,1.64952130692103E+018,r1000913c5/base_footprint,0,1.64952130692103E+018,v/m1vw10zy74w/map,-7.27997999706,-1.36920905773,0,0,0,-0.720931998831,0.693005810265,0,62.3354873657,15.7279930115,44.4744186401,96.3866882324,41.3841438293,41.3841438293,62.3354873657,62.3354873657,31.9020290375,0.0351260788739,0,0.00272220140323,0.0570134930313,0.0864484533668,0.0891706570983,-1.38755226135,-0.0967579931021,-1.2063369751,-0.0126742227003,1.15516662598,0.0271552745253,7.17660331726,0.18364520371,14.34044075015,95.1803512573,42.53931045528,39.07863235476,345
1.64952130702083E+018,31,1.64952130702083E+018,r1000913c5/base_footprint,0,1.64952130702083E+018,v/m1vw10zy74w/map,-7.27997999706,-1.36920905773,0,0,0,-0.720931998831,0.693005810265,0,62.6417922974,14.7485084534,44.1472816467,96.3866882324,41.5131225586,41.5131225586,62.6417922974,62.6417922974,27.781545639,-0.0154487201944,0,0.00195218040608,0.0496923550963,0.0905197486281,0.0924719274044,-0.408067703247,-0.028455728665,-1.2063369751,-0.0126742227003,1.02618789673,0.0241232849658,11.2970867157,0.289086043835,14.340440750153,95.1803512573,42.53931045533,39.0786323547,345
1.64952158602075E+018,32,1.64952158602075E+018,r1000913c5/base_footprint,0,1.64952158602075E+018,v/m1vw10zy74w/map,-7.28191004605,-1.79681408011,0,0,0,-0.705404370946,0.708805102584,0,62.7724761963,17.3060531616,43.683795929,95.8506774902,41.7045631409,41.7045631409,62.7724761963,62.7724761963,25.5671787262,-0.00992764439434,0,0.00589891942218,0.893899738789,0.00415389752015,0.0100528169423,-2.65159034729,-0.180940806866,-0.720909118652,-0.00757816527039,0.816242218018,0.0191963016987,12.1793460846,0.322661399841,14.65446281431,95.129768371548,42.520805358918,37.7465248108,342
1.64952158782069E+018,33,1.64952158782069E+018,r1000913c5/base_footprint,0,1.64952158782069E+018,v/m1vw10zy74w/map,-7.27696774512,-2.1202013637,0,0,0,-0.706360743512,0.707852032578,0,61.4170608521,0,42.6967658997,95.7228164673,41.4932327271,41.4932327271,61.4170608521,61.4170608521,47.2219161987,0.305338472128,0,0.0230265818536,0.560693979263,0.0306369513273,0.053663533181,13.6997098923,1,-0.529777526855,-0.00556529685855,0.929668426514,0.0219143051654,-11.7726173401,-0.332097321749,13.6997098923,95.193038940445,42.422901153614,35.4492988586,295
1.64952158792075E+018,34,1.64952158792075E+018,r1000913c5/base_footprint,0,1.64952158792075E+018,v/m1vw10zy74w/map,-7.27696774512,-2.1202013637,0,0,0,-0.706360743512,0.707852032578,0,61.6767234802,0,41.6689300537,95.7228164673,41.1467857361,41.1467857361,61.6767234802,61.6767234802,38.8064155579,0.458960175514,0,0.0401114076376,0.505906939507,0.0847871527076,0.124898560345,13.6997098923,1,-0.529777526855,-0.00556529685855,1.27611541748,0.0300808139145,-3.35711669922,-0.09470192343,13.6997098923,95.193038940445,42.42290115358,35.44929885868,295
1.64952158802083E+018,35,1.64952158802083E+018,r1000913c5/base_footprint,0,1.64952158802083E+018,v/m1vw10zy74w/map,-7.27810201909,-2.2247944087,0,0,0,-0.732331187746,0.680948626149,0,60.9807052612,0,40.661693573,94.9719924927,40.735004425,40.735004425,60.9807052612,60.9807052612,44.184551239,0.105995491147,0,0.0507371127605,0.476166754961,0.124202892184,0.174940004945,13.6852359772,1,0.213470458984,0.00224267924204,1.66302108765,0.0392240211368,-9.75636291504,-0.283382982016,13.6852359772,95.185462951684,42.39802551265,34.42818832396,253
1.6495215881211E+018,36,1.6495215881211E+018,r1000913c5/base_footprint,0,1.6495215881211E+018,v/m1vw10zy74w/map,-7.27810201909,-2.2247944087,0,0,0,-0.732331187746,0.680948626149,0,60.7984008789,0,39.777633667,94.9719924927,40.2629241943,40.2629241943,60.7984008789,60.7984008789,42.3675498962,0.739304900169,0,0.0733943581581,0.425298959017,0.197604194283,0.270998567343,13.6852359772,1,0.213470458984,0.00224267924204,2.13510131836,0.0503585077822,-7.93936157227,-0.230606421828,13.6852359772,95.185462951684,42.39802551266,34.42818832393,253
1.64952158822163E+018,37,1.64952158822163E+018,r1000913c5/base_footprint,0,1.64952158822163E+018,v/m1vw10zy74w/map,-7.28985693127,-2.33225216445,0,0,0,-0.751575477966,0.659647103322,0,60.7170295715,0,39.2322311401,94.4712524414,39.5697288513,39.5697288513,60.7170295715,60.7170295715,34.5430717468,1.06160032749,0,0.111455157399,0.372916519642,0.263662189245,0.375117361546,13.4090986252,1,0.709892272949,0.00745832873508,2.80601119995,0.0662174001336,-0.410884857178,-0.0120380464941,13.4090986252,95.181144714349,42.37574005125,34.132186889622,223
1.64952158832099E+018,38,1.64952158832099E+018,r1000913c5/base_footprint,0,1.64952158832099E+018,v/m1vw10zy74w/map,-7.29168452743,-2.33245729479,0,0,0,-0.750452289065,0.660924626442,0,59.7440299988,0,38.8906211853,95.1364974976,38.5894699097,38.5894699097,59.7440299988,59.7440299988,43.8651504517,1.24501955509,0,0.10893137008,0.34310695529,0.266083359718,0.37501475215,13.4090986252,1,0.0446472167969,0.000469076272566,3.7862701416,0.0893499478698,-9.73296356201,-0.285154998302,13.4090986252,95.1811447143969,42.3757400513,34.13218688969,223
1.64952158842088E+018,39,1.64952158842088E+018,r1000913c5/base_footprint,0,1.64952158842088E+018,v/m1vw10zy74w/map,-7.29168452743,-2.33245729479,0,0,0,-0.750452289065,0.660924626442,0,59.2072372437,0,38.9390258789,95.1364974976,37.5607223511,37.5607223511,59.2072372437,59.2072372437,42.4169197083,1.20979237556,0,0.112567260861,0.301053702831,0.240435823798,0.35300308466,13.4090986252,1,0.0446472167969,0.000469076272566,4.8150177002,0.113626748323,-8.2847328186,-0.242724940181,13.4090986252,95.1811447143969,42.3757400513,34.1321868897,223
1.64952158962078E+018,40,1.64952158962078E+018,r1000913c5/base_footprint,0,1.64952158962078E+018,v/m1vw10zy74w/map,-7.29479953947,-2.51927299182,0,0,0,-0.708061755848,0.70615051505,1,58.5483589172,0,39.2156066895,94.4797210693,36.5791358948,36.5791358948,58.5483589172,58.5483589172,41.311214447,1.7307138443,0,0.0908770188689,0.10313308984,0.138004824519,0.228881835938,12.9429950714,1,0.696556091309,0.0073185893707,5.6967010498,0.134750753641,-6.63045120239,-0.191185280681,12.9429950714,95.176277160609,42.2758369446,34.68076324461,169
1.6495215897208E+018,41,1.6495215897208E+018,r1000913c5/base_footprint,0,1.6495215897208E+018,v/m1vw10zy74w/map,-7.29479953947,-2.51927299182,0,0,0,-0.708061755848,0.70615051505,1,57.4806404114,0,39.5319747925,94.4797210693,35.7256317139,35.7256317139,57.4806404114,57.4806404114,51.3122711182,1.68967187405,0,0.0911220163107,0.18765117228,0.129859626293,0.220981642604,12.9429950714,1,0.696556091309,0.0073185893707,6.55020523071,0.154939696193,-16.6315078735,-0.479560017586,12.9429950714,95.176277160609,42.27583694461,34.6807632447,169
1.64952158982158E+018,42,1.64952158982158E+018,r1000913c5/base_footprint,0,1.64952158982158E+018,v/m1vw10zy74w/map,-7.29479953947,-2.51927299182,0,0,0,-0.708061755848,0.70615051505,1,56.9772415161,0,39.8659286499,94.4797210693,34.9464530945,34.9464530945,56.9772415161,56.9772415161,51.9583320618,1.96051418781,0,0.0668679177761,0.236535802484,0.111101083457,0.177969008684,12.9429950714,1,0.696556091309,0.0073185893707,7.3293838501,0.173370525241,-17.2775688171,-0.498188823462,12.9429950714,95.176277160609,42.2758369446,34.6807632447,169
1.64952158992114E+018,43,1.64952158992114E+018,r1000913c5/base_footprint,0,1.64952158992114E+018,v/m1vw10zy74w/map,-7.29479953947,-2.51927299182,0,0,0,-0.708061755848,0.70615051505,1,56.9464950562,0,40.5142478943,94.4797210693,34.4110641479,34.4110641479,56.9464950562,56.9464950562,46.7295684814,2.21602797508,0,0.0505513958633,0.243242010474,0.0602225102484,0.110773906112,12.9429950714,1,0.696556091309,0.0073185893707,7.86477279663,0.186034709215,-12.0488052368,-0.347420424223,12.9429950714,95.176277160609,42.27583694453,34.6807632446,169
1.64952159002081E+018,44,1.64952159002081E+018,r1000913c5/base_footprint,0,1.64952159002081E+018,v/m1vw10zy74w/map,-7.30573988341,-2.41534270701,0,0,0,-0.68999824354,0.723811041579,1,56.4047813416,0,41.49451828,94.0801010132,33.9896774292,33.9896774292,56.4047813416,56.4047813416,50.4908027649,1.78920543194,0,0.0440611951053,0.23945620656,0.0372417978942,0.0813029929996,13.1068334579,1,1.1402053833,0.0119743933901,8.31956100464,0.196636989713,-16.0210266113,-0.464784771204,13.1068334579,95.2203063965,42.30923843384,34.4697761536,190
1.64952159022086E+018,45,1.64952159022086E+018,r1000913c5/base_footprint,0,1.64952159022086E+018,v/m1vw10zy74w/map,-7.30078680473,-2.40108895607,0,0,0,-0.687603462131,0.726086412809,1,56.4629440308,0,42.5555953979,94.3871994019,33.7648086548,33.7648086548,56.4629440308,56.4629440308,48.120891571,0.881861448288,0,0.0362113378942,0.233256176114,0.00895956903696,0.0451709069312,13.3722486496,1,0.786811828613,0.00826708693057,8.55378723145,0.202128335834,-13.9009552002,-0.406223863363,13.3722486496,95.174011230513,42.31859588625,34.2199363708,208
1.64952159032072E+018,46,1.64952159032072E+018,r1000913c5/base_footprint,0,1.64952159032072E+018,v/m1vw10zy74w/map,-7.30078680473,-2.40108895607,0,0,0,-0.687603462131,0.726086412809,1,55.9602813721,0,43.9002380371,94.3871994019,33.5307769775,33.5307769775,55.9602813721,55.9602813721,54.6412773132,0.817650020123,0,0.0277028698474,0.225976631045,0.0226546954364,0.00504817441106,13.3722486496,1,0.786811828613,0.00826708693057,8.78781890869,0.207658559084,-20.4213409424,-0.596767365932,13.3722486496,95.174011230513,42.31859588619,34.2199363708,208
1.64952159042063E+018,47,1.64952159042063E+018,r1000913c5/base_footprint,0,1.64952159042063E+018,v/m1vw10zy74w/map,-7.30078680473,-2.40108895607,0,0,0,-0.687603462131,0.726086412809,1,56.0766296387,0,44.9030914307,94.3871994019,33.3748397827,33.3748397827,56.0766296387,56.0766296387,50.8628921509,0.729475080967,0,0.0191299337894,0.218751862645,0.0558098033071,0.036679867655,13.3722486496,1,0.786811828613,0.00826708693057,8.94375610352,0.211343407631,-16.64295578,-0.486352622509,13.3722486496,95.174011230513,42.31859588622,34.2199363709,208
1.649521590521E+018,48,1.649521590521E+018,r1000913c5/base_footprint,0,1.649521590521E+018,v/m1vw10zy74w/map,-7.33166459384,-2.2405955514,0,0,0,-0.688693386217,0.725052701382,1,56.4302940369,0,45.4754867554,94.3970489502,33.3121757507,33.3121757507,56.4302940369,56.4302940369,43.855556488,0.38425680995,0,0.00477706175297,0.211999952793,0.083959326148,0.0791822597384,13.7105407715,1,0.787506103516,0.00827346555889,9.08367919922,0.214258655906,-9.5396270752,-0.277994126081,13.7105407715,95.184555053716,42.39585494992,34.3159294128,252
1.6495215906218E+018,49,1.6495215906218E+018,r1000913c5/base_footprint,0,1.6495215906218E+018,v/m1vw10zy74w/map,-7.33720403921,-2.24618310181,0,0,0,-0.690691912984,0.723149141836,1,55.9551315308,0,45.3330421448,94.7955703735,33.1409606934,33.1409606934,55.9551315308,55.9551315308,51.9940414429,0.244954496622,0,0.00314724794589,0.208873555064,0.0978194475174,0.100966691971,13.7656068802,1,0.377403259277,0.00396544579417,9.26718521118,0.218523710966,-17.8221054077,-0.521542191505,13.7656068802,95.172973632777,42.40814590458,34.1719360352,249
1.64952159072102E+018,50,1.64952159072102E+018,r1000913c5/base_footprint,0,1.64952159072102E+018,v/m1vw10zy74w/map,-7.33720403921,-2.24618310181,0,0,0,-0.690691912984,0.723149141836,1,57.0529937744,0,45.3576660156,94.7955703735,33.0949783325,33.0949783325,57.0529937744,57.0529937744,31.7359313965,0.353169769049,0,0.0200216211379,0.202993258834,0.126157388091,0.146179005504,13.7656068802,1,0.377403259277,0.00396544579417,9.31316757202,0.21960799396,2.43600463867,0.071286700666,13.7656068802,95.172973632777,42.40814590452,34.17193603517,249
1.6495215908209E+018,51,1.6495215908209E+018,r1000913c5/base_footprint,0,1.6495215908209E+018,v/m1vw10zy74w/map,-7.33720403921,-2.24618310181,0,0,0,-0.690691912984,0.723149141836,1,56.2156028748,0,45.3366012573,94.7955703735,33.2148933411,33.2148933411,56.2156028748,56.2156028748,48.1040649414,-0.0744942054152,0,0.0266255550086,0.197515815496,0.147729203105,0.174354761839,13.7656068802,1,0.377403259277,0.00396544579417,9.19325256348,0.216780349612,-13.9321289062,-0.407706737518,13.7656068802,95.172973632777,42.40814590458,34.1719360352,249
1.64952159092091E+018,52,1.64952159092091E+018,r1000913c5/base_footprint,0,1.64952159092091E+018,v/m1vw10zy74w/map,-7.33785551673,-2.1427139804,0,0,0,-0.691602692289,0.722278143113,1,56.1890869141,0,45.5019645691,95.3195571899,33.3750228882,33.3750228882,56.1890869141,56.1890869141,52.1971054077,-0.286849141121,0,0.023415774107,0.19105617702,0.113854311407,0.137270092964,13.7225751877,1,-0.122734069824,-0.00128926639445,9.03573226929,0.213052853942,-16.9270935059,-0.479928761721,13.7225751877,95.196823120076,42.41075515749,35.2700119018,288
1.64952159102084E+018,53,1.64952159102084E+018,r1000913c5/base_footprint,0,1.64952159102084E+018,v/m1vw10zy74w/map,-7.33785551673,-2.1427139804,0,0,0,-0.691602692289,0.722278143113,1,57.6285858154,0.51903116703,45.1213798523,95.3195571899,33.825756073,33.825756073,57.6285858154,57.6285858154,31.1540164948,-0.0760340541601,0,0.0256643146276,0.184846520424,0.0998271554708,0.125491470098,13.203543663,0.962176799774,-0.122734069824,-0.00128926639445,8.58499908447,0.202425047755,4.1159954071,0.116699576378,13.72257483003,95.196823120076,42.41075515747,35.2700119019,288
1.64952159112083E+018,54,1.64952159112083E+018,r1000913c5/base_footprint,0,1.64952159112083E+018,v/m1vw10zy74w/map,-7.32418660694,-2.04121519717,0,0,0,-0.693911578318,0.720060220729,1,57.8766593933,1.54359614849,44.3344535828,95.4040222168,34.2999153137,34.2999153137,57.8766593933,57.8766593933,32.1136779785,0.112142398953,0,0.0281169079244,0.156515181065,0.0802638232708,0.10838072747,12.2016954422,0.887700021267,-0.242988586426,-0.00255344621837,8.12908554077,0.191592663527,4.27521514893,0.117486812174,13.74529159069,95.161033630374,42.42900085447,36.38889312743,338
1.6495215912207E+018,55,1.6495215912207E+018,r1000913c5/base_footprint,0,1.6495215912207E+018,v/m1vw10zy74w/map,-7.32418660694,-2.04121519717,0,0,0,-0.693911578318,0.720060220729,1,57.0895767212,0.709219872952,43.3822631836,95.4040222168,34.7677955627,34.7677955627,57.0895767212,57.0895767212,51.3342933655,0.56035399437,0,0.0275307074189,0.131134659052,0.0782303437591,0.105761051178,13.0360717773,0.948402702808,-0.242988586426,-0.00255344621837,7.66120529175,0.180565297604,-14.945400238,-0.410713255405,13.745291650252,95.161033630374,42.42900085445,36.3888931275,338
1.64952159132221E+018,56,1.64952159132221E+018,r1000913c5/base_footprint,0,1.64952159132221E+018,v/m1vw10zy74w/map,-7.32418660694,-2.04121519717,0,0,0,-0.693911578318,0.720060220729,1,58.1180038452,0,42.7104072571,95.4040222168,35.1428146362,35.1428146362,58.1180038452,58.1180038452,36.8728141785,0.0483567900956,0,0.0272515695542,0.114864893258,0.0760893970728,0.10334096849,13.7452917099,1,-0.242988586426,-0.00255344621837,7.28618621826,0.171726554632,-0.483921051025,-0.0132985925302,13.7452917099,95.161033630374,42.42900085446,36.388893127475,338
1.64952159142117E+018,57,1.64952159142117E+018,r1000913c5/base_footprint,0,1.64952159142117E+018,v/m1vw10zy74w/map,-7.33304710134,-1.92541896487,0,0,0,-0.693172619544,0.720771613977,1,58.0542984009,0,42.2332763672,95.1637115479,35.495677948,35.495677948,58.0542984009,58.0542984009,40.9652938843,0.14331266284,0,0.0265544261783,0.106600120664,0.0732976123691,0.09985204041,14.077627182,1,-0.0480880737305,-0.00050557492068,6.91514968872,0.163051515818,-4.00508117676,-0.108361959457,14.077627182,95.1156234741695,42.41082763672,36.96021270754,347
1.64952159152094E+018,58,1.64952159152094E+018,r1000913c5/base_footprint,0,1.64952159152094E+018,v/m1vw10zy74w/map,-7.33304710134,-1.92541896487,0,0,0,-0.693172619544,0.720771613977,1,58.0256843567,0,41.9556274414,95.1637115479,35.881362915,35.881362915,58.0256843567,58.0256843567,45.6457710266,0.558156490326,0,0.0252366065979,0.0951389819384,0.0685292035341,0.093765810132,14.077627182,1,-0.0480880737305,-0.00050557492068,6.52946472168,0.153957486153,-8.68555831909,-0.234997525811,14.077627182,95.1156234741695,42.41082763668,36.96021270751,347
1.64952159162097E+018,59,1.64952159162097E+018,r1000913c5/base_footprint,0,1.64952159162097E+018,v/m1vw10zy74w/map,-7.32777786313,-1.81133838538,0,0,0,-0.694851711651,0.719153042694,1,58.0785369873,0,41.609336853,94.9543380737,36.2061767578,36.2061767578,58.0785369873,58.0785369873,47.4486312866,-0.0811488926411,0,0.0226283483207,0.0823001936078,0.060753248632,0.0833815932274,14.4995231628,1,0.164764404297,0.00173219048884,6.24615097046,0.147133290768,-10.1341629028,-0.271588027477,14.4995231628,95.119102477997,42.45232772826,37.3144683838,333
1.64952159172086E+018,60,1.64952159172086E+018,r1000913c5/base_footprint,0,1.64952159172086E+018,v/m1vw10zy74w/map,-7.34121690222,-1.69830932906,0,0,0,-0.694360970461,0.719626877417,1,58.4381256104,0,41.4857444763,94.5684661865,36.5811462402,36.5811462402,58.4381256104,58.4381256104,43.636592865,0.163761764765,0,0.022639112547,0.0737276822329,0.0622903220356,0.0849294364452,14.5269412994,1,0.528709411621,0.00555967539549,5.95050811768,0.139907747507,-5.58472061157,-0.146765992045,14.5269412994,95.097175598121,42.53165435788,38.05187225343,334
1.64952159182082E+018,61,1.64952159182082E+018,r1000913c5/base_footprint,0,1.64952159182082E+018,v/m1vw10zy74w/map,-7.33979745342,-1.70066101055,0,0,0,-0.693753870849,0.720212167824,1,58.4888687134,0,41.333065033,94.556968689,36.8836135864,36.8836135864,58.4888687134,58.4888687134,45.9485054016,0.285919189453,0,0.0222732014954,0.0671122744679,0.0623806491494,0.0846538543701,14.5269412994,1,0.54020690918,0.00568057782948,5.64804077148,0.132796168327,-7.89663314819,-0.207522854209,14.5269412994,95.09717559818,42.53165435788,38.05187225341,334
1.64952159192079E+018,62,1.64952159192079E+018,r1000913c5/base_footprint,0,1.64952159192079E+018,v/m1vw10zy74w/map,-7.33817723218,-1.57998274551,0,0,0,-0.692711626031,0.721214672037,1,58.1529273987,0,41.2474708557,94.5735092163,37.2430458069,37.2430458069,58.1529273987,58.1529273987,55.9368629456,0.0945197194815,0,0.0219598393887,0.0608597807586,0.062383916229,0.0843437537551,14.3066339493,1,0.546203613281,0.00574227562174,5.24962615967,0.123541913927,-17.4378814697,-0.452943980694,14.3066339493,95.119712829581,42.49267196657,38.4989814759,334
1.64952159202074E+018,63,1.64952159202074E+018,r1000913c5/base_footprint,0,1.64952159202074E+018,v/m1vw10zy74w/map,-7.33817723218,-1.57998274551,0,0,0,-0.692711626031,0.721214672037,0,58.8847351074,0,41.446647644,94.5735092163,37.5581588745,37.5581588745,58.8847351074,58.8847351074,46.1674957275,0.0473794899881,0,0.0146550266072,0.0498633943498,0.0401722714305,0.054827298969,14.3066339493,1,0.546203613281,0.00574227562174,4.93451309204,0.116126216948,-7.66851425171,-0.199187457561,14.3066339493,95.119712829581,42.49267196654,38.49898147579,334
1.64952159212081E+018,64,1.64952159212081E+018,r1000913c5/base_footprint,0,1.64952159212081E+018,v/m1vw10zy74w/map,-7.34195163146,-1.46175275201,0,0,0,-0.693334835973,0.720615573816,0,58.9441757202,0,41.8656234741,94.7088546753,37.7897491455,37.7897491455,58.9441757202,58.9441757202,48.0860137939,0.0995301157236,0,0.00979742314667,0.0419626496732,0.021769458428,0.0315668806434,14.1680812836,1,0.418273925781,0.00439699925482,4.71423339844,0.110912747681,-9.21139526367,-0.236951395869,14.1680812836,95.127128601081,42.50398254394,38.87461853023,333
1.64952159222134E+018,65,1.64952159222134E+018,r1000913c5/base_footprint,0,1.64952159222134E+018,v/m1vw10zy74w/map,-7.34195163146,-1.46175275201,0,0,0,-0.693334835973,0.720615573816,0,59.0964241028,0,42.5428123474,94.7088546753,38.118183136,38.118183136,59.0964241028,59.0964241028,48.8926467896,0.264503329992,0,0.0118919853121,0.0350945182145,0.0329205393791,0.0448125228286,14.1680812836,1,0.418273925781,0.00439699925482,4.38579940796,0.103185608983,-10.0180282593,-0.257701009512,14.1680812836,95.127128601081,42.50398254396,38.8746185303,333
1.64952159232119E+018,66,1.64952159232119E+018,r1000913c5/base_footprint,0,1.64952159232119E+018,v/m1vw10zy74w/map,-7.33900292739,-1.35462901506,0,0,0,-0.696293142661,0.71775752137,0,59.8282928467,0.653594791889,43.4145698547,94.8011779785,38.4285850525,38.4285850525,59.8282928467,59.8282928467,39.4036941528,0.657750189304,0,0.010252459906,0.028560353443,0.0292657818645,0.0395182408392,13.6565732956,0.954326510429,0.39306640625,0.00412909826264,4.06100082397,0.0955763831735,-0.0789451599121,-0.00200751842931,14.310168087489,95.19424438475,42.48958587647,39.3247489928879,338
1.64952159242075E+018,67,1.64952159242075E+018,r1000913c5/base_footprint,0,1.64952159242075E+018,v/m1vw10zy74w/map,-7.34021484003,-1.26663832261,0,0,0,-0.695841429853,0.71819545007,0,60.0406494141,0,44.4497146606,94.763053894,38.7612838745,38.7612838745,60.0406494141,60.0406494141,39.0371589661,0.334057092667,0,0.0101920207962,0.0104043455794,0.0291547067463,0.0393467284739,14.3455686569,1,0.409156799316,0.00429912051186,3.73513031006,0.0878928378224,0.162448883057,0.00414414564148,14.3455686569,95.172210693316,42.49641418456,39.199607849157,335
1.64952159252081E+018,68,1.64952159252081E+018,r1000913c5/base_footprint,0,1.64952159252081E+018,v/m1vw10zy74w/map,-7.34021484003,-1.26663832261,0,0,0,-0.695841429853,0.71819545007,0,60.1320991516,0,45.546749115,94.763053894,39.0063247681,39.0063247681,60.1320991516,60.1320991516,40.0374755859,0.486962676048,0,0.00979408994317,0.0657145902514,0.0288571361452,0.0386512242258,14.3455686569,1,0.409156799316,0.00429912051186,3.4900894165,0.0821266770363,-0.837867736816,-0.0213743913919,14.3455686569,95.172210693316,42.4964141846,39.199607849084,335
1.64952159262072E+018,69,1.64952159262072E+018,r1000913c5/base_footprint,0,1.64952159262072E+018,v/m1vw10zy74w/map,-7.34787422621,-1.13861960447,0,0,0,-0.696524006443,0.717533489426,0,60.4335708618,2.10390734673,46.2496109009,94.586807251,39.2115287781,39.2115287781,60.4335708618,60.4335708618,36.1927642822,0.482628136873,0,0.00574517669156,0.12523829937,0.024980166927,0.0307253450155,12.969209671,0.860419869423,0.0961685180664,0.00101568968967,6.27299880981,0.137915000319,0.632766723633,0.0171828269958,15.07311701773,94.6829757690664,45.48452758791,36.825531005833,906
1.64952159272088E+018,70,1.64952159272088E+018,r1000913c5/base_footprint,0,1.64952159272088E+018,v/m1vw10zy74w/map,-7.34787422621,-1.13861960447,0,0,0,-0.696524006443,0.717533489426,0,60.7442817688,3.82138252258,47.0262565613,94.586807251,39.524684906,39.524684906,60.7442817688,60.7442817688,33.9820404053,0.422291100025,0,0.00185092352331,0.150123342872,0.0136701995507,0.015521123074,11.2517347336,0.746476948261,0.0961685180664,0.00101568968967,5.95984268188,0.131030112505,2.84349060059,0.0772151947021,15.07311725618,94.6829757690664,45.48452758788,36.82553100589,906
1.64952159282077E+018,71,1.64952159282077E+018,r1000913c5/base_footprint,0,1.64952159282077E+018,v/m1vw10zy74w/map,-7.34830956791,-1.03109179846,0,0,0,-0.696734840327,0.717328768609,0,60.7131729126,6.89801120758,47.6243400574,94.8034362793,39.7772521973,39.7772521973,60.7131729126,60.7131729126,38.0495872498,0.144508212805,0,0.000972741981968,0.15753993392,0.00711531424895,0.00808805599809,8.73916816711,0.558871150017,-0.187461853027,-0.00198129168712,6.12083435059,0.133357062936,-1.67350769043,-0.04600571841,15.63717937469,94.615974426273,45.89808654789,36.37607955937,1120
1.64952159292099E+018,72,1.64952159292099E+018,r1000913c5/base_footprint,0,1.64952159292099E+018,v/m1vw10zy74w/map,-7.34830956791,-1.03109179846,0,0,0,-0.696734840327,0.717328768609,0,60.9586181641,6.22335910797,48.0515060425,94.8034362793,39.9567718506,39.9567718506,60.9586181641,60.9586181641,35.5703887939,0.548782467842,0,7.36772244636E-06,0.154437571764,0.00207565631717,0.00208302401006,9.41382026672,0.602015256882,-0.187461853027,-0.00198129168712,5.94131469727,0.129445806146,0.805690765381,0.0221489164978,15.63717937469,94.615974426273,45.89808654787,36.376079559281,1120
1.64952159302318E+018,73,1.64952159302318E+018,r1000913c5/base_footprint,0,1.64952159302318E+018,v/m1vw10zy74w/map,-7.35193304178,-0.935627419777,0,0,0,-0.694765864839,0.719235978699,0,61.060874939,3.6658141613,47.973865509,94.7984161377,40.2052993774,40.2052993774,61.060874939,61.060874939,36.395778656,0.463797748089,0,0.000151091095177,0.152794018388,0.000980972312391,0.00113206345122,12.142449379,0.768107712269,-0.197784423828,-0.00209073047154,5.91404342651,0.128233477473,-0.186981201172,-0.00516397180036,15.8082635403,94.600631713872,46.11934280391,36.208797454828,1214
1.64952159312097E+018,74,1.64952159312097E+018,r1000913c5/base_footprint,0,1.64952159312097E+018,v/m1vw10zy74w/map,-7.35193304178,-0.935627419777,0,0,0,-0.694765864839,0.719235978699,0,61.09375,3.6658141613,47.9212379456,94.7984161377,40.205783844,40.205783844,61.09375,61.09375,35.8092422485,0.61648607254,0,0.000600893574301,0.151824042201,0.00707751978189,0.00767841329798,12.142449379,0.768107712269,-0.197784423828,-0.00209073047154,5.91355895996,0.128222972155,0.399555206299,0.0110347550362,15.8082635403,94.600631713872,46.11934280396,36.208797454799,1214
1.64952159322117E+018,75,1.64952159322117E+018,r1000913c5/base_footprint,0,1.64952159322118E+018,v/m1vw10zy74w/map,-7.3476647807,-0.824104730974,0,0,0,-0.698384890732,0.715722393388,0,61.1794815063,10.2835378647,47.8200149536,94.6307830811,40.3039093018,40.3039093018,61.1794815063,61.1794815063,34.7223396301,0.686978578568,0,0.000796363980044,0.15179283917,0.00688204960898,0.00767841329798,5.62039661407,0.353396624327,-0.0694961547852,-0.000734932429623,5.98895263672,0.129370972514,1.30630111694,0.0362572968006,15.90393447877,94.5612869263148,46.29286193852,36.02864074704,1246
1.64952159332092E+018,76,1.64952159332092E+018,r1000913c5/base_footprint,0,1.64952159332092E+018,v/m1vw10zy74w/map,-7.3476647807,-0.824104730974,0,0,0,-0.698384890732,0.715722393388,0,61.3283843994,5.88235282898,47.9051513672,94.6307830811,40.4342346191,40.4342346191,61.3283843994,61.3283843994,33.4496498108,0.389695197344,0,0.000664300983772,0.151868626475,0.0058939117007,0.0065582129173,10.0215816498,0.630132198334,-0.0694961547852,-0.000734932429623,5.85862731934,0.126555740833,2.57899093628,0.0715816915035,15.90393447878,94.5612869263148,46.29286193844,36.02864074708,1246
1.64952159352097E+018,77,1.64952159352097E+018,r1000913c5/base_footprint,0,1.64952159352097E+018,v/m1vw10zy74w/map,-7.3476647807,-0.824104730974,0,0,0,-0.698384890732,0.715722393388,0,61.2961196899,8.4033613205,47.9300422668,94.6307830811,40.5472373962,40.5472373962,61.2961196899,61.2961196899,35.2508125305,0.334919035435,0,0.00134389812592,0.151625916362,0.00323546607979,0.00457936432213,7.50057315826,0.471617460251,-0.0694961547852,-0.000734932429623,5.74562454224,0.124114699662,0.777828216553,0.0215891636908,15.90393447876,94.5612869263148,46.29286193844,36.028640747053,1246
1.64952159362108E+018,78,1.64952159362108E+018,r1000913c5/base_footprint,0,1.64952159362108E+018,v/m1vw10zy74w/map,-7.34703894481,-0.710591503293,0,0,0,-0.699786692876,0.714351863212,0,61.3099899292,8.21860694885,47.9549293518,94.9971923828,40.6379051208,40.6379051208,61.3099899292,61.3099899292,37.299446106,0.152246922255,0,0.00214280909859,0.151663586497,0.00230641290545,0.00444922177121,7.73456096649,0.484829157591,-0.472496032715,-0.00499865179881,5.78534698486,0.124621748924,-1.33181762695,-0.0370282307267,15.95316791534,94.524696350085,46.42325210566,35.96762847905,1230
1.64952159372134E+018,79,1.64952159372134E+018,r1000913c5/base_footprint,0,1.64952159372134E+018,v/m1vw10zy74w/map,-7.34703894481,-0.710591503293,0,0,0,-0.699786692876,0.714351863212,0,61.341468811,2.96264481544,47.7259368896,94.9971923828,40.6507568359,40.6507568359,61.341468811,61.341468811,36.8716125488,0.638598561287,0,0.00260347663425,0.151753753424,0.00184574525338,0.00444922177121,12.9905233383,0.814291119576,-0.472496032715,-0.00499865179881,5.77249526978,0.124344915152,-0.903984069824,-0.0251332689077,15.95316815374,94.524696350085,46.42325210568,35.967628478976,1230
1.64952159382238E+018,80,1.64952159382238E+018,r1000913c5/base_footprint,0,1.64952159382238E+018,v/m1vw10zy74w/map,-7.34703894481,-0.710591503293,0,0,0,-0.699786692876,0.714351863212,0,61.675819397,9.16954994202,47.6499633789,94.9971923828,40.7334747314,40.7334747314,61.675819397,61.675819397,31.746673584,0.380241990089,0,0.00259971478954,0.15191552043,0.00079378625378,0.00339350104332,6.78361797333,0.425220757723,-0.472496032715,-0.00499865179881,5.68977737427,0.122563093901,4.22095489502,0.117354273796,15.95316791535,94.524696350085,46.42325210567,35.96762847902,1230
1.64952159392316E+018,81,1.64952159392316E+018,r1000913c5/base_footprint,0,1.64952159392316E+018,v/m1vw10zy74w/map,-7.34703894481,-0.710591503293,0,0,0,-0.699786692876,0.714351863212,0,61.5382423401,7.25633335114,47.6533050537,94.9971923828,40.7666969299,40.7666969299,61.5382423401,61.5382423401,34.5818367004,0.319466412067,0,0.00257483893074,0.152012094855,0.000503904186189,0.00307874311693,8.69683456421,0.545147836208,-0.472496032715,-0.00499865179881,5.65655517578,0.121847458184,1.38579177856,0.0385288633406,15.95316791535,94.524696350085,46.42325210568,35.96762847896,1230
1.64952159412165E+018,82,1.64952159412165E+018,r1000913c5/base_footprint,0,1.64952159412166E+018,v/m1vw10zy74w/map,-7.36564504819,-0.608669052006,0,0,0,-0.695789148195,0.718246100758,0,61.4192047119,5.20524740219,47.5786972046,94.609992981,40.7152061462,40.7152061462,61.4192047119,61.4192047119,34.7745513916,0.126284569502,0,0.00213807122782,0.152134135365,0.000394961127313,0.00253303232603,10.9722480774,0.678241431713,-0.0830307006836,-0.000878381135408,5.83639144897,0.125374674797,1.06105804443,0.0296090412885,16.17749547959,94.5269622803164,46.55159759517,35.83560943603,1131
1.64952159422093E+018,83,1.64952159422093E+018,r1000913c5/base_footprint,0,1.64952159422093E+018,v/m1vw10zy74w/map,-7.36564504819,-0.608669052006,0,0,0,-0.695789148195,0.718246100758,0,60.9257583618,6.23617887497,47.5724143982,94.609992981,40.6835365295,40.6835365295,60.9257583618,60.9257583618,43.3145332336,0.446558624506,0,0.00220377510414,0.152428507805,0.000329257221892,0.00253303232603,9.94131660461,0.614515185356,-0.0830307006836,-0.000878381135408,5.86806106567,0.126054987311,-7.47892379761,-0.208700895309,16.17749547958,94.5269622803164,46.55159759517,35.83560943599,1131
1.64952159502079E+018,84,1.64952159502079E+018,r1000913c5/base_footprint,0,1.64952159502079E+018,v/m1vw10zy74w/map,-7.35354852185,-0.495412004348,0,0,0,-0.696299293131,0.717751554778,0,61.8081855774,5.53885793686,47.5976638794,94.4711151123,40.703502655,40.703502655,61.8081855774,61.8081855774,27.1464748383,0.168715938926,0,0.000680849421769,0.20011267066,0.0492211990058,0.0499020516872,10.5222835541,0.65513920784,0.0310897827148,0.000328984722728,5.84536743164,0.125574856997,8.66224479675,0.241903230548,16.06114149096,94.5022048950148,46.54887008664,35.80871963505,1041
1.6495215951213E+018,85,1.6495215951213E+018,r1000913c5/base_footprint,0,1.64952159512131E+018,v/m1vw10zy74w/map,-7.35354852185,-0.495412004348,0,0,0,-0.696299293131,0.717751554778,0,60.5882644653,7.62527227402,47.8861160278,94.4711151123,40.7213020325,40.7213020325,60.5882644653,60.5882644653,49.2973098755,-0.0508037284017,0,0.00136628886685,0.196412280202,0.0735418051481,0.074908092618,8.43586921692,0.525234699249,0.0310897827148,0.000328984722728,5.8275680542,0.125192463398,-13.4885902405,-0.376684516668,16.06114149094,94.5022048950148,46.5488700867,35.808719635,1041
1.64952159522108E+018,86,1.64952159522108E+018,r1000913c5/base_footprint,0,1.64952159522108E+018,v/m1vw10zy74w/map,-7.35127268581,-0.510838922535,0,0,0,-0.657916826431,0.753090598466,0,61.1600151062,9.56979846954,48.1555595398,94.6639862061,40.6364860535,40.6364860535,61.1600151062,61.1600151062,38.7841072083,0.0630370900035,0,0.00511544849724,0.192616090178,0.0898970887065,0.0950125381351,6.5711107254,0.407109081745,-0.145530700684,-0.00153970671818,5.93865585327,0.12750698626,-2.92967605591,-0.081710293889,16.14090919494,94.518455505416,46.57514190677,35.85443115239,1090
1.64952159532186E+018,87,1.64952159532186E+018,r1000913c5/base_footprint,0,1.64952159532186E+018,v/m1vw10zy74w/map,-7.33771346,-0.568103376426,0,0,0,-0.608397712391,0.793632297451,0,60.7374725342,9.16954994202,48.347114563,94.6219940186,40.6375427246,40.6375427246,60.7374725342,60.7374725342,46.2500991821,0.191950529814,0,0.00635799439624,0.186438724399,0.118298530579,0.124656528234,7.0079460144,0.433191031218,-0.0950317382812,-0.00100534001831,5.91405487061,0.127043008804,-10.4144897461,-0.29061844945,16.17749595642,94.5269622803188,46.55159759521,35.835609436,1131
1.64952159542153E+018,88,1.64952159542153E+018,r1000913c5/base_footprint,0,1.64952159542153E+018,v/m1vw10zy74w/map,-7.33771346,-0.568103376426,0,0,0,-0.608397712391,0.793632297451,0,60.9028396606,8.97380828857,48.3217544556,94.6219940186,40.6037139893,40.6037139893,60.9028396606,60.9028396606,42.9081535339,-0.017518190667,0,0.00707808649167,0.183638125658,0.128485813737,0.135563910007,7.20368766785,0.445290654898,-0.0950317382812,-0.00100534001831,5.94788360596,0.127769693732,-7.0725440979,-0.197360783815,16.17749595642,94.5269622803188,46.55159759526,35.835609436,1131
1.6495215955207E+018,89,1.6495215955207E+018,r1000913c5/base_footprint,0,1.6495215955207E+018,v/m1vw10zy74w/map,-7.30472256467,-0.632971651443,0,0,0,-0.524447195728,0.85144297454,0,61.0112571716,4.6801199913,48.3293266296,94.533203125,40.4491844177,40.4491844177,61.0112571716,61.0112571716,38.9681053162,0.33914577961,0,0.0070362733677,0.177126482129,0.15333995223,0.160376220942,11.3749332428,0.708495497704,-0.0309066772461,-0.000327046844177,5.97783279419,0.128757625818,-3.16421127319,-0.0883761793375,16.0550532341,94.5022964477539,46.42701721189,35.80389404301,1193
1.64952159562131E+018,90,1.64952159562131E+018,r1000913c5/base_footprint,0,1.64952159562131E+018,v/m1vw10zy74w/map,-7.2854186907,-0.663945272293,0,0,0,-0.472976926147,0.881074813698,0,61.2770805359,6.37945318222,48.3640060425,94.288734436,40.3577842712,40.3577842712,61.2770805359,61.2770805359,32.3160247803,0.129854500294,0,0.00770119065419,0.170837625861,0.156479641795,0.164180830121,9.54383087158,0.599363207817,0.223915100098,0.00236915494315,6.00675582886,0.129554957151,3.55870056152,0.0991979911923,15.9232840538,94.512649536098,46.36454010006,35.87472534182,1217
1.64952159572099E+018,91,1.64952159572099E+018,r1000913c5/base_footprint,0,1.64952159572099E+018,v/m1vw10zy74w/map,-7.28991972197,-0.690665420878,0,0,0,-0.405241577565,0.914209638875,0,60.6034049988,2.92060875893,48.1779060364,93.7791595459,40.1912384033,40.1912384033,60.6034049988,60.6034049988,40.8090629578,0.162309110165,0,0.0086172176525,0.162390485406,0.0943157672882,0.102932989597,13.0026760101,0.816582560539,0.733489990234,0.00776075990871,6.17330169678,0.13314704597,-4.93433761597,-0.137543559074,15.92328476903,94.512649536134,46.36454010008,35.87472534183,1217
1.64952159582076E+018,92,1.64952159582076E+018,r1000913c5/base_footprint,0,1.64952159582076E+018,v/m1vw10zy74w/map,-7.20035474357,-0.761513272662,0,0,0,-0.293491613258,0.955961648262,0,61.2000923157,1.10826945305,47.488822937,94.4826965332,40.0170402527,40.0170402527,61.2000923157,61.2000923157,30.7201080322,0.000546250492334,0,0.0106540983543,0.156704768538,0.0567094311118,0.0673635303974,14.8583602905,0.930588364601,0.046630859375,0.000493295141496,6.1505279541,0.133221834898,5.10231399536,0.142433524132,15.96662974355,94.529327392575,46.1675682068,35.82242202756,1256
1.64952159592082E+018,93,1.64952159592082E+018,r1000913c5/base_footprint,0,1.64952159592082E+018,v/m1vw10zy74w/map,-7.14888972753,-0.786522725506,0,0,0,-0.235227968595,0.971940225935,0,61.0546607971,0.178253114223,46.9757537842,94.5588378906,39.7683677673,39.7683677673,61.0546607971,61.0546607971,30.926322937,0.620763659477,0,0.0112454025075,0.150171771646,0.0331424996257,0.0443879030645,15.8318195343,0.988866209984,-0.0408630371094,-0.000432330853073,6.37725067139,0.138198405504,4.84786987305,0.135513052344,16.010072648523,94.5179748534906,46.14561843869,35.77419281005,1261
1.64952159602075E+018,94,1.64952159602075E+018,r1000913c5/base_footprint,0,1.64952159602075E+018,v/m1vw10zy74w/map,-7.10311847857,-0.766644502549,0,0,0,-0.177151825624,0.984183535057,0,60.4697380066,2.94117641449,46.5331954956,94.5319900513,39.4623641968,39.4623641968,60.4697380066,60.4697380066,38.0534172058,0.249072670937,0,0.011222534813,0.141659781337,0.00364429084584,0.00757824396715,13.0808458328,0.816429138184,-0.0255661010742,-0.000270522374194,6.66971206665,0.144578620791,-2.23238754272,-0.0623205862939,16.02202224729,94.5064239502258,46.13207626345,35.82102966308,1267
1.64952159612081E+018,95,1.64952159612081E+018,r1000913c5/base_footprint,0,1.64952159612081E+018,v/m1vw10zy74w/map,-7.03225000545,-0.775448474674,0,0,0,-0.107183535619,0.994239251736,0,60.7751731873,0.148294612765,46.4404945374,95.0627670288,39.0463790894,39.0463790894,60.7751731873,60.7751731873,29.9737529755,0.131370678544,0,0.0112768048421,0.13121598959,0.0710364952683,0.0597596913576,16.211353302,0.990935325623,-0.521179199219,-0.00551269762218,7.22479248047,0.156140252948,5.85290718079,0.16336736083,16.359647914765,94.541587829581,46.27117156987,35.82666015629,1273
1.64952159622138E+018,96,1.64952159622138E+018,r1000913c5/base_footprint,0,1.64952159622139E+018,v/m1vw10zy74w/map,-6.95736302889,-0.775836284791,0,0,0,-0.0491245221769,0.998792661828,0,60.1796798706,0,46.1682701111,95.226348877,38.7019195557,38.7019195557,60.1796798706,60.1796798706,37.5613250732,0.118966430426,0,0.0125049045309,0.106824792922,0.0929947048426,0.0804897993803,16.4726581573,1,-0.702812194824,-0.00743531435728,7.60960388184,0.164313405752,-1.69581604004,-0.0472826436162,16.4726581573,94.523536682176,46.31152343754,35.86550903316,1262
1.64952159632147E+018,97,1.64952159632147E+018,r1000913c5/base_footprint,0,1.64952159632147E+018,v/m1vw10zy74w/map,-6.83853438063,-0.774474483257,0,0,0,-0.00344341932508,0.999994071414,0,60.113697052,1.09318065643,45.9063529968,95.2554168701,38.9370384216,38.9370384216,60.113697052,60.113697052,41.3929786682,0.613388895988,0,0.0159585531801,0.0320025235415,0.127456828952,0.11149828136,15.4393491745,0.933876991272,-0.774032592773,-0.00819243490696,7.46939468384,0.160956025124,-5.3939743042,-0.14983676374,16.53252983093,94.481384277327,46.40643310544,35.999004364,1264
1.64952159642202E+018,98,1.64952159642202E+018,r1000913c5/base_footprint,0,1.64952159642202E+018,v/m1vw10zy74w/map,-6.70291493888,-0.772980145412,0,0,0,0.0155696480495,0.999878785683,0,60.6809997559,0,45.5409317017,95.0922241211,39.3908729553,39.3908729553,60.6809997559,60.6809997559,35.4954681396,0.43726682663,0,0.0168041419238,0.0233510453254,0.136227607727,0.119423463941,16.751531601,1,-0.754806518555,-0.0080011356622,7.77742767334,0.16488674283,1.28617477417,0.0349678434432,16.751531601,94.337417602545,47.16830062864,36.78164291377,977
1.6495215965211E+018,99,1.6495215965211E+018,r1000913c5/base_footprint,0,1.6495215965211E+018,v/m1vw10zy74w/map,-6.60081051083,-0.76353860157,0,0,0,0.0210804456477,0.999777782715,0,60.4470558167,3.05882358551,45.1698608398,94.8486557007,39.9021873474,39.9021873474,60.4470558167,60.4470558167,44.3517951965,0.388784497976,0,0.0179045572877,0.019868010655,0.140515848994,0.122611291707,13.4524621964,0.814743459225,-0.624328613281,-0.0066259810701,7.65022277832,0.160879805684,-7.06898880005,-0.189604520798,16.51128578191,94.224327087419,47.55241012572,37.28280639645,888
1.64952159662089E+018,100,1.64952159662089E+018,r1000913c5/base_footprint,0,1.64952159662089E+018,v/m1vw10zy74w/map,-6.59701893305,-0.760258304983,0,0,0,0.0226282833794,0.999743947614,0,61.1330223083,2.27703976631,44.8572273254,95.1437072754,40.3248710632,40.3248710632,61.1330223083,61.1330223083,37.6315574646,0.204080253839,0,0.0181344375014,0.0169811006635,0.142123445868,0.123989008367,14.234246254,0.862091958523,-0.919380187988,-0.00975735485554,7.2275390625,0.151991009712,-0.348751068115,-0.00935420673341,16.51128602031,94.224327087412,47.5524101257,37.282806396485,888
1.64952159672096E+018,101,1.64952159672096E+018,r1000913c5/base_footprint,0,1.64952159672096E+018,v/m1vw10zy74w/map,-6.47245500545,-0.750241006807,0,0,0,0.0243580183631,0.999703299455,0,61.3747253418,6.82352924347,44.6476211548,95.1591873169,40.7211837769,40.7211837769,61.3747253418,61.3747253418,37.6168136597,0.215223327279,0,0.0187542680651,0.012252879329,0.14515696466,0.126402705908,9.0668964386,0.570588648319,-1.00230407715,-0.0106450431049,6.93756484985,0.145567506552,-0.104248046875,-0.00277901673689,15.89042568207,94.15688323975,47.65874862675,37.512565612825,843
1.64952159682084E+018,102,1.64952159682084E+018,r1000913c5/base_footprint,0,1.64952159682084E+018,v/m1vw10zy74w/map,-6.33592139461,-0.736561297634,0,0,0,0.0251289072403,0.999684219152,0,61.1002731323,4.53230476379,44.6024398804,95.1438751221,41.0761146545,41.0761146545,61.1002731323,61.1002731323,46.3350639343,-0.0879716277122,0,0.019166527316,0.00103500217665,0.1484156847,0.129249155521,10.844039917,0.70524173975,-1.03304290771,-0.0109768761322,6.57613754272,0.138002663851,-8.64351654053,-0.229322418571,15.37634468079,94.11083221439,47.65225219722,37.69154739377,822
1.64952159692114E+018,103,1.64952159692114E+018,r1000913c5/base_footprint,0,1.64952159692114E+018,v/m1vw10zy74w/map,-6.23512096354,-0.744950008512,0,0,0,0.0226085674549,0.999744393672,0,62.1712303162,4.94117641449,44.579826355,95.4821929932,41.4413032532,41.4413032532,62.1712303162,62.1712303162,32.2197952271,0.096374168992,0,0.0193441864103,0.0009823681321,0.148890286684,0.129546105862,10.0373020172,0.670114934444,-1.38338470459,-0.0147014055401,6.23040771484,0.130694016814,5.42137145996,0.144027724862,14.97847843169,94.09880828861,47.67171096804,37.64116668706,819
