%time,field.header.seq,field.header.stamp,field.header.frame_id,field.pose.header.seq,field.pose.header.stamp,field.pose.header.frame_id,field.pose.pose.position.x,field.pose.pose.position.y,field.pose.pose.position.z,field.pose.pose.orientation.x,field.pose.pose.orientation.y,field.pose.pose.orientation.z,field.pose.pose.orientation.w,field.label,field.main_output,field.scan_score,field.pose_score,field.cov_score,field.lhood_map_score,field.lhood_robot_score,field.lhood_map_score_all,field.lhood_robot_score_all,field.point_angle_diff,field.average_orientation,field.map_average_orientation,field.sensor_div,field.odom_div_x,field.odom_div_w,field.imu_div_w,field.kdtree_div,field.kdtree_div_p,field.cov_div,field.cov_div_p,field.likelihood_div,field.likelihood_div_p,field.normal_diff_div,field.normal_diff_div_p,field.kdtree_average,field.cov_average,field.likelihood_average,field.normal_diff_average,field.map_update_count
1.64950493795766E+018,0,1.64950493795766E+018,r1000913c5/base_footprint,0,1.64950493795766E+018,v/m1vw10zy74w/map,-11.5360000657,-0.685545347175,0,0,0,-0.715152406375,0.698968551264,0,69.943611145,48.3500709534,100,95.2824325562,53.9918708801,53.9918708801,69.943611145,69.943611145,27.1439533234,0.260007768869,0,0.00124655256514,0.0194906853139,0.255641371012,0.254394799471,-23.0657272339,-0.912253320217,-0.354804992676,-0.00373763684183,-6.34406661987,-0.13314498961,4.92204093933,0.153497219086,25.2843437195,94.927627563524,47.64780426023,32.06599426273,1996
1.64950493805614E+018,1,1.64950493805614E+018,r1000913c5/base_footprint,0,1.64950493805614E+018,v/m1vw10zy74w/map,-11.5360000657,-0.685545347175,0,0,0,-0.715152406375,0.698968551264,0,68.7470245361,19.5501728058,34.699306488,95.2824325562,53.0228309631,53.0228309631,68.7470245361,68.7470245361,38.2168617249,0.215789332986,0,0.00154352653772,0.0678418278694,0.296236693859,0.294693171978,5.7341709137,0.226787418127,-0.354804992676,-0.00373763684183,-5.37502670288,-0.112807437778,-6.15086746216,-0.191819012165,25.2843437195,94.927627563524,47.64780426022,32.06599426274,1996
1.6495049382563E+018,2,1.6495049382563E+018,r1000913c5/base_footprint,0,1.6495049382563E+018,v/m1vw10zy74w/map,-11.5360000657,-0.685545347175,0,0,0,-0.715152406375,0.698968551264,0,68.4297180176,21.5686283112,36.3993835449,95.2824325562,52.0901756287,52.0901756287,68.4297180176,68.4297180176,33.8557891846,0.230891123414,0,0.0029834669549,0.0882989987731,0.301611930132,0.29862844944,3.71571540833,0.146957159042,-0.354804992676,-0.00373763684183,-4.44237136841,-0.0932334959507,-1.78979492188,-0.0558159798384,25.28434371953,94.927627563524,47.64780426029,32.06599426272,1996
1.64950493835683E+018,3,1.64950493835683E+018,r1000913c5/base_footprint,0,1.64950493835683E+018,v/m1vw10zy74w/map,-11.5360000657,-0.685545347175,0,0,0,-0.715152406375,0.698968551264,0,67.9865951538,22.1453285217,38.5244827271,95.2824325562,51.2804222107,51.2804222107,67.9865951538,67.9865951538,33.0865516663,0.360905617476,0,0.00297489995137,0.097476541996,0.302783310413,0.29980841279,3.13901519775,0.124148570001,-0.354804992676,-0.00373763684183,-3.63261795044,-0.076238937676,-1.02055740356,-0.0318267829716,25.28434371945,94.927627563524,47.64780426026,32.06599426274,1996
1.64950493855645E+018,4,1.64950493855645E+018,r1000913c5/base_footprint,0,1.64950493855645E+018,v/m1vw10zy74w/map,-11.5360000657,-0.685545347175,0,0,0,-0.715152406375,0.698968551264,0,67.1963119507,20.7342510223,40.2075576782,95.2824325562,50.4474182129,50.4474182129,67.1963119507,67.1963119507,38.3152618408,0.244488462806,0,0.00322347949259,0.111565999687,0.301399409771,0.298175930977,4.55009269714,0.179956927896,-0.354804992676,-0.00373763684183,-2.79961395264,-0.0587564110756,-6.24926757812,-0.194887697697,25.28434371944,94.927627563524,47.64780426026,32.06599426268,1996
1.64950493865678E+018,5,1.64950493865678E+018,r1000913c5/base_footprint,0,1.64950493865678E+018,v/m1vw10zy74w/map,-11.5360000657,-0.685545347175,0,0,0,-0.715152406375,0.698968551264,0,67.1955795288,23.777961731,41.4996147156,95.2824325562,49.7646484375,49.7646484375,67.1955795288,67.1955795288,30.9544734955,0.242448672652,0,0.00356416590512,0.116372831166,0.297887772322,0.294323593378,1.50638198853,0.0595776587725,-0.354804992676,-0.00373763684183,-2.11684417725,-0.0444268994033,1.11152076721,0.0346635356545,25.28434371953,94.927627563524,47.64780426025,32.06599426271,1996
1.64950493885642E+018,6,1.64950493885642E+018,r1000913c5/base_footprint,0,1.64950493885642E+018,v/m1vw10zy74w/map,-11.5360000657,-0.685545347175,0,0,0,-0.715152406375,0.698968551264,0,66.7569732666,25.7405090332,42.5057830811,95.2824325562,49.1477584839,49.1477584839,66.7569732666,66.7569732666,32.1870307922,0.28123742342,0,0.00388417369686,0.121946655214,0.284725159407,0.280840992928,-0.456165313721,-0.0180414132774,-0.354804992676,-0.00373763684183,-1.49995422363,-0.0314800292253,-0.121036529541,-0.00377460708842,25.284343719479,94.927627563524,47.64780426027,32.065994262659,1996
1.64950493896484E+018,7,1.64950493896484E+018,r1000913c5/base_footprint,0,1.64950493896484E+018,v/m1vw10zy74w/map,-11.5360000657,-0.685545347175,0,0,0,-0.715152406375,0.698968551264,0,66.6169662476,21.848739624,43.3059463501,95.2824325562,48.6258392334,48.6258392334,66.6169662476,66.6169662476,29.070438385,0.335581660271,0,0.00389142800122,0.122530788183,0.270168781281,0.266277343035,3.43560409546,0.135878711939,-0.354804992676,-0.00373763684183,-0.978034973145,-0.0205263383687,2.99555587769,0.0934184640646,25.28434371946,94.927627563524,47.647804260255,32.06599426269,1996
1.64950493915695E+018,8,1.64950493915695E+018,r1000913c5/base_footprint,0,1.64950493915695E+018,v/m1vw10zy74w/map,-11.5444243135,-0.789042611146,0,0,0,-0.747921678328,0.663786986229,0,66.2524337769,25.518409729,43.9552841187,95.266494751,48.194190979,48.194190979,66.2524337769,66.2524337769,30.9128913879,0.3378713727,0,0.00383522547781,0.121669970453,0.262957334518,0.259122103453,0.35583114624,0.0137523319572,-0.296272277832,-0.00311963330023,-0.588565826416,-0.0123633667827,0.95298576355,0.0299061518162,25.87424087524,94.970222473168,47.605625152584,31.86587715145,2110
1.6495049393567E+018,9,1.6495049393567E+018,r1000913c5/base_footprint,0,1.6495049393567E+018,v/m1vw10zy74w/map,-11.5444243135,-0.789042611146,0,0,0,-0.747921678328,0.663786986229,0,65.8591156006,26.5748844147,44.4917526245,95.266494751,47.8251266479,47.8251266479,65.8591156006,65.8591156006,34.0067024231,0.300053566694,0,0.00382737256587,0.118887707591,0.245770156384,0.24194277823,-0.700643539429,-0.0270788054913,-0.296272277832,-0.00311963330023,-0.219501495361,-0.00461083091795,-2.14082527161,-0.0671823769808,25.874240875271,94.970222473168,47.605625152539,31.86587715149,2110
1.64950493945669E+018,10,1.64950493945669E+018,r1000913c5/base_footprint,0,1.64950493945669E+018,v/m1vw10zy74w/map,-11.5444243135,-0.789042611146,0,0,0,-0.747921678328,0.663786986229,0,65.6873931885,29.4117641449,44.9419212341,95.266494751,47.5311851501,47.5311851501,65.6873931885,65.6873931885,33.9231300354,0.277946978807,0,0.00380314234644,0.117301754653,0.23712156713,0.233318433166,-3.53752326965,-0.136719882488,-0.296272277832,-0.00311963330023,0.0744400024414,0.00156368082389,-2.05725288391,-0.0645597428083,25.87424087525,94.970222473168,47.6056251525414,31.86587715149,2110
1.64950493965759E+018,11,1.64950493965759E+018,r1000913c5/base_footprint,0,1.64950493965759E+018,v/m1vw10zy74w/map,-11.5444243135,-0.789042611146,0,0,0,-0.747921678328,0.663786986229,0,65.5807113647,26.0504207611,45.3247871399,95.266494751,47.2702102661,47.2702102661,65.5807113647,65.5807113647,33.0249290466,0.355606049299,0,0.00361622893251,0.112279877067,0.207997664809,0.20438143611,-0.176179885864,-0.00680908421054,-0.296272277832,-0.00311963330023,0.335414886475,0.00704569881782,-1.15905189514,-0.0363728217781,25.874240875236,94.970222473168,47.605625152575,31.86587715146,2110
1.64950493995626E+018,12,1.64950493995626E+018,r1000913c5/base_footprint,0,1.64950493995626E+018,v/m1vw10zy74w/map,-11.5643041496,-0.905375578627,0,0,0,-0.763579350599,0.645714004292,0,65.5253219604,27.0919628143,45.6542396545,95.4625320435,47.0467071533,47.0467071533,65.5253219604,65.5253219604,32.3136863708,0.361738592386,0,0.00232897279784,0.107401371002,0.185967922211,0.183638945222,-0.65415763855,-0.0247432664037,-0.480941772461,-0.00506352633238,0.495803833008,0.0104286419228,-0.678380966187,-0.0214437935501,26.43780517575,94.981590271039,47.542510986308,31.635305404613,2192
1.64950494005757E+018,13,1.64950494005757E+018,r1000913c5/base_footprint,0,1.64950494005757E+018,v/m1vw10zy74w/map,-11.5643041496,-0.905375578627,0,0,0,-0.763579350599,0.645714004292,0,65.7921676636,30.596698761,45.8660736084,95.4625320435,46.9672164917,46.9672164917,65.7921676636,65.7921676636,26.6519756317,0.306274980307,0,0.00180902157445,0.10414224118,0.178811088204,0.177002057433,-4.15889358521,-0.157308578491,-0.480941772461,-0.00506352633238,0.575294494629,0.0121006332338,4.98332977295,0.157524317503,26.43780517579,94.981590271039,47.542510986329,31.63530540465,2192
1.64950494015693E+018,14,1.64950494015693E+018,r1000913c5/base_footprint,0,1.64950494015693E+018,v/m1vw10zy74w/map,-11.5643041496,-0.905375578627,0,0,0,-0.763579350599,0.645714004292,0,65.4146728516,32.6513214111,46.0619316101,95.4625320435,47.0509300232,47.0509300232,65.4146728516,65.4146728516,34.3510360718,0.274745106697,0,0.00168481178116,0.0995774716139,0.173343136907,0.171658337116,-6.21351623535,-0.235023900867,-0.480941772461,-0.00506352633238,0.491580963135,0.0103398188949,-2.71573066711,-0.0858449339867,26.43780517575,94.981590271039,47.542510986335,31.63530540469,2192
1.6495049402575E+018,15,1.6495049402575E+018,r1000913c5/base_footprint,0,1.6495049402575E+018,v/m1vw10zy74w/map,-11.5847534983,-1.01875282929,0,0,0,-0.755719752072,0.65489514911,0,65.775428772,32.2894630432,46.2426490784,95.8358688354,47.2285728455,47.2285728455,65.775428772,65.775428772,31.1199798584,0.372439801693,0,0.00180916383397,0.0935200825334,0.169740945101,0.167931780219,-4.54211425781,-0.163695439696,-0.842277526855,-0.00886667706072,0.273616790771,0.0057600880973,0.218143463135,0.00696096150205,27.74734878539,94.993591308545,47.502189636271,31.338123321535,2100
1.64950494035661E+018,16,1.64950494035661E+018,r1000913c5/base_footprint,0,1.64950494035661E+018,v/m1vw10zy74w/map,-11.5847534983,-1.01875282929,0,0,0,-0.755719752072,0.65489514911,0,66.4191207886,42.0168075562,45.6489524841,95.8358688354,47.3807144165,47.3807144165,66.4191207886,66.4191207886,21.1766700745,0.253477871418,0,0.00168829015456,0.0903862044215,0.167927861214,0.166239574552,-14.2694587708,-0.514263868332,-0.842277526855,-0.00886667706072,0.121475219727,0.00255725509487,10.1614532471,0.324252128601,27.7473487854,94.993591308545,47.502189636227,31.3381233216,2100
1.64950494045619E+018,17,1.64950494045619E+018,r1000913c5/base_footprint,0,1.64950494045619E+018,v/m1vw10zy74w/map,-11.6001136034,-1.13816630917,0,0,0,-0.744654738334,0.667449863792,0,66.4600830078,40.7532806396,45.0614013672,96.1018218994,47.4721412659,47.4721412659,66.4600830078,66.4600830078,22.3842601776,0.220652043819,0,0.00157304143067,0.0811768174171,0.159626096487,0.158053055406,-11.3053436279,-0.383909523487,-1.03307342529,-0.0108665935695,0.0197830200195,0.000416555441916,8.28325653076,0.270098716021,29.4479370117,95.06874847411,47.4919242859195,30.66751670836,1802
1.64950494055658E+018,18,1.64950494055658E+018,r1000913c5/base_footprint,0,1.64950494055658E+018,v/m1vw10zy74w/map,-11.6001136034,-1.13816630917,0,0,0,-0.744654738334,0.667449863792,0,66.6773147583,42.8571434021,44.5138397217,96.1018218994,47.5899238586,47.5899238586,66.6773147583,66.6773147583,19.7460842133,0.22983635962,0,0.00145545299165,0.0782428383827,0.155727565289,0.15427210927,-13.4092063904,-0.455352991819,-1.03307342529,-0.0108665935695,-0.0979995727539,-0.00206349976361,10.9214324951,0.356123805046,29.4479370117,95.06874847411,47.4919242858461,30.6675167084,1802
1.64950494065744E+018,19,1.64950494065744E+018,r1000913c5/base_footprint,0,1.64950494065744E+018,v/m1vw10zy74w/map,-11.6091295517,-1.24515118246,0,0,0,-0.733260872751,0.679947418917,0,66.5754623413,41.5936584473,44.097743988,96.0629882812,47.6266784668,47.6266784668,66.5754623413,66.5754623413,21.8366279602,0.308985322714,0,0.0011194513645,0.0736856535077,0.1530623734,0.151942923665,-7.87693023682,-0.233620837331,-0.597274780273,-0.00625643227249,-0.364250183105,-0.00770697137341,7.09397506714,0.245206609368,33.71672821048,95.465713500927,47.262428283695,28.93060302734,1014
1.64950494075635E+018,20,1.64950494075635E+018,r1000913c5/base_footprint,0,1.64950494075635E+018,v/m1vw10zy74w/map,-11.6112464701,-1.24726765255,0,0,0,-0.732293183748,0.680989495541,0,66.6216506958,40.7592811584,45.3944702148,95.880317688,47.6455688477,47.6455688477,66.6216506958,66.6216506958,20.5516338348,0.277697861195,0,0.00106376223266,0.0705700293183,0.152560383081,0.151496618986,-7.042552948,-0.208874151111,-0.414604187012,-0.0043429643847,-0.383140563965,-0.00810666289181,8.3789691925,0.289623051882,33.7167282104,95.465713500988,47.262428283735,28.9306030273,1014
1.64950494085721E+018,21,1.64950494085721E+018,r1000913c5/base_footprint,0,1.64950494085721E+018,v/m1vw10zy74w/map,-11.6112464701,-1.24726765255,0,0,0,-0.732293183748,0.680989495541,0,66.4205169678,39.9249076843,45.0235443115,95.880317688,47.6561889648,47.6561889648,66.4205169678,66.4205169678,24.2866325378,0.242385879159,0,0.00127296929713,0.0648250728846,0.145683959126,0.144410982728,-6.20817947388,-0.1841275841,-0.414604187012,-0.0043429643847,-0.393760681152,-0.008331367746,4.6439704895,0.160521045327,33.71672821042,95.465713500988,47.262428283648,28.9306030273,1014
1.64950494095663E+018,22,1.64950494095663E+018,r1000913c5/base_footprint,0,1.64950494095663E+018,v/m1vw10zy74w/map,-11.622032418,-1.35816588514,0,0,0,-0.723054764777,0.690790711528,0,66.5136032104,35.4575157166,44.7584991455,96.1393814087,47.6558494568,47.6558494568,66.5136032104,66.5136032104,23.540063858,0.303380250931,0,0.00120147573762,0.061883803457,0.141890481114,0.140689000487,-0.528545379639,-0.0151320053264,-0.644386291504,-0.00674785394222,-0.234397888184,-0.00494286604226,4.91136741638,0.172622859478,34.928970336961,95.494995117196,47.421451568616,28.45143127438,986
1.64950494555639E+018,23,1.64950494555639E+018,r1000913c5/base_footprint,0,1.64950494555639E+018,v/m1vw10zy74w/map,-11.6470785324,-2.4403622409,0,0,0,-0.714862788906,0.699264751749,0,66.7544021606,34.0842704773,44.6542053223,96.3547210693,47.5973548889,47.5973548889,66.7544021606,66.7544021606,19.3492012024,0.410085439682,0,0.000534208840691,0.109308406711,0.0232949703932,0.0238291788846,-0.944915771484,-0.0285134036094,-0.878494262695,-0.00920118298382,-0.681667327881,-0.0145296249539,3.34480857849,0.147387295961,33.139354705816,95.476226806605,46.915687561019,22.69400978089,498
1.6495049456563E+018,24,1.6495049456563E+018,r1000913c5/base_footprint,0,1.6495049456563E+018,v/m1vw10zy74w/map,-11.6470785324,-2.4403622409,0,0,0,-0.714862788906,0.699264751749,0,65.6441650391,24.0389060974,43.8873100281,96.3547210693,47.3486442566,47.3486442566,65.6441650391,65.6441650391,36.6473617554,1.31498241425,0,0.000726424623281,0.167553067207,0.0233364831656,0.0240629091859,9.1004486084,0.274611532688,-0.878494262695,-0.00920118298382,-0.432956695557,-0.00922839902341,-13.9533519745,-0.614847362041,33.1393547058,95.476226806605,46.915687561043,22.6940097809,498
1.64950494575664E+018,25,1.64950494575664E+018,r1000913c5/base_footprint,0,1.64950494575664E+018,v/m1vw10zy74w/map,-11.6470785324,-2.4403622409,0,0,0,-0.714862788906,0.699264751749,0,65.9756164551,34.8416290283,43.3552055359,96.3547210693,47.1953201294,47.1953201294,65.9756164551,65.9756164551,29.0253276825,1.35304439068,0,0.000409053376643,0.191165566444,0.0297632012516,0.0301722548902,-1.70227432251,-0.0513671524823,-0.878494262695,-0.00920118298382,-0.279632568359,-0.00596032105386,-6.33131790161,-0.278986304998,33.13935470579,95.476226806605,46.915687561041,22.69400978089,498
1.64950494585661E+018,26,1.64950494585661E+018,r1000913c5/base_footprint,0,1.64950494585661E+018,v/m1vw10zy74w/map,-11.6452305201,-2.33511687471,0,0,0,-0.718802230679,0.695214609434,0,66.1583251953,36.0815200806,43.0578918457,96.1067504883,47.1348419189,47.1348419189,66.1583251953,66.1583251953,24.1907310486,1.31991493702,0,0.000799526693299,0.192265093327,0.0330862849951,0.0338858105242,-4.81583786011,-0.154029518366,-0.0844345092773,-0.000879321713001,0.129283905029,0.00273534958251,-6.31378936768,-0.353180617094,31.26568222049,96.0223159790227,47.264125823929,17.87694168092,1357
1.64950494595675E+018,27,1.64950494595675E+018,r1000913c5/base_footprint,0,1.64950494595675E+018,v/m1vw10zy74w/map,-11.6452305201,-2.33511687471,0,0,0,-0.718802230679,0.695214609434,0,66.1732788086,35.8288764954,42.9686393738,96.1067504883,47.209236145,47.209236145,66.1732788086,66.1732788086,24.7250423431,1.26194822788,0,0.00101637793705,0.186251699924,0.0383183695376,0.0393347479403,-4.5631942749,-0.145948976278,-0.0844345092773,-0.000879321713001,0.0548896789551,0.00116133911069,-6.84810066223,-0.383068919182,31.2656822205,96.0223159790227,47.2641258239551,17.87694168087,1357
1.64950494605644E+018,28,1.64950494605644E+018,r1000913c5/base_footprint,0,1.64950494605644E+018,v/m1vw10zy74w/map,-11.6452305201,-2.33511687471,0,0,0,-0.718802230679,0.695214609434,0,66.3269042969,36.7201423645,42.918182373,96.1067504883,47.3246765137,47.3246765137,66.3269042969,66.3269042969,23.206495285,1.2687240839,0,0.000827716314234,0.179852202535,0.0396474413574,0.0404751561582,-5.45446014404,-0.174455180764,-0.0844345092773,-0.000879321713001,-0.0605506896973,-0.00128111313097,-5.32955360413,-0.298124462366,31.26568222046,96.0223159790227,47.2641258240027,17.87694168087,1357
1.64950494615656E+018,29,1.64950494615656E+018,r1000913c5/base_footprint,0,1.64950494615656E+018,v/m1vw10zy74w/map,-11.6423552361,-2.21529252648,0,0,0,-0.72197379105,0.691920403686,0,66.3734054565,34.6405220032,42.9730567932,96.1449890137,47.4336891174,47.4336891174,66.3734054565,66.3734054565,23.6844921112,1.24382960796,0,0.000958817254286,0.170033797622,0.0402745604515,0.0412333793938,-2.92994117737,-0.0923963263631,-0.141136169434,-0.00147010944784,-0.111614227295,-0.00235860794783,-5.48838424683,-0.301624089479,31.71058082583,96.003852844266,47.322074890105,18.19610786437,1426
1.64950494625649E+018,30,1.64950494625649E+018,r1000913c5/base_footprint,0,1.64950494625649E+018,v/m1vw10zy74w/map,-11.6423552361,-2.21529252648,0,0,0,-0.72197379105,0.691920403686,0,66.1729125977,36.3113670349,43.0378456116,96.1449890137,47.4993438721,47.4993438721,66.1729125977,66.1729125977,28.0025043488,1.17015266418,0,0.00126293941867,0.162404164672,0.0432154461741,0.0444783866405,-4.60078620911,-0.14508678019,-0.141136169434,-0.00147010944784,-0.177268981934,-0.0037460103631,-9.80639648438,-0.53892827034,31.71058082579,96.003852844266,47.322074890166,18.19610786442,1426
1.64950494635649E+018,31,1.64950494635649E+018,r1000913c5/base_footprint,0,1.64950494635649E+018,v/m1vw10zy74w/map,-11.6346303679,-2.10273627065,0,0,0,-0.722940180625,0.690910627532,0,66.1273193359,35.0307273865,43.0173416138,96.3074188232,47.5814971924,47.5814971924,66.1273193359,66.1273193359,30.2952079773,1.14856362343,0,0.000295204838039,0.141728758812,0.0326349548995,0.0323397479951,-2.72459030151,-0.0843366160989,-0.342277526855,-0.003566686064,-0.225082397461,-0.00475294422358,-11.3477649689,-0.598907470703,32.30613708499,95.965141296345,47.356414794939,18.9474430084,1570
1.64950494645644E+018,32,1.64950494645644E+018,r1000913c5/base_footprint,0,1.64950494645644E+018,v/m1vw10zy74w/map,-11.6346303679,-2.10273627065,0,0,0,-0.722940180625,0.690910627532,0,66.216758728,33.6576728821,43.223991394,96.3074188232,47.6128234863,47.6128234863,66.216758728,66.216758728,29.0235538483,1.14724576473,0,0.000443832512246,0.118369705975,0.0303700864315,0.0308139193803,-1.35153579712,-0.0418352633715,-0.342277526855,-0.003566686064,-0.256408691406,-0.0054144449532,-10.0761108398,-0.531792640686,32.30613708498,95.965141296345,47.356414794894,18.9474430085,1570
1.64950494655678E+018,33,1.64950494655678E+018,r1000913c5/base_footprint,0,1.64950494655678E+018,v/m1vw10zy74w/map,-11.6312789617,-1.98554454824,0,0,0,-0.722916398872,0.690935510914,0,66.5963058472,35.4268035889,43.5635604858,96.4937744141,47.8417663574,47.8417663574,66.5963058472,66.5963058472,25.3351955414,1.07207036018,0,0.000637743796688,0.0997258275747,0.0262164957821,0.0268542394042,-2.75135803223,-0.0842026174068,-0.564468383789,-0.00588421197608,-0.45015335083,-0.00949858687818,-5.72319602966,-0.291821151972,32.67544555667,95.929306030311,47.39161300657,19.61199951174,1690
1.64950494665633E+018,34,1.64950494665633E+018,r1000913c5/base_footprint,0,1.64950494665633E+018,v/m1vw10zy74w/map,-11.6312789617,-1.98554454824,0,0,0,-0.722916398872,0.690935510914,0,66.789024353,34.2560539246,44.0493431091,96.4937744141,48.0553817749,48.0553817749,66.789024353,66.789024353,24.1733264923,0.969581007957,0,0.000301959982608,0.0838379412889,0.0221764184535,0.0224783793092,-1.58060836792,-0.0483729690313,-0.564468383789,-0.00588421197608,-0.663768768311,-0.0140060391277,-4.56132698059,-0.232578381896,32.67544555668,95.929306030311,47.391613006589,19.61199951171,1690
1.64950494675646E+018,35,1.64950494675646E+018,r1000913c5/base_footprint,0,1.64950494675646E+018,v/m1vw10zy74w/map,-11.6302145562,-1.86442479599,0,0,0,-0.721698057452,0.692207998993,0,66.6999588013,39.4205436707,44.7260818481,96.6649475098,48.2408905029,48.2408905029,66.6999588013,66.6999588013,28.3961582184,0.941862821579,0,0.000100637342257,0.0690995752811,0.0187380388379,0.0188386756927,-6.44742202759,-0.195535689592,-0.762741088867,-0.00795332156122,-0.795181274414,-0.0167598146945,-8.55869102478,-0.431440711021,32.97312164311,95.902206420933,47.445709228486,19.83746719362,1737
1.64950494685654E+018,36,1.64950494685654E+018,r1000913c5/base_footprint,0,1.64950494685654E+018,v/m1vw10zy74w/map,-11.6259775365,-1.76095696135,0,0,0,-0.722768538389,0.691090182187,0,66.6102218628,39.029624939,45.0456237793,96.563873291,48.3773841858,48.3773841858,66.6102218628,66.6102218628,31.1216983795,0.844419836998,0,4.90109669045E-05,0.0582216158509,0.0180233623832,0.0179743524641,-5.93083190918,-0.1791857481,-0.654022216797,-0.00681913504377,-0.903484344482,-0.0190311800689,-10.6122398376,-0.517431497574,33.09879302982,95.909851074203,47.473899841318,20.5094585419,1727
1.64950494695644E+018,37,1.64950494695644E+018,r1000913c5/base_footprint,0,1.64950494695644E+018,v/m1vw10zy74w/map,-11.6259775365,-1.76095696135,0,0,0,-0.722768538389,0.691090182187,0,66.9310531616,39.8692817688,45.4179344177,96.563873291,48.5700149536,48.5700149536,66.9310531616,66.9310531616,27.4271717072,0.915988326073,0,7.58943642722E-05,0.0478593558073,0.0178984571248,0.0179743524641,-6.77048873901,-0.204553946853,-0.654022216797,-0.00681913504377,-1.0961151123,-0.0230887942016,-6.91771316528,-0.337293803692,33.09879302979,95.909851074203,47.4738998413,20.50945854192,1727
1.64950494705637E+018,38,1.64950494705637E+018,r1000913c5/base_footprint,0,1.64950494705637E+018,v/m1vw10zy74w/map,-11.6290358233,-1.64438864873,0,0,0,-0.724556701695,0.689215195732,0,67.125541687,39.4714393616,45.8101615906,96.5546646118,48.6920013428,48.6920013428,67.125541687,67.125541687,25.2106227875,0.945816099644,0,0.000195727188839,0.0402077175677,0.0172291900963,0.0174249168485,-6.02710723877,-0.180213108659,-0.656379699707,-0.00684454059228,-1.16213226318,-0.0244505666196,-4.12719154358,-0.195755213499,33.44433212283,95.898284912093,47.52986907962,21.08343124392,1768
1.64950494715628E+018,39,1.64950494715628E+018,r1000913c5/base_footprint,0,1.64950494715628E+018,v/m1vw10zy74w/map,-11.6290358233,-1.64438864873,0,0,0,-0.724556701695,0.689215195732,0,66.8496551514,38.2141342163,46.3171958923,96.5546646118,48.7069740295,48.7069740295,66.8496551514,66.8496551514,30.3382987976,0.83865737915,0,0.00018071179511,0.0342820249498,0.0172442048788,0.0174249168485,-4.76980209351,-0.142619147897,-0.656379699707,-0.00684454059228,-1.17710494995,-0.0247655827552,-9.25486755371,-0.438964009285,33.44433212279,95.898284912093,47.52986907955,21.08343124389,1768
1.64950494725645E+018,40,1.64950494725645E+018,r1000913c5/base_footprint,0,1.64950494725645E+018,v/m1vw10zy74w/map,-11.6184241573,-1.52849615045,0,0,0,-0.722138651519,0.69174834151,0,67.0551071167,36.8512115479,46.8558578491,96.6286392212,48.7201004028,48.7201004028,67.0551071167,67.0551071167,27.0482559204,0.849783718586,0,0.000125975580886,0.0251992661506,0.0176659524441,0.0177919287235,-3.52443313599,-0.105753786862,-0.719169616699,-0.0074984212406,-1.19800949097,-0.0252095274627,-5.54863166809,-0.258080393076,33.32677841191,95.909469604501,47.52209091183,21.49962425231,1776
1.64950494735693E+018,41,1.64950494735693E+018,r1000913c5/base_footprint,0,1.64950494735693E+018,v/m1vw10zy74w/map,-11.6166201609,-1.43509757194,0,0,0,-0.72165815938,0.692249594439,0,66.987197876,36.786655426,47.3591003418,96.6983261108,48.6630134583,48.6630134583,66.987197876,66.987197876,27.9049091339,0.820407032967,0,0.000157431917614,0.0195930413902,0.0179866608232,0.0181440934539,-3.74533843994,-0.113353185356,-0.793632507324,-0.00827522110194,-1.16679763794,-0.0245661176741,-6.09921073914,-0.279707193375,33.04131698606,95.904693603476,47.49621582036,21.80569839476,1764
1.64950494745666E+018,42,1.64950494745666E+018,r1000913c5/base_footprint,0,1.64950494745666E+018,v/m1vw10zy74w/map,-11.6166201609,-1.43509757194,0,0,0,-0.72165815938,0.692249594439,0,67.0662155151,34.5422363281,47.9871635437,96.6983261108,48.6343078613,48.6343078613,67.0662155151,67.0662155151,26.1725788116,0.833935022354,0,0.000171449559275,0.0149629674852,0.0165531337261,0.0163816828281,-1.50091934204,-0.0454255305231,-0.793632507324,-0.00827522110194,-1.13809204102,-0.0239617414773,-4.36688041687,-0.200263261795,33.04131698606,95.904693603476,47.49621582028,21.80569839473,1764
1.64950494755647E+018,43,1.64950494755647E+018,r1000913c5/base_footprint,0,1.64950494755647E+018,v/m1vw10zy74w/map,-11.6166201609,-1.43509757194,0,0,0,-0.72165815938,0.692249594439,0,66.9646377563,38.080493927,52.4962768555,96.6983261108,48.5392990112,48.5392990112,66.9646377563,66.9646377563,26.9749736786,0.75738543272,0,0.000105275263195,0.00984303466976,0.0160313080996,0.0159260332584,-5.03917694092,-0.152511388063,-0.793632507324,-0.00827522110194,-1.04308319092,-0.0219613965601,-5.16927528381,-0.237060755491,33.04131698608,95.904693603476,47.49621582028,21.80569839479,1764
1.64950494765647E+018,44,1.64950494765647E+018,r1000913c5/base_footprint,0,1.64950494765647E+018,v/m1vw10zy74w/map,-11.614049111,-1.33546395289,0,0,0,-0.720473653858,0.693482309866,0,66.5588912964,36.6515846252,51.8463973999,96.6036529541,48.3707542419,48.3707542419,66.5588912964,66.5588912964,32.1173095703,0.692209780216,0,5.50058284716E-05,0.001296382281,0.0159810390323,0.0159260332584,-1.72261428833,-0.0493176355958,-1.10865783691,-0.0116095906124,-0.94930267334,-0.0200184229761,-3.6658782959,-0.128846883774,34.92897033687,95.49499511719,47.42145156856,28.4514312744,986
1.6495049477564E+018,45,1.6495049477564E+018,r1000913c5/base_footprint,0,1.6495049477564E+018,v/m1vw10zy74w/map,-11.6120905595,-1.23366231737,0,0,0,-0.719059238339,0.694948783551,0,66.7381286621,34.0463447571,54.1548576355,96.5646743774,48.2700424194,48.2700424194,66.7381286621,66.7381286621,27.6630268097,0.709524810314,0,0.000198883222765,0.00653887959197,0.0162330530584,0.0160341691226,-0.329616546631,-0.00977605395019,-1.09896087646,-0.011511576362,-1.00761413574,-0.021319558844,1.26757621765,0.0438143722713,33.716728210469,95.46571350094,47.26242828366,28.93060302735,1014
1.64950494785631E+018,46,1.64950494785631E+018,r1000913c5/base_footprint,0,1.64950494785631E+018,v/m1vw10zy74w/map,-11.6120905595,-1.23366231737,0,0,0,-0.719059238339,0.694948783551,0,66.5413742065,37.195930481,55.3268928528,96.5646743774,48.2362709045,48.2362709045,66.5413742065,66.5413742065,30.8398094177,0.620004653931,0,0.000312118529109,0.0174671970308,0.0160843413323,0.0157722234726,-3.47920227051,-0.103189200163,-1.09896087646,-0.011511576362,-0.97384262085,-0.0206050053239,-1.90920639038,-0.0659926235676,33.71672821049,95.46571350094,47.26242828365,28.93060302732,1014
1.64950494795626E+018,47,1.64950494795626E+018,r1000913c5/base_footprint,0,1.64950494795626E+018,v/m1vw10zy74w/map,-11.6120905595,-1.23366231737,0,0,0,-0.719059238339,0.694948783551,0,66.4152450562,33.2748031616,56.4984092712,96.5646743774,48.1275672913,48.1275672913,66.4152450562,66.4152450562,31.9361133575,0.582310438156,0,0.0003776413796,0.0582128800452,0.0158875305206,0.0155098885298,0.441925048828,0.0131069971249,-1.09896087646,-0.011511576362,-0.865139007568,-0.0183050055057,-3.0055103302,-0.103886887431,33.716728210428,95.46571350094,47.262428283732,28.9306030273,1014
1.64950494805818E+018,48,1.64950494805818E+018,r1000913c5/base_footprint,0,1.64950494805818E+018,v/m1vw10zy74w/map,-11.6046663916,-1.11781538445,0,0,0,-0.718474404313,0.695553398631,0,66.3122634888,35.9086914062,57.6693649292,96.400428772,47.9924240112,47.9924240112,66.3122634888,66.3122634888,31.7390174866,0.545221686363,0,0.000378854456358,0.0706098154187,0.0158887431026,0.0155098885298,-6.46075439453,-0.219395816326,-1.33168029785,-0.0140075506642,-0.500499725342,-0.0105386283249,-1.0715007782,-0.0349392741919,29.44793701167,95.06874847415,47.491924285858,30.6675167084,1802
1.64950494815713E+018,49,1.64950494815713E+018,r1000913c5/base_footprint,0,1.64950494815713E+018,v/m1vw10zy74w/map,-11.6067510261,-1.1192664157,0,0,0,-0.718418974911,0.695610650068,0,66.5006484985,36.3113670349,55.2714271545,96.6334152222,47.9240074158,47.9240074158,66.5006484985,66.5006484985,28.4478492737,0.52230066061,0,0.000351139897248,0.0941579863429,0.0158610288054,0.0155098885298,-6.86343002319,-0.233069971204,-1.56466674805,-0.0164582654834,-0.432083129883,-0.00909803342074,2.21966743469,0.0723784565926,29.44793701171,95.06874847415,47.491924285917,30.66751670839,1802
1.64950494825642E+018,50,1.64950494825642E+018,r1000913c5/base_footprint,0,1.64950494825643E+018,v/m1vw10zy74w/map,-11.6067510261,-1.1192664157,0,0,0,-0.718418974911,0.695610650068,0,66.2454605103,30.1194152832,51.9270439148,96.6334152222,47.8699531555,47.8699531555,66.2454605103,66.2454605103,32.4575462341,0.472109287977,0,0.000378332537366,0.135240212083,0.00881118420511,0.00843285210431,-0.671478271484,-0.0228022169322,-1.56466674805,-0.0164582654834,-0.378028869629,-0.0079598557204,-1.79002952576,-0.058368910104,29.447937011716,95.06874847415,47.491924285871,30.66751670834,1802
1.64950494835642E+018,51,1.64950494835642E+018,r1000913c5/base_footprint,0,1.64950494835642E+018,v/m1vw10zy74w/map,-11.6033580474,-1.01599696683,0,0,0,-0.720466145365,0.693490110516,0,65.9571990967,32.8976020813,48.7183151245,96.3189468384,47.8362922668,47.8362922668,65.9571990967,65.9571990967,36.1506004333,0.531825661659,0,0.00041991902981,0.150755926967,0.00659277290106,0.006172853522,-5.23288726807,-0.189153850079,-1.33528900146,-0.0140580916777,-0.378952026367,-0.00798510853201,-4.81011962891,-0.153479442,27.66471481323,94.98365783694,47.457340240433,31.34048080439,2065
1.64950494845652E+018,52,1.64950494845652E+018,r1000913c5/base_footprint,0,1.64950494845652E+018,v/m1vw10zy74w/map,-11.6033580474,-1.01599696683,0,0,0,-0.720466145365,0.693490110516,0,65.9899978638,34.1527671814,48.5982093811,96.3189468384,47.7623634338,47.7623634338,65.9899978638,65.9899978638,34.7617607117,0.503899276257,0,0.000800050096586,0.154420465231,3.03077213175E-05,0.000830357836094,-6.48805236816,-0.234524458647,-1.33528900146,-0.0140580916777,-0.305023193359,-0.00642731320113,-3.42127990723,-0.109164886177,27.66471481324,94.98365783694,47.457340240441,31.34048080447,2065
1.64950494865647E+018,53,1.64950494865647E+018,r1000913c5/base_footprint,0,1.64950494865647E+018,v/m1vw10zy74w/map,-11.599448464,-0.898172286562,0,0,0,-0.720553415209,0.693399434548,0,66.1591644287,30.8486747742,48.4977836609,96.0923309326,47.6639900208,47.6639900208,66.1591644287,66.1591644287,29.8385753632,0.447860151529,0,0.000575757061597,0.153263911605,0.0014238973381,0.00199965434149,-4.42466545105,-0.167448684573,-1.12038421631,-0.0117970015854,-0.127815246582,-0.00268879951909,1.77095413208,0.056025955826,26.42400932315,94.97194671629,47.536174774218,31.60952949528,2176
1.6495049487563E+018,54,1.6495049487563E+018,r1000913c5/base_footprint,0,1.6495049487563E+018,v/m1vw10zy74w/map,-11.599448464,-0.898172286562,0,0,0,-0.720553415209,0.693399434548,0,65.9085769653,30.4812831879,48.5039710999,96.0923309326,47.5066833496,47.5066833496,65.9085769653,65.9085769653,32.650226593,0.287699818611,0,0.000595714140218,0.152487277985,0.00177817326039,0.00237388745882,-4.05727386475,-0.153544977307,-1.12038421631,-0.0117970015854,0.0294914245605,0.000620399601758,-1.04069709778,-0.0329235233366,26.42400932315,94.97194671629,47.5361747741605,31.60952949522,2176
1.6495049488564E+018,55,1.6495049488564E+018,r1000913c5/base_footprint,0,1.64950494885641E+018,v/m1vw10zy74w/map,-11.599448464,-0.898172286562,0,0,0,-0.720553415209,0.693399434548,0,65.7678985596,34.5422363281,48.5101585388,96.0923309326,47.3342094421,47.3342094421,65.7678985596,65.7678985596,33.3196868896,0.452940553427,0,0.000718286028132,0.151281148195,0.00205801683478,0.00277630286291,-8.118227005,-0.307229191065,-1.12038421631,-0.0117970015854,0.201965332031,0.00424866611138,-1.71015739441,-0.0541025884449,26.4240093231,94.97194671629,47.536174774131,31.60952949519,2176
1.64950494896469E+018,56,1.64950494896469E+018,r1000913c5/base_footprint,0,1.64950494896469E+018,v/m1vw10zy74w/map,-11.599448464,-0.898172286562,0,0,0,-0.720553415209,0.693399434548,0,65.6805648804,31.5188770294,48.57371521,96.0923309326,47.178401947,47.178401947,65.6805648804,65.6805648804,33.2090110779,0.227192863822,0,0.000937246892136,0.150669887662,0.00422597490251,0.00516322208568,-5.0948677063,-0.192812055349,-1.12038421631,-0.0117970015854,0.357772827148,0.00752632785589,-1.59948158264,-0.0506012476981,26.4240093231,94.97194671629,47.536174774148,31.60952949526,2176
1.6495049491566E+018,57,1.6495049491566E+018,r1000913c5/base_footprint,0,1.6495049491566E+018,v/m1vw10zy74w/map,-11.599448464,-0.898172286562,0,0,0,-0.720553415209,0.693399434548,0,65.4977645874,29.2348518372,48.5774383545,96.0923309326,47.0252227783,47.0252227783,65.4977645874,65.4977645874,34.8450164795,0.414671927691,0,0.0012869045604,0.150457158685,0.00562157202512,0.00690847681835,-2.81084251404,-0.106374569237,-1.12038421631,-0.0117970015854,0.51095199585,0.0107486983761,-3.23548698425,-0.102357961237,26.42400932316,94.97194671629,47.53617477415,31.60952949525,2176
1.6495049492564E+018,58,1.6495049492564E+018,r1000913c5/base_footprint,0,1.6495049492564E+018,v/m1vw10zy74w/map,-11.5935213061,-0.781958110125,0,0,0,-0.718928797101,0.695083724956,0,65.4369354248,34.5422363281,48.5751037598,96.1316452026,46.9159317017,46.9159317017,65.4369354248,65.4369354248,34.9012069702,0.365102142096,0,0.00138052762486,0.150496944785,0.005779533647,0.00716006150469,-8.64672470093,-0.333908230066,-1.18463134766,-0.0124767627567,0.677421569824,0.014233533293,-3.08754920959,-0.0970510616899,25.89551162717,94.94701385494,47.593353271524,31.81365776061,2099
1.64950494935625E+018,59,1.64950494935625E+018,r1000913c5/base_footprint,0,1.64950494935625E+018,v/m1vw10zy74w/map,-11.5935213061,-0.781958110125,0,0,0,-0.718928797101,0.695083724956,0,65.046836853,33.1550788879,48.6139335632,96.1316452026,46.7788848877,46.7788848877,65.046836853,65.046836853,40.442855835,0.13851095736,0,0.00146550463978,0.150665834546,0.00627797562629,0.00774348014966,-7.25956726074,-0.280340760946,-1.18463134766,-0.0124767627567,0.814468383789,0.0171130690724,-8.62919807434,-0.271241933107,25.89551162716,94.94701385494,47.593353271489,31.81365776066,2099
1.64950494945632E+018,60,1.64950494945632E+018,r1000913c5/base_footprint,0,1.64950494945632E+018,v/m1vw10zy74w/map,-11.5935213061,-0.781958110125,0,0,0,-0.718928797101,0.695083724956,0,65.5072021484,28.2006912231,48.6749153137,96.1316452026,46.6811447144,46.6811447144,65.5072021484,65.5072021484,31.1006164551,0.355706334114,0,0.00128510745708,0.151047199965,0.00781748909503,0.00910259690136,-2.30517959595,-0.0890185013413,-1.18463134766,-0.0124767627567,0.912208557129,0.0191667210311,0.713041305542,0.0224130563438,25.89551162715,94.94701385494,47.593353271529,31.813657760642,2099
1.64950494955677E+018,61,1.64950494955677E+018,r1000913c5/base_footprint,0,1.64950494955677E+018,v/m1vw10zy74w/map,-11.5935213061,-0.781958110125,0,0,0,-0.718928797101,0.695083724956,0,65.1306838989,29.5835113525,54.5751914978,96.1316452026,46.5655822754,46.5655822754,65.1306838989,65.1306838989,36.6299591064,0.241361454129,0,0.0010549222352,0.151262924075,0.00804767478257,0.00910259690136,-3.68799972534,-0.14241848886,-1.18463134766,-0.0124767627567,1.02777099609,0.0215948428959,-4.81630134583,-0.151390999556,25.89551162716,94.94701385494,47.59335327149,31.81365776057,2099
1.64950494975716E+018,62,1.64950494975716E+018,r1000913c5/base_footprint,0,1.64950494975717E+018,v/m1vw10zy74w/map,-11.5935213061,-0.781958110125,0,0,0,-0.718928797101,0.695083724956,0,65.1942062378,30.9462909698,56.9369544983,96.1316452026,46.4416351318,46.4416351318,65.1942062378,65.1942062378,34.1478729248,0.38082459569,0,0.00114299624693,0.151668906212,0.00879238173366,0.009935378097,-5.05077934265,-0.195044592023,-1.18463134766,-0.0124767627567,1.15171813965,0.0241991374642,-2.33421516418,-0.0733714774251,25.89551162715,94.94701385494,47.59335327145,31.81365776062,2099
1.64950494995657E+018,63,1.64950494995657E+018,r1000913c5/base_footprint,0,1.64950494995657E+018,v/m1vw10zy74w/map,-11.5888302991,-0.669655852052,0,0,0,-0.722236937763,0.691645722702,0,65.0287628174,28.9039363861,58.6347236633,96.0125961304,46.3571815491,46.3571815491,65.0287628174,65.0287628174,35.78515625,0.354914426804,0,0.0011677891016,0.151917159557,0.00667583290488,0.00784362200648,-3.66524887085,-0.14522343874,-1.10742950439,-0.0116688013077,1.25573730469,0.0263738781214,-3.74898147583,-0.117023378611,25.23868751525,94.90516662601,47.61291885379,32.03617477417,1982
1.64950495005649E+018,64,1.64950495005649E+018,r1000913c5/base_footprint,0,1.64950495005649E+018,v/m1vw10zy74w/map,-11.5888302991,-0.669655852052,0,0,0,-0.722236937763,0.691645722702,0,65.0873336792,30.9462909698,57.6299171448,96.0125961304,46.273639679,46.273639679,65.0873336792,65.0873336792,33.8286170959,0.43489998579,0,0.00116938562132,0.1519331038,0.00632861768827,0.00749800354242,-5.70760345459,-0.226145014167,-1.10742950439,-0.0116688013077,1.3392791748,0.0281284824014,-1.79244232178,-0.0559505708516,25.23868751521,94.90516662601,47.6129188538,32.03617477412,1982
1.64950495015655E+018,65,1.64950495015655E+018,r1000913c5/base_footprint,0,1.64950495015655E+018,v/m1vw10zy74w/map,-11.5888302991,-0.669655852052,0,0,0,-0.722236937763,0.691645722702,0,65.0151062012,29.2412624359,56.4055099487,96.0125961304,46.1441001892,46.1441001892,65.0151062012,65.0151062012,33.7297058105,0.363759726286,0,0.00123033777345,0.15177360177,0.00626766541973,0.00749800354242,-4.00257492065,-0.15858887136,-1.10742950439,-0.0116688013077,1.46881866455,0.0308491624892,-1.69353103638,-0.0528630837798,25.23868751525,94.90516662601,47.61291885375,32.03617477412,1982
1.64950495025656E+018,66,1.64950495025656E+018,r1000913c5/base_footprint,0,1.64950495025656E+018,v/m1vw10zy74w/map,-11.5859746652,-0.555359452524,0,0,0,-0.721592227267,0.692318320967,0,64.8951416016,28.3887462616,55.0102462769,95.8154067993,45.9869384766,45.9869384766,64.8951416016,64.8951416016,33.4818382263,0.400826215744,0,0.000961486191954,0.151496887207,0.00586673198268,0.00682821823284,-3.79758262634,-0.154428750277,-0.95231628418,-0.0100388498977,1.64838409424,0.0346042402089,-1.24702835083,-0.0386857688427,24.59116363526,94.86309051512,47.63532257084,32.23480987547,1788
1.64950495035634E+018,67,1.64950495035634E+018,r1000913c5/base_footprint,0,1.64950495035634E+018,v/m1vw10zy74w/map,-11.5859746652,-0.555359452524,0,0,0,-0.721592227267,0.692318320967,0,64.8704528809,30.596698761,50.3812675476,95.8154067993,45.9501152039,45.9501152039,64.8704528809,64.8704528809,33.5286102295,0.300587207079,0,0.000654635659885,0.151405125856,0.00456786714494,0.0052225026302,-6.00553512573,-0.244215160608,-0.95231628418,-0.0100388498977,1.68520736694,0.0353772640228,-1.293800354,-0.0401367470622,24.59116363527,94.86309051512,47.63532257084,32.2348098755,1788
1.64950495135684E+018,68,1.64950495135684E+018,r1000913c5/base_footprint,0,1.64950495135684E+018,v/m1vw10zy74w/map,-11.5806896584,-0.447983220943,0,0,0,-0.72195271499,0.691942394509,0,64.8015670776,28.057554245,48.4848556519,95.4443893433,45.8378372192,45.8378372192,64.8015670776,64.8015670776,32.2201728821,0.217339843512,0,0.00136791588739,0.214715778828,0.026727443561,0.0253595281392,-3.635389328,-0.148856148124,-0.586921691895,-0.00618740636855,1.76064300537,0.036989480257,0.00720596313477,0.000223597555305,24.422164917,94.857467651405,47.59848022457,32.2273788452348,1668
1.64950495145649E+018,69,1.64950495145649E+018,r1000913c5/base_footprint,0,1.64950495145649E+018,v/m1vw10zy74w/map,-11.5806896584,-0.447983220943,0,0,0,-0.72195271499,0.691942394509,0,64.8108215332,24.8120307922,48.4865646362,95.4443893433,45.8126983643,45.8126983643,64.8108215332,64.8108215332,31.7821655273,0.240899547935,0,0.0024309779983,0.213869839907,0.0419108606875,0.039479881525,-0.389865875244,-0.015963608399,-0.586921691895,-0.00618740636855,1.78578186035,0.0375176221132,0.445213317871,0.0138147538528,24.422164916956,94.857467651405,47.59848022465,32.227378845171,1668
1.64950495155661E+018,70,1.64950495155661E+018,r1000913c5/base_footprint,0,1.64950495155661E+018,v/m1vw10zy74w/map,-11.5790904019,-0.417304596376,0,0,0,-0.683160706366,0.730268066725,0,64.3241577148,15.6010227203,48.5235671997,94.6917495728,45.5560684204,45.5560684204,64.3241577148,64.3241577148,35.060962677,0.254373699427,0,0.00312345800921,0.209646493196,0.0546210706234,0.0514976121485,8.82114219666,0.361194103956,0.165718078613,0.00174702191725,2.0424118042,0.0429091826081,-2.83358383179,-0.0879247412086,24.42216491696,94.857467651413,47.5984802246,32.22737884521,1668
1.6495049516565E+018,71,1.6495049516565E+018,r1000913c5/base_footprint,0,1.6495049516565E+018,v/m1vw10zy74w/map,-11.5790904019,-0.417304596376,0,0,0,-0.683160706366,0.730268066725,0,64.3896102905,21.5686283112,48.4877891541,94.6917495728,45.495388031,45.495388031,64.3896102905,64.3896102905,33.2275466919,0.313781768084,0,0.00336113921367,0.204907253385,0.102578006685,0.099216863513,2.85353660583,0.116842083633,0.165718078613,0.00174702191725,2.1030921936,0.0441840216517,-1.00016784668,-0.0310347247869,24.42216491703,94.857467651413,47.5984802246,32.22737884522,1668
1.6495049517565E+018,72,1.6495049517565E+018,r1000913c5/base_footprint,0,1.6495049517565E+018,v/m1vw10zy74w/map,-11.5709496007,-0.473179397343,0,0,0,-0.641046819445,0.767501775425,0,63.9452857971,20.4152240753,48.5027236938,94.7944641113,45.205406189,45.205406189,63.9452857971,63.9452857971,38.4633483887,0.361421138048,0,0.00401255208999,0.202775031328,0.116769626737,0.112757079303,4.09844589233,0.167190223932,0.0784149169922,0.000826526142191,2.40592193604,0.050532553345,-6.25002670288,-0.194019943476,24.51366996763,94.8728790282922,47.61132812504,32.21332168582,1742
1.64950495185637E+018,73,1.64950495185637E+018,r1000913c5/base_footprint,0,1.64950495185637E+018,v/m1vw10zy74w/map,-11.5569693607,-0.524452078335,0,0,0,-0.591526786685,0.806285346906,0,63.7924194336,21.2802772522,48.5060920715,94.8356552124,44.8841323853,44.8841323853,63.7924194336,63.7924194336,37.8934402466,0.409943789244,0,0.00528935343027,0.195232897997,0.142488017678,0.137198656797,3.31518173218,0.134788364172,0.04931640625,0.000519749417435,2.7308921814,0.0573535822332,-5.66060256958,-0.175616011024,24.59545898438,94.88497161865,47.6150245667,32.23283767702,1801
1.64950495195627E+018,74,1.64950495195627E+018,r1000913c5/base_footprint,0,1.64950495195627E+018,v/m1vw10zy74w/map,-11.5420131505,-0.559786663788,0,0,0,-0.542940774611,0.839770989774,0,63.5221977234,21.5686283112,48.4553985596,95.0562210083,44.6028633118,44.6028633118,63.5221977234,63.5221977234,40.5137634277,0.259938299656,0,0.00578593416139,0.192244976759,0.149526685476,0.1437407583,3.21945953369,0.129879295826,-0.152313232422,-0.0016049206024,3.01892089844,0.0633936971426,-8.28775024414,-0.257175773382,24.78808784489,94.903907775878,47.62178421024,32.22601318356,1868
1.64950495205639E+018,75,1.64950495205639E+018,r1000913c5/base_footprint,0,1.64950495205639E+018,v/m1vw10zy74w/map,-11.5268660899,-0.582081289092,0,0,0,-0.496284553901,0.868159917043,0,63.9144210815,23.8187084198,48.2481231689,95.3516693115,44.39585495,44.39585495,63.9144210815,63.9144210815,32.2816467285,0.575791716576,0,0.00664398306981,0.188195556402,0.15928478539,0.152640789747,0.962800979614,0.0388515889645,-0.449317932129,-0.00473452918231,3.25610733032,0.0683310255408,0.0195770263672,0.000606076908298,24.781509399414,94.902351379371,47.65196228032,32.3012237548672,1900
1.6495049521566E+018,76,1.6495049521566E+018,r1000913c5/base_footprint,0,1.6495049521566E+018,v/m1vw10zy74w/map,-11.4881937024,-0.62146579126,0,0,0,-0.410866588323,0.911695479094,0,63.6530036926,21.9066944122,48.1330909729,95.400970459,44.3623046875,44.3623046875,63.6530036926,63.6530036926,36.802318573,0.486266344786,0,0.00790820363909,0.179812908173,0.13686196506,0.128953754902,3.03247261047,0.121594786644,-0.483932495117,-0.0050984788686,3.29485321045,0.0691365897655,-4.57975769043,-0.142128914595,24.93916702267,94.917037963883,47.65715789795,32.22256088257,1954
1.64950495225865E+018,77,1.64950495225865E+018,r1000913c5/base_footprint,0,1.64950495225865E+018,v/m1vw10zy74w/map,-11.4881937024,-0.62146579126,0,0,0,-0.410866588323,0.911695479094,0,64.0597686768,12.9603061676,48.02942276,95.400970459,44.0439605713,44.0439605713,64.0597686768,64.0597686768,26.0423755646,0.489537447691,0,0.00779740093276,0.176650196314,0.109265983105,0.101468577981,11.9788608551,0.48032322526,-0.483932495117,-0.0050984788686,3.61319732666,0.0758164674044,6.18018531799,0.191796839237,24.9391670227,94.917037963883,47.65715789796,32.22256088259,1954
1.64950495235608E+018,78,1.64950495235608E+018,r1000913c5/base_footprint,0,1.64950495235608E+018,v/m1vw10zy74w/map,-11.457143302,-0.650379688324,0,0,0,-0.347856725304,0.937547704739,0,63.4676818848,23.5796890259,47.9621086121,95.3997268677,43.9728965759,43.9728965759,63.4676818848,63.4676818848,35.9280204773,0.451767295599,0,0.00776922982186,0.175113409758,0.095227278769,0.0874580442905,1.20602226257,0.048657964915,-0.511833190918,-0.00539408298209,3.65567016602,0.0767537280917,-3.62898635864,-0.112355880439,24.78571128847,94.887893676782,47.62856674192,32.29903411866,1972
1.64950495245616E+018,79,1.64950495245616E+018,r1000913c5/base_footprint,0,1.64950495245616E+018,v/m1vw10zy74w/map,-11.4219626254,-0.677014029362,0,0,0,-0.287313271551,0.957836668744,0,63.0201530457,22.2168197632,47.83852005,95.6335601807,43.7367630005,43.7367630005,63.0201530457,63.0201530457,42.2750816345,0.378856897354,0,0.00659629981965,0.167023465037,0.025935171172,0.0193388722837,2.71636772156,0.108945868909,-0.726112365723,-0.00765074184164,3.9444732666,0.082725904882,-9.96634674072,-0.308472216129,24.93318748476,94.907447814977,47.6812362671,32.30873489378,2024
1.64950495255625E+018,80,1.64950495255625E+018,r1000913c5/base_footprint,0,1.64950495255625E+018,v/m1vw10zy74w/map,-11.3844358749,-0.699043613459,0,0,0,-0.243227888432,0.969969171824,0,63.0470504761,18.9971065521,47.5996437073,95.7129898071,43.7589874268,43.7589874268,63.0470504761,63.0470504761,42.3169021606,0.595982193947,0,0.00573760643601,0.143289938569,0.000715104688425,0.00502250157297,5.87197113037,0.236115351319,-0.807678222656,-0.00851035863161,3.91164016724,0.0820555612445,-9.94757461548,-0.307314842939,24.86907768247,94.905311584444,47.67062759404,32.36932754512,2024
1.64950495265629E+018,81,1.64950495265629E+018,r1000913c5/base_footprint,0,1.64950495265629E+018,v/m1vw10zy74w/map,-11.3152908963,-0.730032006415,0,0,0,-0.176256367066,0.984344296,0,63.1305923462,22.5490188599,47.0580291748,95.6051330566,43.8180885315,43.8180885315,63.1305923462,63.1305923462,41.063205719,0.51949429512,0,0.00511106709018,0.103255942464,0.0122729698196,0.0173840373755,2.41038703918,0.0965722948313,-0.708686828613,-0.007468001917,3.87372589111,0.0812241286039,-8.63819122314,-0.266405165195,24.95940589908,94.896446227987,47.69181442261,32.42501449586,2063
1.64950495275668E+018,82,1.64950495275668E+018,r1000913c5/base_footprint,0,1.64950495275668E+018,v/m1vw10zy74w/map,-11.2312215064,-0.756132861903,0,0,0,-0.113817116334,0.993501718181,0,63.634677887,18.8640975952,46.4606132507,95.8834152222,44.3914527893,44.3914527893,63.634677887,63.634677887,39.1837615967,0.478643715382,0,0.00478005874902,0.0631874799728,0.0385632179677,0.0433432757854,5.91615486145,0.238744735718,-1.01222229004,-0.0106694381684,3.37544631958,0.0706649646163,-6.52352523804,-0.199739068747,24.78025245665,94.87119293216,47.76689910888,32.66023635866,1994
1.64950495295702E+018,83,1.64950495295702E+018,r1000913c5/base_footprint,0,1.64950495295702E+018,v/m1vw10zy74w/map,-11.2312215064,-0.756132861903,0,0,0,-0.113817116334,0.993501718181,0,64.4167861938,16.112531662,45.4638519287,95.8834152222,45.0105705261,45.0105705261,64.4167861938,64.4167861938,31.7922401428,0.418019831181,0,0.00462033133954,0.0519482679665,0.0542837195098,0.0589040517807,8.66772079468,0.34978339076,-1.01222229004,-0.0106694381684,2.75632858276,0.0577037371695,0.86799621582,0.0265765450895,24.78025245668,94.87119293216,47.76689910886,32.66023635862,1994
1.64950495305638E+018,84,1.64950495305638E+018,r1000913c5/base_footprint,0,1.64950495305638E+018,v/m1vw10zy74w/map,-11.2312215064,-0.756132861903,0,0,0,-0.113817116334,0.993501718181,0,65.1163482666,16.7100467682,44.4239387512,95.8834152222,45.5590705872,45.5590705872,65.1163482666,65.1163482666,25.123966217,0.471413135529,0,0.00459921732545,0.0480712801218,0.062647536397,0.0672467574477,8.07020568848,0.325670838356,-1.01222229004,-0.0106694381684,2.20782852173,0.0462208874524,7.5362701416,0.230747565627,24.78025245668,94.87119293216,47.76689910893,32.6602363586,1994
1.64950495315644E+018,85,1.64950495315644E+018,r1000913c5/base_footprint,0,1.64950495315644E+018,v/m1vw10zy74w/map,-11.1277780835,-0.776022077497,0,0,0,-0.0504260551262,0.998727797232,0,65.2548065186,15.8215007782,43.3267402649,96.2292480469,46.1057472229,46.1057472229,65.2548065186,65.2548065186,29.7808361053,0.368471562862,0,0.00390478852205,0.0419002771378,0.0837396904826,0.0876444801688,9.26206970215,0.369248449802,-1.39627838135,-0.0147235542536,2.34218597412,0.0483443923295,3.43149757385,0.103319980204,25.08357048035,94.83296966555,48.44793319702,33.21233367915,1771
1.64950495325638E+018,86,1.64950495325638E+018,r1000913c5/base_footprint,0,1.64950495325638E+018,v/m1vw10zy74w/map,-11.010158189,-0.777335854381,0,0,0,-0.00395237028753,0.999992189354,0,65.8243789673,17.5544242859,42.4360198975,96.155456543,46.4873008728,46.4873008728,65.8243789673,65.8243789673,23.3836231232,0.203637093306,0,0.00299794180319,0.0373713336885,0.105594940484,0.108592882752,7.90178108215,0.310406863689,-1.3927230835,-0.0146969491616,3.05484008789,0.0616614483297,10.4774532318,0.309424698353,25.45620536805,94.7627334595,49.54214096069,33.861076355,1126
1.64950495335638E+018,87,1.64950495335638E+018,r1000913c5/base_footprint,0,1.64950495335638E+018,v/m1vw10zy74w/map,-10.8868759536,-0.765615803021,0,0,0,0.0200834464855,0.999798307249,0,66.2388153076,15.8371038437,41.8142471313,96.4756851196,46.8731842041,46.8731842041,66.2388153076,66.2388153076,21.2441806793,0.205866575241,0,0.00273428903893,0.0354057140648,0.114467397332,0.117201685905,9.7477273941,0.380996346474,-1.80109405518,-0.0190240498632,3.07597351074,0.0615820884705,13.0491390228,0.380515486002,25.5848312378,94.67459106442,49.94915771484,34.2933197021,959
1.64950495345654E+018,88,1.64950495345654E+018,r1000913c5/base_footprint,0,1.64950495345654E+018,v/m1vw10zy74w/map,-10.7856000434,-0.761572411814,0,0,0,0.0293179352595,0.999570136945,0,65.6600875854,17.1122989655,41.4968109131,96.5568313599,47.4707145691,47.4707145691,65.6600875854,65.6600875854,38.4067802429,0.289095580578,0,0.00167106231675,0.029810603708,0.13524992764,0.13692098856,8.4938659668,0.331711769104,-1.90245819092,-0.0200989991426,2.68169403076,0.053470890969,-4.00977706909,-0.116573445499,25.6061649323,94.65437316898,50.15240859986,34.39700317381,907
1.64950495355639E+018,89,1.64950495355639E+018,r1000913c5/base_footprint,0,1.64950495355639E+018,v/m1vw10zy74w/map,-10.6542608476,-0.746270236576,0,0,0,0.0349166508679,0.999390227835,0,66.0233078003,21.8679847717,41.5976715088,96.650970459,48.015247345,48.015247345,66.0233078003,66.0233078003,38.0886726379,0.671886324883,0,0.00141945842188,0.0272509325296,0.140469864011,0.141889318824,4.1005191803,0.157903552055,-1.89051055908,-0.0199504159391,2.17927932739,0.0434166714549,-4.24678039551,-0.125488862395,25.968503952,94.76045989992,50.19452667239,33.84189224239,961
1.64950495365622E+018,90,1.64950495365622E+018,r1000913c5/base_footprint,0,1.64950495365622E+018,v/m1vw10zy74w/map,-10.653366952,-0.746668226172,0,0,0,0.0368121715389,0.999322202308,0,66.592628479,24.5621910095,41.9176940918,96.5675735474,48.608379364,48.608379364,66.592628479,66.592628479,33.9464950562,0.772426962852,0,0.000536281615496,0.0184333957732,0.152187868953,0.152724161744,1.4063129425,0.0541545599699,-1.80711364746,-0.0190703347325,1.58614730835,0.0316000059247,-0.104602813721,-0.00309092691168,25.968503952,94.76045989994,50.19452667235,33.841892242479,961
1.6495049537568E+018,91,1.6495049537568E+018,r1000913c5/base_footprint,0,1.6495049537568E+018,v/m1vw10zy74w/map,-10.5376936444,-0.735900534784,0,0,0,0.03470284746,0.999397674791,0,66.9442443848,27.1290607452,42.3317565918,96.4128265381,49.0326156616,49.0326156616,66.9442443848,66.9442443848,31.6420192719,0.577749252319,0,0.000462703639641,0.00911966804415,0.15949395299,0.159956663847,-1.38980293274,-0.0539954565465,-1.54531097412,-0.0162891484797,0.78343963623,0.0157266501337,1.57698631287,0.0474724136293,25.73925781246,94.86751556398,49.81605529783,33.21900558477,1088
1.6495049538565E+018,92,1.6495049538565E+018,r1000913c5/base_footprint,0,1.6495049538565E+018,v/m1vw10zy74w/map,-10.2921547195,-0.712797955848,0,0,0,0.0225001431181,0.999746839735,0,66.7487716675,27.1290607452,42.884223938,95.9364929199,49.2771148682,49.2771148682,66.7487716675,66.7487716675,36.0863075256,0.69438546896,0,0.000675043207593,0.00152079074178,0.171680152416,0.172355204821,-1.47792625427,-0.0576164089143,-0.965698242188,-0.0101683707908,0.227668762207,0.0045989244245,-3.43258666992,-0.105120845139,25.65113449093,94.970794677712,49.504783630407,32.65372085568,1269
1.64950495395652E+018,93,1.64950495395652E+018,r1000913c5/base_footprint,0,1.64950495395652E+018,v/m1vw10zy74w/map,-10.2731777011,-0.719364102308,0,0,0,0.0215424923514,0.999767933584,0,67.5310134888,23.8754329681,43.3921012878,96.0131759644,49.4736671448,49.4736671448,67.5310134888,67.5310134888,24.4048576355,0.781071782112,0,0.00037069740938,0.00807695090771,0.177504390478,0.177875086665,1.11957740784,0.0447920374572,-1.1559753418,-0.0121864797547,-0.574348449707,-0.011745531112,8.16549682617,0.250703334808,24.99501037594,94.8572006226,48.899318695093,32.57035446167,1182
1.64950495405671E+018,94,1.64950495405671E+018,r1000913c5/base_footprint,0,1.64950495405671E+018,v/m1vw10zy74w/map,-10.1673589459,-0.71454058058,0,0,0,0.0145709581614,0.999893837954,0,67.2632827759,22.7392444611,43.7125473022,95.8561782837,49.6792869568,49.6792869568,67.2632827759,67.2632827759,30.8794555664,0.768108606339,0,0.000476492627058,0.0267138872296,0.185336306691,0.18485981226,1.97857093811,0.0800463482738,-0.981979370117,-0.0103503307328,-0.785423278809,-0.0160638410598,1.71374893188,0.052579946816,24.71781539921,94.874198913583,48.893863677991,32.59320449828,1201
1.6495049541565E+018,95,1.6495049541565E+018,r1000913c5/base_footprint,0,1.6495049541565E+018,v/m1vw10zy74w/map,-10.021250247,-0.713305134397,0,0,0,0.00274206198489,0.999996240541,0,66.9470748901,24.5621910095,43.7149124146,95.9849472046,49.9014358521,49.9014358521,66.9470748901,66.9470748901,39.4340209961,0.59202504158,0,0.000803773640655,0.0336110517383,0.186576604843,0.185772836208,-0.382614135742,-0.0158238559961,-1.10315704346,-0.011626646854,-0.978504180908,-0.0200009308755,-6.60173416138,-0.201074451208,24.179576873758,94.88179016114,48.922931671192,32.83228683472,1203
1.64950495425643E+018,96,1.64950495425643E+018,r1000913c5/base_footprint,0,1.64950495425643E+018,v/m1vw10zy74w/map,-9.94301189308,-0.685610147417,0,0,0,-0.00508377707137,0.999987077522,0,67.2001113892,21.8679847717,43.6982269287,95.9307327271,50.1364822388,50.1364822388,67.2001113892,67.2001113892,37.222568512,0.626038610935,0,0.00158078386448,0.0541581995785,0.189432069659,0.187851294875,2.04080200195,0.0853578224778,-1.06539154053,-0.0112305665389,-1.23834609985,-0.0253250170499,-4.25563430786,-0.12908795476,23.90878677365,94.86534118657,48.89813613895,32.96693420414,1181
1.64950495435629E+018,97,1.64950495435629E+018,r1000913c5/base_footprint,0,1.64950495435629E+018,v/m1vw10zy74w/map,-9.80747306256,-0.687252006756,0,0,0,-0.0100506160516,0.999949491283,0,67.0955047607,11.2978525162,43.5998001099,95.8386459351,50.2117233276,50.2117233276,67.0955047607,67.0955047607,39.5866851807,0.0330943204463,0,0.00165424426086,0.0595938712358,0.196494862437,0.194840624928,12.0247983932,0.515584528446,-0.953269958496,-0.0100465426221,-1.15938949585,-0.0236357655376,-6.33715438843,-0.190593793988,23.3226509094,94.885375976604,49.05233383175,33.24953079227,1177
1.64950495445626E+018,98,1.64950495445626E+018,r1000913c5/base_footprint,0,1.64950495445626E+018,v/m1vw10zy74w/map,-9.66944124496,-0.692658886062,0,0,0,-0.0138861336268,0.999903582998,0,67.5223464966,15.966386795,43.4642333984,95.837097168,50.2191200256,50.2191200256,67.5223464966,67.5223464966,31.977771759,-0.109698243439,0,0.0017410654109,0.074100241065,0.224983602762,0.223242536187,6.37935066223,0.285484015942,-1.13884735107,-0.0120260650292,-0.98844909668,-0.0200779121369,1.9507598877,0.0574961490929,22.34573745723,94.69824981693,49.23067092892,33.9285316467,1023
1.64950495455678E+018,99,1.64950495455678E+018,r1000913c5/base_footprint,0,1.64950495455679E+018,v/m1vw10zy74w/map,-9.51386412111,-0.69932343688,0,0,0,-0.0170644494757,0.999854391681,0,67.231842041,12.9603061676,43.2669372559,95.6931991577,50.2589988708,50.2589988708,67.231842041,67.231842041,37.1194877625,0.311367243528,0,0.00300639122725,0.0893736481667,0.26244983077,0.259443461895,8.02863883972,0.382517516613,-1.16896057129,-0.0123667810112,-0.674903869629,-0.0136112971231,-2.27770233154,-0.0653727203608,20.98894500732,94.52423858641,49.584095001171,34.84178543096,852
1.64950495465628E+018,100,1.64950495465628E+018,r1000913c5/base_footprint,0,1.64950495465628E+018,v/m1vw10zy74w/map,-9.28873359713,-0.705633120916,0,0,0,-0.0167912413909,0.999859017168,0,67.2434387207,11.764705658,42.8217048645,95.8296737671,50.3497657776,50.3497657776,67.2434387207,67.2434387207,38.3824386597,-0.0190072543919,0,0.0042144623585,0.0998073741794,0.283029168844,0.278814703226,8.23408317566,0.411729097366,-1.43818664551,-0.0152364019305,-0.767482757568,-0.0154789714143,-3.51628112793,-0.100850835443,19.99878883366,94.39148712159,49.582283020032,34.86615753177,782
