%time,field.header.seq,field.header.stamp,field.header.frame_id,field.pose.header.seq,field.pose.header.stamp,field.pose.header.frame_id,field.pose.pose.position.x,field.pose.pose.position.y,field.pose.pose.position.z,field.pose.pose.orientation.x,field.pose.pose.orientation.y,field.pose.pose.orientation.z,field.pose.pose.orientation.w,field.label,field.main_output,field.scan_score,field.pose_score,field.cov_score,field.lhood_map_score,field.lhood_robot_score,field.lhood_map_score_all,field.lhood_robot_score_all,field.point_angle_diff,field.average_orientation,field.map_average_orientation,field.sensor_div,field.odom_div_x,field.odom_div_w,field.imu_div_w,field.kdtree_div,field.kdtree_div_p,field.cov_div,field.cov_div_p,field.likelihood_div,field.likelihood_div_p,field.normal_diff_div,field.normal_diff_div_p,field.kdtree_average,field.cov_average,field.likelihood_average,field.normal_diff_average,field.map_update_count
1.64951436059732E+018,0,1.64951436059732E+018,r1000913c5/base_footprint,0,1.64951436059733E+018,v/m1vw10zy74w/map,-5.39499855493,-0.732235350228,0,0,0,0.999999633769,0.000855839502123,0,63.3416786194,18.1585674286,100,96.3091506958,43.3550720215,43.3550720215,63.3416786194,63.3416786194,34.7974815369,0.484723389149,0,0.000264236907242,0.0335915163159,0.00219086837023,0.00192663143389,-5.95918655396,-0.488482713699,-2.28275299072,-0.0242777876556,4.31052398682,0.0904326066375,1.22799682617,0.0340868979692,12.19938087464,94.02639770508,47.66559600832,36.02547836307,748
1.64951436069426E+018,1,1.64951436069426E+018,r1000913c5/base_footprint,0,1.64951436069426E+018,v/m1vw10zy74w/map,-5.39499855493,-0.732235350228,0,0,0,0.999999633769,0.000855839502123,0,63.1178207397,21.2802772522,49.7784118652,96.3091506958,43.122505188,43.122505188,63.1178207397,63.1178207397,36.3152313232,0.126385524869,0,0.000210339858313,0.0227948334068,0.00382727547549,0.00361693557352,-9.08089637756,-0.744373559952,-2.28275299072,-0.0242777876556,4.54309082031,0.0953117385507,-0.289752960205,-0.00804300140589,12.19938087464,94.02639770508,47.66559600831,36.025478362995,748
1.64951436079408E+018,2,1.64951436079408E+018,r1000913c5/base_footprint,0,1.64951436079408E+018,v/m1vw10zy74w/map,-5.51223097398,-0.732673680549,0,0,0,0.999999974088,0.000227649143242,0,63.4348526001,22.7136116028,49.4776115417,96.2978820801,42.9993057251,42.9993057251,63.4348526001,63.4348526001,29.2375602722,0.136570706964,0,0.00013697182294,0.015700109303,0.0049664969556,0.00482952501625,-10.4638881683,-0.854214251041,-2.29950714111,-0.0244632642716,4.52961349487,0.0953022614121,6.73001480103,0.187113389373,12.2497234345,93.99837493899,47.52891921997,35.96757507323,766
1.64951436089614E+018,3,1.64951436089614E+018,r1000913c5/base_footprint,0,1.64951436089614E+018,v/m1vw10zy74w/map,-5.51223097398,-0.732673680549,0,0,0,0.999999974088,0.000227649143242,0,63.1024475098,19.8635978699,51.4503593445,96.2978820801,42.860244751,42.860244751,63.1024475098,63.1024475098,33.7189407349,0.0928809791803,0,3.90771310776E-05,0.0104328431189,0.00651019671932,0.00647111982107,-7.61387443542,-0.621554791927,-2.29950714111,-0.0244632642716,4.66867446899,0.0982280820608,2.24863433838,0.0625183731318,12.24972343448,93.99837493899,47.52891921999,35.96757507328,766
1.64951436099502E+018,4,1.64951436099502E+018,r1000913c5/base_footprint,0,1.64951436099502E+018,v/m1vw10zy74w/map,-5.62052092786,-0.729275696214,0,0,0,-0.999999837756,0.000569638112361,0,62.7938117981,20.6971683502,54.8204269409,96.10912323,42.7823677063,42.7823677063,62.7938117981,62.7938117981,37.7538375854,0.0103775523603,0,0.000151187283336,0.0312750637531,0.00045309230336,0.000301905034576,-8.06012248993,-0.63781696558,-2.05894470215,-0.0218919813633,4.79513168335,0.100785702467,-2.02411651611,-0.0566507801414,12.63704586027,94.05017852785,47.57749938965,35.72972106929,755
1.64951436109511E+018,5,1.64951436109511E+018,r1000913c5/base_footprint,0,1.64951436109511E+018,v/m1vw10zy74w/map,-5.62052092786,-0.729275696214,0,0,0,-0.999999837756,0.000569638112361,0,62.4444313049,17.0545921326,54.361125946,96.10912323,42.6530532837,42.6530532837,62.4444313049,62.4444313049,42.6460990906,-0.243370682001,0,0.000371258734958,0.0376568622887,0.00471122469753,0.00508248340338,-4.41754627228,-0.349571108818,-2.05894470215,-0.0218919813633,4.92444610596,0.103503674269,-6.91637802124,-0.193574920297,12.63704586032,94.05017852785,47.57749938966,35.72972106936,755
1.64951436119424E+018,6,1.64951436119424E+018,r1000913c5/base_footprint,0,1.64951436119424E+018,v/m1vw10zy74w/map,-5.73999383554,-0.733863006661,0,0,0,-0.999999971987,0.000236698657918,0,62.3808670044,20.4152240753,54.361125946,96.218536377,42.6487770081,42.6487770081,62.3808670044,62.3808670044,44.1378860474,-0.221693411469,0,0.000175982742803,0.0380090326071,0.00446836510673,0.00464434782043,-7.73794841766,-0.610379457474,-2.18840789795,-0.0232734754682,4.90637969971,0.103172399104,-8.00190734863,-0.221438795328,12.67727565764,94.03012847905,47.55515670781,36.13597869877,754
1.64951436129398E+018,7,1.64951436129398E+018,r1000913c5/base_footprint,0,1.64951436129398E+018,v/m1vw10zy74w/map,-5.85786730793,-0.734445955779,0,0,0,-0.999998305278,0.00184104325739,0,62.8055877686,16.4535369873,50.2163047791,95.9835891724,42.5925941467,42.5925941467,62.8055877686,62.8055877686,35.0403594971,0.14449416101,0,0.000285324495053,0.0340718328953,0.00427536014467,0.00456068478525,-3.41780567169,-0.262187480927,-1.93828582764,-0.0206101294607,4.93527603149,0.103839620948,1.42733764648,0.0391397811472,13.03573131561,94.04530334476,47.52787017819,36.46769714358,763
1.64951436139383E+018,8,1.64951436139383E+018,r1000913c5/base_footprint,0,1.64951436139383E+018,v/m1vw10zy74w/map,-5.85786730793,-0.734445955779,0,0,0,-0.999998305278,0.00184104325739,0,62.4391670227,17.2113285065,49.4961013794,95.9835891724,42.8074111938,42.8074111938,62.4391670227,62.4391670227,43.9559364319,-0.180545240641,0,0.000290146330371,0.0308106057346,0.00340399844572,0.00369414477609,-4.17559719086,-0.320319354534,-1.93828582764,-0.0206101294607,4.72045898438,0.0993198081851,-7.48823928833,-0.205338969827,13.03573131564,94.04530334476,47.52787017818,36.46769714357,763
1.64951436149431E+018,9,1.64951436149431E+018,r1000913c5/base_footprint,0,1.64951436149431E+018,v/m1vw10zy74w/map,-5.97762087601,-0.732165380495,0,0,0,-0.999997099019,0.00240872455781,0,62.6737442017,18.3494300842,49.5143585205,96.0536270142,43.1736831665,43.1736831665,62.6737442017,62.6737442017,43.9414176941,-0.033036544919,0,0.000291307340376,0.0291231628507,0.00294138654135,0.00323269376531,-5.0258731842,-0.377217084169,-2.00057983398,-0.0212707612664,4.44763183594,0.0933958217502,-6.9747505188,-0.188676744699,13.3235569,94.05304718022,47.62131500244,36.9666671753,769
1.64951436159402E+018,10,1.64951436159402E+018,r1000913c5/base_footprint,0,1.64951436159402E+018,v/m1vw10zy74w/map,-6.10910270591,-0.729424164122,0,0,0,-0.999996426209,0.00267349387797,0,63.0400505066,19.0110836029,49.3909950256,95.7659988403,43.5142860413,43.5142860413,63.0400505066,63.0400505066,39.9909515381,0.117682486773,0,0.000270095770247,0.0255410671234,0.00242651929148,0.00269661517814,-4.81527328491,-0.339203834534,-1.6826171875,-0.0178843196481,4.13669586182,0.0868123918772,-2.53302383423,-0.0676231682301,14.19581031799,94.0833816528,47.65098190312,37.45792770387,796
1.64951436169411E+018,11,1.64951436169411E+018,r1000913c5/base_footprint,0,1.64951436169411E+018,v/m1vw10zy74w/map,-6.10910270591,-0.729424164122,0,0,0,-0.999996426209,0.00267349387797,0,63.7134284973,19.2786598206,49.2838859558,95.7659988403,43.8686981201,43.8686981201,63.7134284973,63.7134284973,31.6978340149,0.132711350918,0,0.000108967426058,0.0212587248534,0.000498313223943,0.000389345834265,-5.08284950256,-0.358052790165,-1.6826171875,-0.0178843196481,3.78228378296,0.079374730587,5.76009368896,0.153775021434,14.19581031804,94.0833816528,47.65098190306,37.45792770386,796
1.6495143617947E+018,12,1.6495143617947E+018,r1000913c5/base_footprint,0,1.6495143617947E+018,v/m1vw10zy74w/map,-6.21968560922,-0.722150274284,0,0,0,-0.999998169187,0.0019135367711,0,63.5565795898,16.5623703003,49.1458129883,95.7641830444,44.1456565857,44.1456565857,63.5565795898,63.5565795898,37.5056838989,0.308159589767,0,0.00014555521193,0.0174287129194,8.22505899123E-05,6.33046292933E-05,-1.98029899597,-0.135803684592,-1.67824554443,-0.0178373679519,3.49468612671,0.0733556076884,0.141544342041,0.00375975458883,14.58207130433,94.08593749997,47.64034271241,37.647228240941,817
1.64951436189496E+018,13,1.64951436189496E+018,r1000913c5/base_footprint,0,1.64951436189496E+018,v/m1vw10zy74w/map,-6.34970711122,-0.717023112748,0,0,0,-0.999997904553,0.00204716612485,0,64.062461853,14.2857141495,49.0198898315,95.5953369141,44.4839477539,44.4839477539,64.062461853,64.062461853,31.4455165863,0.372709810734,0,8.47858154884E-06,0.00929742865264,0.00334061565809,0.0033321371302,1.09063053131,0.0709291175008,-1.48450469971,-0.0157740041614,3.16830444336,0.0664880350232,6.2460308075,0.165714368224,15.37634468081,94.11083221439,47.65225219726,37.6915473938,822
1.6495143619941E+018,14,1.6495143619941E+018,r1000913c5/base_footprint,0,1.6495143619941E+018,v/m1vw10zy74w/map,-6.45035819895,-0.717263317631,0,0,0,-0.999993188169,0.00369101813764,0,63.9306030273,14.0592403412,48.9679412842,95.4016723633,44.699382782,44.699382782,63.9306030273,63.9306030273,35.4485054016,0.222954899073,0,3.80197561753E-05,0.00480650737882,0.00339048611932,0.00335246627219,1.83118534088,0.115238279104,-1.24478912354,-0.0132203726098,2.95936584473,0.0620949119329,2.06406021118,0.0550231672823,15.89042568208,94.15688323976,47.65874862673,37.51256561278,843
1.64951436209422E+018,15,1.64951436209422E+018,r1000913c5/base_footprint,0,1.64951436209422E+018,v/m1vw10zy74w/map,-6.45035819895,-0.717263317631,0,0,0,-0.999993188169,0.00369101813764,0,64.1139755249,17.6470584869,49.0320587158,95.4016723633,44.8644447327,44.8644447327,64.1139755249,64.1139755249,33.9304046631,0.295652002096,0,1.61997595569E-05,0.00327611621469,0.00321574369445,0.00319954380393,-1.75663280487,-0.1105466187,-1.24478912354,-0.0132203726098,2.79430389404,0.0586314983666,3.58216094971,0.0954922959208,15.89042568203,94.15688323976,47.65874862674,37.51256561281,843
1.64951436219432E+018,16,1.64951436219432E+018,r1000913c5/base_footprint,0,1.64951436219432E+018,v/m1vw10zy74w/map,-6.55392743262,-0.7168663696,0,0,0,-0.99998291887,0.00584482399924,0,63.9050979614,17.0545921326,49.0320587158,95.0949935913,45.0074958801,45.0074958801,63.9050979614,63.9050979614,38.1311988831,0.365389794111,0,3.67756365449E-05,0.00177471560892,0.00298455404118,0.00302132964134,-0.549123764038,-0.033269200474,-0.872085571289,-0.00925555825233,2.5760307312,0.0541370287538,-0.871696472168,-0.0233952794224,16.505468368562,94.222908020011,47.5835266113,37.259502410932,883
1.64951436239417E+018,17,1.64951436239417E+018,r1000913c5/base_footprint,0,1.64951436239417E+018,v/m1vw10zy74w/map,-6.57141474173,-0.71701069013,0,0,0,-0.999984562293,0.00555654352604,0,64.7624206543,15.3618278503,49.0668182373,95.4612350464,45.065738678,45.065738678,64.7624206543,64.7624206543,24.6468715668,0.32775375247,0,6.66673731757E-05,0.00190028932411,0.00240132352337,0.00246799085289,1.14364051819,0.0692885816097,-1.23832702637,-0.0131425261497,2.51778793335,0.052913017571,12.6126308441,0.338507771492,16.50546836849,94.22290802003,47.58352661135,37.2595024109,883
1.64951436249413E+018,18,1.64951436249413E+018,r1000913c5/base_footprint,0,1.64951436249413E+018,v/m1vw10zy74w/map,-6.83681977201,-0.71756149737,0,0,0,-0.999957419551,0.00922816797841,0,64.1162872314,12.6050424576,49.1210746765,94.4138717651,45.0341644287,45.0341644287,64.1162872314,64.1162872314,32.1657791138,0.129508897662,0,0.000181522525963,0.0272559653968,0.00108679267578,0.0012683152454,4.01325511932,0.241496160626,0.0681610107422,0.000721417716704,1.42086029053,0.0305857174098,3.79118347168,0.105436697602,16.61829757692,94.4820327758422,46.45502471923,35.95696258548,1257
1.64951436259477E+018,19,1.64951436259477E+018,r1000913c5/base_footprint,0,1.64951436259477E+018,v/m1vw10zy74w/map,-6.97940894408,-0.717648519511,0,0,0,-0.999966248235,0.00821598384265,0,64.3672943115,8.4033613205,49.1615028381,93.9110870361,44.7721786499,44.7721786499,64.3672943115,64.3672943115,23.0081501007,0.279645234346,0,0.000227384400205,0.0482683479786,0.000594207667746,0.000821592053398,8.08177661896,0.490246236324,0.599403381348,0.00634218892083,1.56785964966,0.0338338017464,12.8590641022,0.358518630266,16.48513793946,94.510490417448,46.34003829956,35.8672142029,1257
1.64951436269476E+018,20,1.64951436269476E+018,r1000913c5/base_footprint,0,1.64951436269476E+018,v/m1vw10zy74w/map,-7.13009593595,-0.722847775376,0,0,0,-0.999968319682,0.00795987644407,0,63.4457702637,5.37084388733,49.1838531494,93.0780792236,44.4137992859,44.4137992859,63.4457702637,63.4457702637,32.7262687683,0.0552879087627,0,0.000153628920089,0.0611601918936,0.000612401694525,0.000766030629165,10.7581672668,0.667007267475,1.41970825195,0.0150237195194,1.81460189819,0.0392529666424,3.00993728638,0.0842265486717,16.12901115413,94.49778747555,46.22840118409,35.73620605468,1241
1.64951436279428E+018,21,1.64951436279428E+018,r1000913c5/base_footprint,0,1.64951436279428E+018,v/m1vw10zy74w/map,-7.36384378192,-0.722949475745,0,0,0,-0.999968888205,0.00788813173493,0,63.3109054565,8.69183540344,49.2027740479,92.9905471802,44.33436203,44.33436203,63.3109054565,63.3109054565,33.9807815552,0.0265021920204,0,3.67335014744E-05,0.075423002243,0.00192105118185,0.00188431760762,7.2613325119,0.455165565014,1.53414916992,0.016230141744,2.08889007568,0.0449966341257,1.98684692383,0.0552398636937,15.95316791534,94.52469635012,46.42325210568,35.96762847903,1230
1.64951436289423E+018,22,1.64951436289423E+018,r1000913c5/base_footprint,0,1.64951436289423E+018,v/m1vw10zy74w/map,-7.50426685079,-0.724411295032,0,0,0,-0.999990298008,0.00440498468482,0,63.1027946472,13.0816507339,49.2820243835,92.8653488159,44.5248069763,44.5248069763,63.1027946472,63.1027946472,39.3328666687,0.184537068009,0,0.000491416547447,0.117515109479,0.00422024307773,0.00471165962517,2.72853469849,0.172580808401,1.60371398926,0.0169760752469,2.01475524902,0.0432912372053,-3.12638473511,-0.0863487571478,15.81018543239,94.46906280516,46.53956222532,36.20648193359,1179
1.64951436299445E+018,23,1.64951436299445E+018,r1000913c5/base_footprint,0,1.64951436299445E+018,v/m1vw10zy74w/map,-7.64755445804,-0.722716901655,0,0,0,-0.999999248678,0.00122582327652,0,63.2515182495,11.1111106873,49.277885437,93.1604537964,44.8078804016,44.8078804016,63.2515182495,63.2515182495,40.775428772,0.24149736762,0,0.000146946666064,0.170084536076,0.009640712291,0.00978765822947,4.71834659576,0.298073798418,1.24566650391,0.013194764033,2.28030014038,0.0484261661768,-4.20764541626,-0.115064270794,15.82945728306,94.40612030031,47.08818054198,36.56778335574,1036
1.64951436309411E+018,24,1.64951436309411E+018,r1000913c5/base_footprint,0,1.64951436309412E+018,v/m1vw10zy74w/map,-7.76955736202,-0.718873467721,0,0,0,0.999999894623,0.000459079492269,0,62.9351501465,15.4929580688,49.2674217224,93.5646896362,45.0714569092,45.0714569092,62.9351501465,62.9351501465,50.7718963623,0.204457685351,0,0.000819482200313,0.205394506454,0.00992514751852,0.0107446294278,0.687046051025,0.0424626618624,0.679824829102,0.00721341557801,3.01502609253,0.0627000778913,-13.2316894531,-0.352467149496,16.180004119825,94.244514465302,48.08648300173,37.5402069092,808
1.64951436319428E+018,25,1.64951436319428E+018,r1000913c5/base_footprint,0,1.64951436319428E+018,v/m1vw10zy74w/map,-7.8913258902,-0.716270656244,0,0,0,-0.999991045082,0.00423199182567,0,63.8261604309,27.6018104553,49.146572113,93.9064712524,45.3573188782,45.3573188782,63.8261604309,63.8261604309,39.0514144897,0.5059902668,0,0.000465794000775,0.230196416378,0.00621231133118,0.00667810533196,-10.6815853119,-0.631290972233,0.315475463867,0.00334821641445,2.84023284912,0.0589289851487,-1.54871368408,-0.0412960574031,16.9202251434,94.221946716267,48.19755172732,37.50270080562,803
1.64951436329433E+018,26,1.64951436329433E+018,r1000913c5/base_footprint,0,1.64951436329433E+018,v/m1vw10zy74w/map,-8.02049849607,-0.717613669655,0,0,0,-0.999960029727,0.00894085840925,0,64.519744873,35.2088661194,48.9431495667,94.0234527588,45.6012992859,45.6012992859,64.519744873,64.519744873,29.6230220795,0.354048103094,0,0.000428102473961,0.244726672769,0.00363746238872,0.00406556483358,-17.4662666321,-0.984425485134,0.249046325684,0.00264177075587,2.58041763306,0.0535559505224,7.78935050964,0.208202525973,17.7425994873,94.272499084484,48.18171691896,37.41237258914,824
1.64951436339445E+018,27,1.64951436339445E+018,r1000913c5/base_footprint,0,1.64951436339445E+018,v/m1vw10zy74w/map,-8.02049849607,-0.717613669655,0,0,0,-0.999960029727,0.00894085840925,0,64.5771636963,35.7530250549,48.6324768066,94.0234527588,45.8191833496,45.8191833496,64.5771636963,64.5771636963,30.9427223206,0.249677628279,0,0.000708985258825,0.266736000776,0.00127993710339,0.0019889222458,-18.0104255676,-1.01509511471,0.249046325684,0.00264177075587,2.36253356934,0.0490338169038,6.46965026855,0.172928094864,17.7425994873,94.272499084484,48.18171691894,37.41237258915,824
1.64951436349543E+018,28,1.64951436349543E+018,r1000913c5/base_footprint,0,1.64951436349544E+018,v/m1vw10zy74w/map,-8.14179967603,-0.716528796777,0,0,0,-0.999941900885,0.0107793717361,0,64.7132492065,35.674987793,48.4804267883,94.5752639771,46.2387046814,46.2387046814,64.7132492065,64.7132492065,35.0104789734,0.212590530515,0,0.00106440065429,0.272138595581,0.00167771079578,0.00274211145006,-17.2208766937,-0.933172941208,-0.190673828125,-0.00202017975971,1.58616638184,0.0331661403179,1.54522705078,0.0422704741359,18.4541110993,94.384590148975,47.82487106324,36.55570602418,929
1.6495143635942E+018,29,1.6495143635942E+018,r1000913c5/base_footprint,0,1.6495143635942E+018,v/m1vw10zy74w/map,-8.25444361664,-0.719721056592,0,0,0,-0.999947406674,0.0102559195208,0,65.1792602539,31.3009872437,48.3170852661,94.1351013184,46.6360015869,46.6360015869,65.1792602539,65.1792602539,29.328502655,0.25393691659,0,0.0010717328405,0.28725078702,0.029533918947,0.0306056533009,-13.2245998383,-0.731595277786,0.338508605957,0.0035831022542,0.41529083252,0.00882634241134,6.39721298218,0.179064661264,18.0763874054,94.473609924357,47.05129241942,35.72571563718,1103
1.64951436369409E+018,30,1.64951436369409E+018,r1000913c5/base_footprint,0,1.64951436369409E+018,v/m1vw10zy74w/map,-8.25444361664,-0.719721056592,0,0,0,-0.999947406674,0.0102559195208,0,65.1453475952,41.1764717102,48.1813621521,94.1351013184,46.9709701538,46.9709701538,65.1453475952,65.1453475952,33.5566329956,0.340445309877,0,0.000758288311772,0.290607631207,0.0405301451683,0.0412884317338,-23.1000843048,-1.27791488171,0.338508605957,0.0035831022542,0.080322265625,0.0017071213806,2.1690826416,0.0607148818672,18.0763874054,94.473609924357,47.051292419425,35.7257156372,1103
1.64951436379402E+018,31,1.64951436379402E+018,r1000913c5/base_footprint,0,1.64951436379402E+018,v/m1vw10zy74w/map,-8.36742104831,-0.727906639325,0,0,0,-0.999506575169,0.0314102880117,0,65.3662414551,24.9061317444,48.1174163818,94.2323760986,47.2540168762,47.2540168762,65.3662414551,65.3662414551,32.9876213074,0.189348235726,0,0.000512553961016,0.296791344881,0.0420503169298,0.0415377616882,-6.71518707275,-0.369149982929,0.276763916016,0.0029284353368,-0.532653808594,-0.0114006474614,2.29987716675,0.0651754066348,18.19094467165,94.509140014616,46.721363067606,35.28749847415,1180
1.64951436389528E+018,32,1.64951436389528E+018,r1000913c5/base_footprint,0,1.64951436389528E+018,v/m1vw10zy74w/map,-8.37163749269,-0.72545147749,0,0,0,-0.999515972363,0.031109821461,0,65.8629150391,33.1184539795,48.1174163818,94.3599243164,47.4005317688,47.4005317688,65.8629150391,65.8629150391,26.0890369415,0.0668693110347,0,0.000727914797608,0.303154319525,0.0336687602103,0.0329408459365,-14.9275093079,-0.82060110569,0.149215698242,0.00157884939108,-0.679168701172,-0.0145365772769,9.19846153259,0.260671973228,18.1909446716,94.509140014642,46.721363067628,35.28749847409,1180
1.64951436399467E+018,33,1.64951436399467E+018,r1000913c5/base_footprint,0,1.64951436399467E+018,v/m1vw10zy74w/map,-8.48514741866,-0.736526685186,0,0,0,-0.997643065858,0.0686171490576,0,65.4574356079,28.2836418152,47.9655570984,93.9882583618,47.2652740479,47.2652740479,65.4574356079,65.4574356079,30.5888309479,0.15475808084,0,0.000583063054364,0.307477831841,0.0286124292761,0.0280293673277,-10.0002422333,-0.546957492828,0.576469421387,0.00609603011981,-0.595584869385,-0.0127617064863,4.38695335388,0.125428304076,18.2833995819,94.564727783187,46.669689178515,34.97578430178,1174
1.64951436410141E+018,34,1.64951436410141E+018,r1000913c5/base_footprint,0,1.64951436410141E+018,v/m1vw10zy74w/map,-8.48514741866,-0.736526685186,0,0,0,-0.997643065858,0.0686171490576,0,65.1460189819,21.5686283112,47.7366676331,93.9882583618,46.9794120789,46.9794120789,65.1460189819,65.1460189819,33.1069908142,0.0527013018727,0,0.000507620105054,0.31072717905,0.0233419314027,0.0228343121707,-3.28522872925,-0.179683685303,0.576469421387,0.00609603011981,-0.309722900391,-0.00663648964837,1.86879348755,0.0534310676157,18.28339958195,94.564727783187,46.669689178509,34.97578430175,1174
1.64951436419455E+018,35,1.64951436419455E+018,r1000913c5/base_footprint,0,1.64951436419455E+018,v/m1vw10zy74w/map,-8.59332851009,-0.756550671706,0,0,0,-0.994969610518,0.100177213707,0,64.9852752686,20.252664566,47.5944328308,93.8219680786,46.8552970886,46.8552970886,64.9852752686,64.9852752686,34.0613975525,0.143446683884,0,0.000369883375242,0.315379232168,0.0180415175855,0.0176716335118,-2.0728302002,-0.11401810497,0.73526763916,0.0077759004198,-0.216384887695,-0.00463957851753,0.790546417236,0.0226829927415,18.1798343658,94.55723571776,46.638912200905,34.851943969736,1176
1.6495143642956E+018,36,1.6495143642956E+018,r1000913c5/base_footprint,0,1.6495143642956E+018,v/m1vw10zy74w/map,-8.60313620075,-0.754459326417,0,0,0,-0.994774132719,0.102100072837,0,65.1631393433,25.8662376404,47.558921814,94.177230835,46.7060699463,46.7060699463,65.1631393433,65.1631393433,30.5271034241,-0.0402457490563,0,0.00023562044953,0.343002587557,0.0205663312227,0.0203307103366,-7.68640327454,-0.42279830575,0.380004882812,0.00401878170669,-0.0671577453613,-0.00143995089456,4.32484054565,0.124091804028,18.17983436586,94.557235717812,46.6389122009387,34.85194396975,1176
1.64951436439409E+018,37,1.64951436439409E+018,r1000913c5/base_footprint,0,1.64951436439409E+018,v/m1vw10zy74w/map,-8.60313620075,-0.754459326417,0,0,0,-0.994774132719,0.102100072837,0,64.9937744141,24.2546329498,47.444316864,94.177230835,46.5272445679,46.5272445679,64.9937744141,64.9937744141,31.6443367004,0.291646420956,0,0.00125375983771,0.387335002422,0.0351200848818,0.0338663235307,-6.07479858398,-0.334150373936,0.380004882812,0.00401878170669,0.111667633057,0.00239430181682,3.20760726929,0.0920352488756,18.17983436582,94.557235717812,46.638912200957,34.85194396969,1176
1.64951436449415E+018,38,1.64951436449415E+018,r1000913c5/base_footprint,0,1.64951436449415E+018,v/m1vw10zy74w/map,-8.60313620075,-0.754459326417,0,0,0,-0.994774132719,0.102100072837,0,65.1121673584,25.6535949707,47.444316864,94.177230835,46.3363227844,46.3363227844,65.1121673584,65.1121673584,27.451292038,0.1528224051,0,0.0013256536331,0.395399093628,0.0604763031006,0.0591506510973,-7.47376060486,-0.411101698875,0.380004882812,0.00401878170669,0.302589416504,0.00648791762069,7.40065193176,0.212345451117,18.17983436584,94.557235717812,46.638912200904,34.85194396976,1176
1.64951436459609E+018,39,1.64951436459609E+018,r1000913c5/base_footprint,0,1.64951436459609E+018,v/m1vw10zy74w/map,-8.68719959211,-0.77710713371,0,0,0,-0.987460290811,0.157867583981,0,64.7863082886,31.372549057,47.2259140015,94.2215499878,46.2346343994,46.2346343994,64.7863082886,64.7863082886,32.3780860901,-0.125980138779,0,0.00375662744045,0.394590944052,0.0777030661702,0.0739464387298,-13.1609859467,-0.722671985626,0.332588195801,0.00351743679494,0.310321807861,0.00666714133695,2.21629333496,0.0640651285648,18.2115631103,94.554138183601,46.544956207261,34.59437942506,1176
1.64951436469554E+018,40,1.64951436469554E+018,r1000913c5/base_footprint,0,1.64951436469554E+018,v/m1vw10zy74w/map,-8.69564002259,-0.777583803858,0,0,0,-0.976451264676,0.215738099819,0,64.1990890503,12.5816993713,47.2259140015,94.1336364746,45.7611732483,45.7611732483,64.1990890503,64.1990890503,37.5181541443,-0.292318046093,0,0.00436678063124,0.390185505152,0.0592671073973,0.0549003258348,5.62986373901,0.309136778116,0.420501708984,0.0044472059235,0.783782958984,0.016839267686,-2.92377471924,-0.0845158919692,18.21156311031,94.554138183584,46.544956207284,34.59437942506,1176
1.64951436479421E+018,41,1.64951436479421E+018,r1000913c5/base_footprint,0,1.64951436479422E+018,v/m1vw10zy74w/map,-8.69561541641,-0.779033279899,0,0,0,-0.964241385013,0.265025567499,0,64.3527908325,7.62527227402,47.2259140015,94.4958724976,45.3280181885,45.3280181885,64.3527908325,64.3527908325,31.377456665,0.0352707691491,0,0.00451246043667,0.383135259151,0.0406147874892,0.0361023247242,10.5862903595,0.581295013428,0.0582656860352,0.000616215111222,1.2169380188,0.0261454321444,3.21692276001,0.0929897502065,18.21156263352,94.5541381836352,46.5449562073,34.59437942501,1176
1.64951436489423E+018,42,1.64951436489423E+018,r1000913c5/base_footprint,0,1.64951436489423E+018,v/m1vw10zy74w/map,-8.68978279319,-0.778729915392,0,0,0,-0.960793609775,0.27726456574,0,63.9984664917,17.0086631775,46.9503288269,94.2900085449,44.9990921021,44.9990921021,63.9984664917,63.9984664917,33.4617919922,0.432742625475,0,0.00424957834184,0.376286178827,0.0296477880329,0.025398209691,1.20289993286,0.0660514384508,0.264129638672,0.00279342220165,1.54586410522,0.0332122780383,1.13258743286,0.0327390581369,18.21156311036,94.554138183572,46.54495620732,34.59437942506,1176
1.64951436509436E+018,43,1.64951436509436E+018,r1000913c5/base_footprint,0,1.64951436509436E+018,v/m1vw10zy74w/map,-8.68314467373,-0.771340411189,0,0,0,-0.944395742157,0.328811012888,0,63.5666122437,16.0966720581,46.6209716797,94.3347549438,44.5604248047,44.5604248047,63.5666122437,63.5666122437,36.6586875916,-0.00761673366651,0,0.00408686837181,0.370126396418,0.0240943394601,0.0200074724853,2.1506061554,0.117859013379,0.227210998535,0.00240277359262,1.99026870728,0.0427548661828,-1.98238754272,-0.0571683682501,18.2472782135,94.561965942335,46.55069351198,34.67630004888,1182
1.64951436519418E+018,44,1.64951436519418E+018,r1000913c5/base_footprint,0,1.64951436519418E+018,v/m1vw10zy74w/map,-8.68314467373,-0.771340411189,0,0,0,-0.944395742157,0.328811012888,0,63.8078536987,15.5815000534,46.6209716797,94.3347549438,44.3043823242,44.3043823242,63.8078536987,63.8078536987,29.5510826111,0.193325355649,0,0.00401538936421,0.366429656744,0.0213447939605,0.0173294041306,2.6657781601,0.14609181881,0.227210998535,0.00240277359262,2.24631118774,0.0482551604509,5.12521743774,0.147801741958,18.2472782135,94.561965942335,46.55069351194,34.67630004884,1182
1.64951436529439E+018,45,1.64951436529439E+018,r1000913c5/base_footprint,0,1.64951436529439E+018,v/m1vw10zy74w/map,-8.68759917864,-0.771778387775,0,0,0,-0.926126150877,0.377213934872,0,63.4459381104,17.3776378632,46.3197250366,94.0715789795,43.9777603149,43.9777603149,63.4459381104,63.4459381104,31.5906333923,0.217723116279,0,0.00396814988926,0.362297147512,0.0192966759205,0.0153285255656,0.833925247192,0.0457909740508,0.482559204102,0.00510352291167,2.56719589233,0.0551551915705,3.00374603271,0.0868275761604,18.211563110392,94.554138183602,46.54495620723,34.59437942501,1176
1.64951436539424E+018,46,1.64951436539424E+018,r1000913c5/base_footprint,0,1.64951436539424E+018,v/m1vw10zy74w/map,-8.67616490085,-0.769485882268,0,0,0,-0.89910376987,0.437735549169,0,62.863986969,17.0086631775,45.9972114563,92.2062759399,43.6699066162,43.6699066162,62.863986969,62.863986969,32.0258255005,-0.0764827206731,0,0.00388721283525,0.353509604931,0.015188367106,0.0113011542708,1.23861503601,0.0678794384003,2.35569000244,0.0249116010964,2.88078689575,0.0618849396706,2.65047454834,0.0764347538352,18.24727821351,94.56196594234,46.55069351195,34.67630004884,1182
1.64951436549413E+018,47,1.64951436549413E+018,r1000913c5/base_footprint,0,1.64951436549413E+018,v/m1vw10zy74w/map,-8.67585269022,-0.777339495452,0,0,0,-0.872713359198,0.488232928711,0,62.872833252,23.1125526428,45.6410522461,93.667427063,43.6029167175,43.6029167175,62.872833252,62.872833252,36.4032516479,-0.0504201203585,0,0.00480853021145,0.298740684986,0.0159030891955,0.0207116194069,-4.86527442932,-0.266630142927,0.894538879395,0.00945981685072,2.94777679443,0.0633240118623,-1.72695159912,-0.0498020723462,18.24727821348,94.561965942395,46.55069351193,34.67630004878,1182
1.64951436559427E+018,48,1.64951436559427E+018,r1000913c5/base_footprint,0,1.64951436559427E+018,v/m1vw10zy74w/map,-8.66750985685,-0.770870410581,0,0,0,-0.840345445829,0.542051226062,0,63.0150260925,21.5686283112,45.2766914368,93.2486419678,43.4640541077,43.4640541077,63.0150260925,63.0150260925,30.8364505768,0.106967672706,0,0.0048519205302,0.248470157385,0.0385828651488,0.0434347838163,-3.32135009766,-0.18201893568,1.31332397461,0.0138885015622,3.0866394043,0.0663070529699,3.83984947205,0.110734120011,18.24727821354,94.56196594241,46.550693512,34.67630004885,1182
1.64951436569437E+018,49,1.64951436569437E+018,r1000913c5/base_footprint,0,1.64951436569437E+018,v/m1vw10zy74w/map,-8.6638594624,-0.769073170062,0,0,0,-0.812875703853,0.582437198405,0,63.0836257935,25.0474376678,44.6422805786,93.159866333,43.5128097534,43.5128097534,63.0836257935,63.0836257935,29.8085765839,0.204489812255,0,0.00427600415424,0.202676996589,0.0604419633746,0.0647179633379,-6.80015945435,-0.372667044401,1.40209960938,0.0148273101076,3.03788375854,0.0652596876025,4.86772346497,0.140376091003,18.24727821345,94.56196594238,46.55069351194,34.67630004887,1182
1.64951436579459E+018,50,1.64951436579459E+018,r1000913c5/base_footprint,0,1.64951436579459E+018,v/m1vw10zy74w/map,-8.66459692576,-0.767820960095,0,0,0,-0.777435302624,0.628962916421,0,62.6947097778,23.3511581421,43.8769111633,92.9877243042,43.5531959534,43.5531959534,62.6947097778,62.6947097778,36.6255569458,-0.03523998335,0,0.00416247593239,0.185309663415,0.0688334405422,0.0729959160089,-5.10387992859,-0.27970635891,1.57424163818,0.0166477244347,2.99749755859,0.0643921121955,-1.94925689697,-0.0562129430473,18.24727821351,94.56196594238,46.55069351199,34.67630004883,1182
1.64951436589519E+018,51,1.64951436589519E+018,r1000913c5/base_footprint,0,1.64951436589519E+018,v/m1vw10zy74w/map,-8.66459692576,-0.767820960095,0,0,0,-0.777435302624,0.628962916421,0,62.8181724548,20.38920784,43.2720184326,92.9877243042,43.4429893494,43.4429893494,62.8181724548,62.8181724548,33.2130088806,0.105566620827,0,0.00393646769226,0.174846455455,0.0771890133619,0.0811254754663,-2.14192962646,-0.117383509874,1.57424163818,0.0166477244347,3.1077041626,0.0667595639825,1.46329116821,0.0421985946596,18.24727821354,94.56196594238,46.550693512,34.67630004881,1182
1.64951437379503E+018,52,1.64951437379503E+018,r1000913c5/base_footprint,0,1.64951437379503E+018,v/m1vw10zy74w/map,-8.66882363073,-0.778540576843,0,0,0,-0.739831397501,0.672792318083,0,62.6360092163,16.8509502411,42.6090621948,92.4193267822,43.4422988892,43.4422988892,62.6360092163,62.6360092163,34.4382095337,0.118548370898,0,0,1.63951920326E-43,0,0,1.39632797241,0.0765225365758,2.14263916016,0.0226585716009,3.1083946228,0.0667743980885,0.238090515137,0.00686608767137,18.24727821351,94.56196594236,46.550693512,34.676300048837,1182
1.64951437399491E+018,53,1.64951437399491E+018,r1000913c5/base_footprint,0,1.64951437399491E+018,v/m1vw10zy74w/map,-8.66882363073,-0.778540576843,0,0,0,-0.739831397501,0.672792318083,0,62.2698326111,13.8959932327,42.2943115234,92.4193267822,43.1661834717,43.1661834717,62.2698326111,62.2698326111,38.0473480225,0.135540872812,0,7.52029654905E-06,0.00628274166957,0.00267522013746,0.00268274056725,4.35128498077,0.238462135196,2.14263916016,0.0226585716009,3.38451004028,0.0727059021592,-3.37104797363,-0.0972147509456,18.24727821347,94.56196594236,46.55069351198,34.67630004887,1182
1.64951437409442E+018,54,1.64951437409442E+018,r1000913c5/base_footprint,0,1.64951437409442E+018,v/m1vw10zy74w/map,-8.66882363073,-0.778540576843,0,0,0,-0.739831397501,0.672792318083,0,62.0079650879,15.966386795,42.2943115234,92.4193267822,42.9795646667,42.9795646667,62.0079650879,62.0079650879,40.7455215454,0.118517175317,0,2.52626632573E-05,0.0183388181031,0.00781946443021,0.00784472655505,2.28089141846,0.124998994172,2.14263916016,0.0226585716009,3.57112884521,0.076714836061,-6.06922149658,-0.175025060773,18.24727821346,94.56196594236,46.55069351191,34.67630004882,1182
1.64951437419427E+018,55,1.64951437419427E+018,r1000913c5/base_footprint,0,1.64951437419427E+018,v/m1vw10zy74w/map,-8.66882363073,-0.778540576843,0,0,0,-0.739831397501,0.672792318083,0,61.8827896118,16.2082099915,42.2943115234,92.4193267822,42.7218971252,42.7218971252,61.8827896118,61.8827896118,40.2158699036,0.112526774406,0,3.02805419778E-05,0.0428230278194,0.0183284077793,0.0182981286198,2.03906822205,0.111746430397,2.14263916016,0.0226585716009,3.82879638672,0.0822500362992,-5.53956985474,-0.159750893712,18.24727821355,94.56196594236,46.55069351192,34.67630004886,1182
1.64951437429436E+018,56,1.64951437429436E+018,r1000913c5/base_footprint,0,1.64951437429436E+018,v/m1vw10zy74w/map,-8.66882363073,-0.778540576843,0,0,0,-0.739831397501,0.672792318083,0,61.7200660706,17.6470584869,42.2943115234,92.4193267822,42.5697059631,42.5697059631,61.7200660706,61.7200660706,41.5012283325,0.0497745200992,0,7.82896095188E-05,0.0537610538304,0.0234127379954,0.0234910268337,0.600219726562,0.0328936576843,2.14263916016,0.0226585716009,3.98098754883,0.0855194032192,-6.82492828369,-0.196818232536,18.247278213462,94.56196594236,46.55069351193,34.67630004881,1182
1.64951437449543E+018,57,1.64951437449543E+018,r1000913c5/base_footprint,0,1.64951437449543E+018,v/m1vw10zy74w/map,-8.67171795921,-0.804513716888,0,0,0,-0.702424694297,0.711758069039,0,61.7719497681,15.3618278503,42.2943115234,91.7861099243,42.398349762,42.398349762,61.7719497681,61.7719497681,36.4370803833,0.100079536438,0,0.00136944255792,0.090740121901,0.0247032698244,0.0233338270336,2.88545036316,0.158130452037,2.77585601807,0.0293548889458,4.15234375,0.0892004668713,-1.76078033447,-0.0507776290178,18.24727821346,94.56196594237,46.550693512,34.67630004883,1182
1.64951437459461E+018,58,1.64951437459461E+018,r1000913c5/base_footprint,0,1.64951437459462E+018,v/m1vw10zy74w/map,-8.67204518048,-0.799584873789,0,0,0,-0.701887419731,0.712287898271,0,61.4640579224,14.2857141495,42.2943115234,91.8453292847,42.3027992249,42.3027992249,61.4640579224,61.4640579224,41.1603317261,0.0496763065457,0,0.00130126147997,0.101196505129,0.0173120908439,0.0160108283162,3.96156406403,0.217104375362,2.71663665771,0.028728639707,4.24789428711,0.091253079474,-6.48403167725,-0.186987414956,18.24727821353,94.56196594241,46.55069351201,34.67630004885,1182
1.64951437469579E+018,59,1.64951437469579E+018,r1000913c5/base_footprint,0,1.64951437469579E+018,v/m1vw10zy74w/map,-8.67204518048,-0.799584873789,0,0,0,-0.701887419731,0.712287898271,0,61.8532562256,17.3060531616,42.2943115234,91.8453292847,42.3826637268,42.3826637268,61.8532562256,61.8532562256,35.0173568726,0.143675282598,0,0.000989390653558,0.104474566877,0.00801329221576,0.00900268275291,0.94122505188,0.0515816695988,2.71663665771,0.028728639707,4.16802978516,0.0895374342799,-0.34105682373,-0.00983544439077,18.24727821348,94.56196594241,46.55069351196,34.67630004887,1182
1.64951437479436E+018,60,1.64951437479436E+018,r1000913c5/base_footprint,0,1.64951437479436E+018,v/m1vw10zy74w/map,-8.66461325594,-0.904102895884,0,0,0,-0.683197185682,0.730233938869,0,61.827255249,15.3618278503,42.2943115234,91.4553146362,42.3990745544,42.3990745544,61.827255249,61.827255249,34.2585716248,0.179608911276,0,1.89021211554E-05,0.0963497534394,0.029117397964,0.029136300087,2.76192474365,0.152392536402,3.11826324463,0.0329718217254,3.92094039917,0.0846489444375,0.462921142578,0.0133324088529,18.12375259395,94.57357788083,46.32001495357,34.721492767378,1191
1.64951437489493E+018,61,1.64951437489493E+018,r1000913c5/base_footprint,0,1.64951437489493E+018,v/m1vw10zy74w/map,-8.66998188104,-1.03005708472,0,0,0,-0.684684436521,0.728839641063,0,61.7562637329,20.4401187897,42.2409439087,91.4973678589,42.3512535095,42.3512535095,61.7562637329,61.7562637329,35.1713218689,0.15697838366,0,0.000477728870464,0.0885626897216,0.0316762924194,0.0311985630542,-2.34660720825,-0.129693299532,3.13073730469,0.0330846458673,3.64921188354,0.079329892993,-0.385482788086,-0.0110816005617,18.09351158145,94.62810516359,46.00046539304,34.785839080814,1080
1.6495143749948E+018,62,1.6495143749948E+018,r1000913c5/base_footprint,0,1.6495143749948E+018,v/m1vw10zy74w/map,-8.66998188104,-1.03005708472,0,0,0,-0.684684436521,0.728839641063,0,61.6112709045,15.966386795,42.5509605408,91.4973678589,42.1054115295,42.1054115295,61.6112709045,61.6112709045,35.1261253357,0.197828009725,0,0.000750199425966,0.0824922695756,0.0270394627005,0.0262892618775,2.12712478638,0.1175628528,3.13073730469,0.0330846458673,3.89505386353,0.0846742242575,-0.340286254883,-0.00978232175112,18.09351158138,94.62810516359,46.00046539303,34.785839080817,1080
1.64951437509407E+018,63,1.64951437509407E+018,r1000913c5/base_footprint,0,1.64951437509407E+018,v/m1vw10zy74w/map,-8.67178455443,-1.15468197916,0,0,0,-0.701186325819,0.712978075739,0,61.6705322266,13.7792100906,42.9924507141,91.965675354,41.9263801575,41.9263801575,61.6705322266,61.6705322266,33.8117599487,0.196125715971,0,0.00129622849636,0.0720204040408,0.00297058024444,0.00167435186449,4.26627063751,0.236417680979,2.80281829834,0.0295754224062,3.60502243042,0.0791766196489,0.924659729004,0.0266193151474,18.04548072811,94.76849365234,45.53140258792,34.736419677704,941
1.64951437519471E+018,64,1.64951437519471E+018,r1000913c5/base_footprint,0,1.64951437519471E+018,v/m1vw10zy74w/map,-8.65279921274,-1.31926800239,0,0,0,-0.717977980794,0.696065815203,0,62.0428695679,16.7667064667,43.4880447388,91.9326171875,41.7779579163,41.7779579163,62.0428695679,62.0428695679,25.3877353668,0.208708763123,0,0.000845402188133,0.0664135217667,0.0134918363765,0.0143372388557,-0.680511474609,-0.0423040688038,3.22525024414,0.0338936783373,-0.411373138428,-0.00994457583874,10.915643692,0.30067846179,16.086194992091,95.15786743164,41.366584777872,36.3033790588,316
1.64951437529426E+018,65,1.64951437529426E+018,r1000913c5/base_footprint,0,1.64951437529426E+018,v/m1vw10zy74w/map,-8.65279921274,-1.31926800239,0,0,0,-0.717977980794,0.696065815203,0,62.0320625305,17.8839321136,43.6392059326,91.9326171875,41.7739868164,41.7739868164,62.0320625305,62.0320625305,25.5393314362,0.156214773655,0,0.000243187561864,0.0610265769064,0.018139205873,0.0183823928237,-1.79773712158,-0.111756518483,3.22525024414,0.0338936783373,-0.407402038574,-0.00984857790172,10.7640476227,0.296502649784,16.08619499202,95.15786743164,41.366584777826,36.3033790589,316
1.64951437539459E+018,66,1.64951437539459E+018,r1000913c5/base_footprint,0,1.64951437539459E+018,v/m1vw10zy74w/map,-8.67095378742,-1.38203067486,0,0,0,-0.720218639905,0.693747151874,0,61.7841186523,14.807302475,43.7268218994,91.7641143799,41.7034873962,41.7034873962,61.7841186523,61.7841186523,28.6343574524,0.20318287611,0,0.000117895295261,0.0550308339298,0.0182537436485,0.0183716397732,0.946994781494,0.0601102523506,3.40139007568,0.0357418395579,-0.474273681641,-0.0115033406764,7.64453125,0.210715696216,15.754297256494,95.16550445558,41.229213714559,36.2788887024,324
1.64951437829435E+018,67,1.64951437829435E+018,r1000913c5/base_footprint,0,1.64951437829435E+018,v/m1vw10zy74w/map,-8.67319091844,-2.23478898095,0,0,0,-0.71641147302,0.69767800691,0,61.7886009216,16.806722641,43.6699256897,92.6773529053,41.7838516235,41.7838516235,61.7886009216,61.7886009216,32.709236145,0.250803291798,0,0.000289044925012,0.00247630337253,0.0037309571635,0.00402000220492,-4.70213603973,-0.388459026814,2.73661804199,0.0286815240979,-1.33560562134,-0.0330201126635,-4.00517845154,-0.139533534646,12.10458660127,95.41397094729,40.44824600216,28.70405769346,206
1.64951438079409E+018,68,1.64951438079409E+018,r1000913c5/base_footprint,0,1.64951438079409E+018,v/m1vw10zy74w/map,-8.6756601227,-2.34808902448,0,0,0,-0.711924262296,0.702256252912,0,62.7123184204,14.7753591537,43.3057289124,92.7601242065,41.694442749,41.694442749,62.7123184204,62.7123184204,15.4147424698,1.35774362087,0,0.00121303426567,0.086318962276,0.00182165275328,0.000608618545812,-3.18268585205,-0.274542868137,2.6515045166,0.0277901608497,-1.31357955933,-0.0325297527015,12.1201581955,0.440174400806,11.59267330165,95.4116287231,40.38086318967,27.5349006653,181
1.64951438089533E+018,69,1.64951438089533E+018,r1000913c5/base_footprint,0,1.64951438089534E+018,v/m1vw10zy74w/map,-8.6756601227,-2.34808902448,0,0,0,-0.711924262296,0.702256252912,0,61.9331741333,14.5969495773,42.91173172,92.7601242065,41.4657402039,41.4657402039,61.9331741333,61.9331741333,26.9693393707,1.42001831532,0,0.00123418006115,0.125710591674,0.00143153988756,0.000197359768208,-3.00427627563,-0.259153008461,2.6515045166,0.0277901608497,-1.08487701416,-0.0268661174923,0.565561294556,0.0205397978425,11.59267330167,95.4116287231,40.38086318974,27.534900665256,181
1.64951438099458E+018,70,1.64951438099458E+018,r1000913c5/base_footprint,0,1.64951438099458E+018,v/m1vw10zy74w/map,-8.6756601227,-2.34808902448,0,0,0,-0.711924262296,0.702256252912,0,62.1499061584,16.3398685455,42.91173172,92.7601242065,41.2087936401,41.2087936401,62.1499061584,62.1499061584,20.2931041718,1.35739588737,0,0.00123751093633,0.137127324939,0.00133361248299,9.61014811764E-05,-4.74719524384,-0.409499615431,2.6515045166,0.0277901608497,-0.827930450439,-0.0205030404031,7.24179649353,0.263004273176,11.59267330166,95.4116287231,40.380863189661,27.53490066533,181
1.64951438109445E+018,71,1.64951438109445E+018,r1000913c5/base_footprint,0,1.64951438109445E+018,v/m1vw10zy74w/map,-8.6756601227,-2.34808902448,0,0,0,-0.711924262296,0.702256252912,0,62.1896514893,11.9825706482,42.91173172,92.7601242065,41.0723609924,41.0723609924,62.1896514893,62.1896514893,18.1041965485,1.30678701401,0,0.00123972108122,0.148421272635,0.00123492954299,4.7915173127E-06,-0.389897346497,-0.0336330831051,2.6515045166,0.0277901608497,-0.691497802734,-0.0171243939549,9.43070411682,0.342500030994,11.592673301703,95.4116287231,40.380863189666,27.53490066532,181
1.64951438119518E+018,72,1.64951438119518E+018,r1000913c5/base_footprint,0,1.64951438119518E+018,v/m1vw10zy74w/map,-8.6756601227,-2.34808902448,0,0,0,-0.711924262296,0.702256252912,0,61.952911377,13.7254905701,42.91173172,92.7601242065,40.9362335205,40.9362335205,61.952911377,61.952911377,20.8953647614,1.4606345892,0,0.0013466803357,0.178798928857,0.000144244666444,0.00149092497304,-2.13281726837,-0.183979764581,2.6515045166,0.0277901608497,-0.555370330811,-0.0137533051893,6.63953590393,0.241131648421,11.59267330173,95.4116287231,40.380863189689,27.53490066533,181
1.64951438129505E+018,73,1.64951438129505E+018,r1000913c5/base_footprint,0,1.64951438129505E+018,v/m1vw10zy74w/map,-8.6756601227,-2.34808902448,0,0,0,-0.711924262296,0.702256252912,0,61.7367668152,12.8540306091,42.91173172,92.7601242065,40.8203887939,40.8203887939,61.7367668152,61.7367668152,23.5348834991,1.41230750084,0,0.00130881310906,0.187453821301,0.000769083097111,0.00207789614797,-1.26135730743,-0.108806423843,2.6515045166,0.0277901608497,-0.439525604248,-0.0108845029026,4.00001716614,0.145270809531,11.59267330167,95.4116287231,40.380863189652,27.53490066524,181
1.64951438139479E+018,74,1.64951438139479E+018,r1000913c5/base_footprint,0,1.64951438139479E+018,v/m1vw10zy74w/map,-8.6756601227,-2.34808902448,0,0,0,-0.711924262296,0.702256252912,0,61.8324699402,18.3494300842,42.91173172,92.7601242065,40.750289917,40.750289917,61.8324699402,61.8324699402,21.0551166534,1.35908544064,0,0.0012821808923,0.201140075922,0.00046351965284,0.00174570048694,-6.75675678253,-0.582847177982,2.6515045166,0.0277901608497,-0.369426727295,-0.00914855953306,6.47978401184,0.235329851508,11.59267330167,95.4116287231,40.380863189705,27.53490066524,181
1.64951438149414E+018,75,1.64951438149414E+018,r1000913c5/base_footprint,0,1.64951438149414E+018,v/m1vw10zy74w/map,-8.6756601227,-2.34808902448,0,0,0,-0.711924262296,0.702256252912,0,61.9964179993,10.6247148514,42.91173172,92.7601242065,40.5837898254,40.5837898254,61.9964179993,61.9964179993,16.3058738708,1.43072783947,0,0.000435927911894,0.217954918742,0.00965162459761,0.00921569671482,0.967958450317,0.0834974348545,2.6515045166,0.0277901608497,-0.202926635742,-0.00502531696111,11.2290267944,0.407810688019,11.592673301717,95.4116287231,40.380863189658,27.5349006652,181
1.64951438159409E+018,76,1.64951438159409E+018,r1000913c5/base_footprint,0,1.64951438159409E+018,v/m1vw10zy74w/map,-8.6756601227,-2.34808902448,0,0,0,-0.711924262296,0.702256252912,0,62.1459236145,12.2036876678,42.91173172,92.7601242065,40.5395889282,40.5395889282,62.1459236145,62.1459236145,13.1374025345,1.24149310589,0,0.000503114773892,0.218690365553,0.0180475711823,0.0175444558263,-0.61101436615,-0.0527069419622,2.6515045166,0.0277901608497,-0.158725738525,-0.00393071677536,14.3974981308,0.522881805897,11.59267330165,95.4116287231,40.380863189675,27.5349006653,181
1.64951438169421E+018,77,1.64951438169421E+018,r1000913c5/base_footprint,0,1.64951438169421E+018,v/m1vw10zy74w/map,-8.67061833233,-2.21343076621,0,0,0,-0.725498108062,0.688224160575,0,62.1519546509,14.8936166763,42.91173172,93.8614654541,40.44165802,40.44165802,62.1519546509,62.1519546509,15.9360389709,1.53774082661,0,0.000698136573192,0.209730193019,0.0274074506015,0.0267093144357,-2.78903007507,-0.230411008,1.55250549316,0.0162712596357,0.00658798217773,0.000162874363014,12.7680187225,0.444815814495,12.10458660123,95.41397094726,40.4482460021777,28.7040576934,206
1.6495143817943E+018,78,1.6495143817943E+018,r1000913c5/base_footprint,0,1.6495143817943E+018,v/m1vw10zy74w/map,-8.67061833233,-2.21343076621,0,0,0,-0.725498108062,0.688224160575,0,61.6654167175,11.9763011932,42.91173172,93.8614654541,40.4126014709,40.4126014709,61.6654167175,61.6654167175,24.3798542023,1.34078204632,0,0.000987404258922,0.19069942832,0.0227180141956,0.0217306111008,0.12828540802,0.0105980820954,1.55250549316,0.0162712596357,0.03564453125,0.000881237967405,4.32420349121,0.150647819042,12.10458660122,95.41397094726,40.44824600215,28.70405769351,206
1.64951438189544E+018,79,1.64951438189544E+018,r1000913c5/base_footprint,0,1.64951438189544E+018,v/m1vw10zy74w/map,-8.66796477963,-2.11757465726,0,0,0,-0.72297215175,0.690877172726,0,62.1380729675,7.56302499771,42.91173172,94.304473877,40.4270553589,40.4270553589,62.1380729675,62.1380729675,17.6230163574,1.51600921154,0,0.00222094566561,0.158498674631,0.0333151817322,0.0310942344368,4.9841542244,0.397233039141,1.04467773438,0.0109563404694,0.0867156982422,0.00214040046558,12.2963809967,0.410983592272,12.54717922211,95.34915161138,40.5137710571422,29.9193973541,242
1.64951438199547E+018,80,1.64951438199547E+018,r1000913c5/base_footprint,0,1.64951438199547E+018,v/m1vw10zy74w/map,-8.66454192613,-2.01722006568,0,0,0,-0.72390921733,0.689895242094,0,62.3388290405,6.89801120758,42.3546180725,94.4570159912,40.5339889526,40.5339889526,62.3388290405,62.3388290405,15.7134189606,1.30772268772,0,0.000484845746541,0.135782077909,0.0200015716255,0.0195167250931,5.86234664917,0.459418684244,0.88646697998,0.00929761491716,0.0918045043945,0.00225975899957,15.1303939819,0.490548759699,12.76035785675,95.34348297118,40.6257934569945,30.8438129425,278
1.64951438209483E+018,81,1.64951438209483E+018,r1000913c5/base_footprint,0,1.64951438209484E+018,v/m1vw10zy74w/map,-8.66578821527,-2.02188981517,0,0,0,-0.723571227529,0.690249721979,0,61.8123435974,5.70934247971,41.6436195374,94.5776138306,40.6151504517,40.6151504517,61.8123435974,61.8123435974,26.5008430481,1.20529878139,0,0.000361555226846,0.11944784224,0.0203711874783,0.020009631291,7.05101537704,0.552571892738,0.765869140625,0.0080327372998,0.0106430053711,0.000261976558249,4.34296989441,0.140805214643,12.76035785675,95.343482971225,40.6257934570711,30.84381294251,278
1.64951438219504E+018,82,1.64951438219504E+018,r1000913c5/base_footprint,0,1.64951438219504E+018,v/m1vw10zy74w/map,-8.65966721117,-1.9153214276,0,0,0,-0.723821599292,0.689987168285,0,61.8392295837,6.23617887497,40.858833313,94.5244445801,40.7829589844,40.7829589844,61.8392295837,61.8392295837,27.6378269196,1.03078472614,0,0.000129492997075,0.111460477114,0.0221938919276,0.0220643989742,6.78937578201,0.521235048771,0.798789978027,0.00837980397046,-0.111763000488,-0.00274796434678,4.03505325317,0.127397730947,13.02555465698,95.323234558127,40.671195983912,31.67288017277,304
1.64951438229433E+018,83,1.64951438229433E+018,r1000913c5/base_footprint,0,1.64951438229433E+018,v/m1vw10zy74w/map,-8.66199761994,-1.91926940195,0,0,0,-0.723604533421,0.690214806572,0,61.568862915,6.97674417496,40.858833313,94.7456207275,40.9953613281,40.9953613281,61.568862915,61.568862915,35.5946006775,0.704936087132,0,0.000170977771631,0.104451596737,0.0226281583309,0.0227991361171,6.04881048203,0.464380264282,0.577613830566,0.00605952832848,-0.324165344238,-0.00797039084136,-3.92172050476,-0.123819507658,13.02555465699,95.323234558066,40.671195983862,31.67288017274,304
1.64951438239408E+018,84,1.64951438239408E+018,r1000913c5/base_footprint,0,1.64951438239408E+018,v/m1vw10zy74w/map,-8.6580205816,-1.81138073458,0,0,0,-0.723063451197,0.690781619286,0,61.4973869324,13.5472373962,40.1228179932,94.8534698486,41.2640037537,41.2640037537,61.4973869324,61.4973869324,40.1707458496,0.943950533867,0,0.000183007272426,0.0975130051374,0.0232329964638,0.0234160032123,0.0756959915161,0.0055565116927,0.456764221191,0.00479239411652,-0.49450302124,-0.0121292388067,-7.52988815308,-0.230689033866,13.6229333877161,95.310234069791,40.76950073246,32.64085769652,307
1.64951438249408E+018,85,1.64951438249408E+018,r1000913c5/base_footprint,0,1.64951438249409E+018,v/m1vw10zy74w/map,-8.6580205816,-1.81138073458,0,0,0,-0.723063451197,0.690781619286,0,62.0749588013,13.7254905701,40.1228179932,94.8534698486,41.5509376526,41.5509376526,62.0749588013,62.0749588013,32.873336792,0.659075021744,0,0.000256815808825,0.0866852402687,0.0234220288694,0.0236788447946,-0.102557182312,-0.00752827432007,0.456764221191,0.00479239411652,-0.781436920166,-0.0191671941429,-0.232479095459,-0.00712233409286,13.622933387788,95.310234069791,40.769500732434,32.640857696541,307
1.64951438259444E+018,86,1.64951438259444E+018,r1000913c5/base_footprint,0,1.64951438259444E+018,v/m1vw10zy74w/map,-8.65416349591,-1.69195066611,0,0,0,-0.722701618075,0.691160163226,0,61.9618530273,15.7279930115,39.6719551086,94.6611633301,41.6369781494,41.6369781494,61.9618530273,61.9618530273,35.1462097168,0.907564163208,0,0.000272950681392,0.0811766013503,0.0234058946371,0.0236788447946,-0.998908042908,-0.0678187459707,0.588310241699,0.00617651967332,-0.678081512451,-0.0165551695973,-0.480113983154,-0.0138496700674,14.729084968592,95.249473571799,40.958896636949,34.666095733646,310
1.64951438269463E+018,87,1.64951438269463E+018,r1000913c5/base_footprint,0,1.64951438269464E+018,v/m1vw10zy74w/map,-8.65416349591,-1.69195066611,0,0,0,-0.722701618075,0.691160163226,0,61.6970558167,19.8998756409,39.4491081238,94.6611633301,41.7222175598,41.7222175598,61.6970558167,61.6970558167,40.8330993652,0.350814759731,0,0.00027071594377,0.0729603543878,0.0234081298113,0.0236788447946,-5.1707906723,-0.351059883833,0.588310241699,0.00617651967332,-0.763320922852,-0.0186362676322,-6.16700363159,-0.177897259593,14.7290849686,95.249473571799,40.958896636948,34.66609573361,310
1.6495143827947E+018,88,1.6495143827947E+018,r1000913c5/base_footprint,0,1.6495143827947E+018,v/m1vw10zy74w/map,-8.65031271353,-1.58398865654,0,0,0,-0.726357982346,0.687316580247,0,62.0208778381,16.7667064667,39.4491081238,94.7802429199,41.7241439819,41.7241439819,62.0208778381,62.0208778381,35.4538040161,0.576642870903,0,0.000264560192591,0.0697391405702,0.0234142858535,0.0236788447946,-1.62633800507,-0.107417330146,0.43074798584,0.00452414155006,-0.691379547119,-0.016849450767,0.0681915283203,0.00191969866864,15.14036846163,95.21099090574,41.032764434781,35.5219955444203,311
1.64951438289489E+018,89,1.64951438289489E+018,r1000913c5/base_footprint,0,1.64951438289489E+018,v/m1vw10zy74w/map,-8.65031271353,-1.58398865654,0,0,0,-0.726357982346,0.687316580247,0,61.9531402588,15.0326795578,39.5772285461,94.7802429199,41.6197853088,41.6197853088,61.9531402588,61.9531402588,35.5460243225,0.619759440422,0,0.000266330316663,0.0603885874152,0.023412514478,0.0236788447946,0.107688903809,0.00711270049214,0.43074798584,0.00452414155006,-0.587020874023,-0.0143061494455,-0.0240287780762,-0.000676447874866,15.140368461609,95.21099090574,41.032764434777,35.5219955444238,311
1.64951438299516E+018,90,1.64951438299516E+018,r1000913c5/base_footprint,0,1.64951438299516E+018,v/m1vw10zy74w/map,-8.64138271385,-1.47267699851,0,0,0,-0.72462819644,0.68914002708,0,61.8738327026,18.3673477173,39.5772285461,95.26953125,41.64012146,41.64012146,61.8738327026,61.8738327026,38.954624176,0.48696783185,0,0.000404155667638,0.052977245301,0.0232746899128,0.0236788447946,-2.75193691254,-0.176232114434,-0.0882568359375,-0.000927250017412,-0.489765167236,-0.0119018452242,-2.71418380737,-0.0748937875032,15.61541080476,95.1812744140625,41.150356292764,36.24044036863,309
1.6495143830943E+018,91,1.6495143830943E+018,r1000913c5/base_footprint,0,1.6495143830943E+018,v/m1vw10zy74w/map,-8.64138271385,-1.47267699851,0,0,0,-0.72462819644,0.68914002708,0,61.6329231262,16.7667064667,40.2417182922,95.26953125,41.6094436646,41.6094436646,61.6329231262,61.6329231262,42.9597206116,0.344319880009,0,0.000394924602006,0.0468616932631,0.0232839211822,0.0236788447946,-1.15129566193,-0.0737281665206,-0.0882568359375,-0.000927250017412,-0.459087371826,-0.0111563401297,-6.71928024292,-0.185408353806,15.61541080477,95.1812744140625,41.150356292774,36.24044036868,309
1.64951438319435E+018,92,1.64951438319435E+018,r1000913c5/base_footprint,0,1.64951438319435E+018,v/m1vw10zy74w/map,-8.63581435999,-1.35920404383,0,0,0,-0.72519285108,0.688545807294,0,61.7726669312,17.9784584045,40.2417182922,95.2962799072,41.5731468201,41.5731468201,61.7726669312,61.7726669312,40.1485748291,0.453411519527,0,0.000301307736663,0.0394515953958,0.0227988343686,0.0231001414359,-2.22416114807,-0.141178056598,-0.13077545166,-0.00137418962549,-0.343933105469,-0.00834197551012,-3.86968612671,-0.106664955616,15.75429725643,95.16550445554,41.229213714631,36.27888870239,324
1.64951438329421E+018,93,1.64951438329421E+018,r1000913c5/base_footprint,0,1.64951438329421E+018,v/m1vw10zy74w/map,-8.63030755943,-1.2397699469,0,0,0,-0.725443934359,0.688281263802,0,61.7090034485,19.9346408844,40.9177627563,95.4133987427,41.5234718323,41.5234718323,61.7090034485,61.7090034485,41.1796684265,0.358915507793,0,0.000311088515446,0.0348992049694,0.0227890536189,0.0231001414359,-3.18850326538,-0.190402314067,-0.292541503906,-0.00307547161356,1.03964233398,0.0244258996099,-5.67722702026,-0.15991088748,16.74613761902,95.120857238794,42.56311416628,35.50244140624,384
1.64951438339465E+018,94,1.64951438339465E+018,r1000913c5/base_footprint,0,1.64951438339465E+018,v/m1vw10zy74w/map,-8.63030755943,-1.2397699469,0,0,0,-0.725443934359,0.688281263802,0,61.6823692322,15.7279930115,42.0263824463,95.4133987427,41.4519729614,41.4519729614,61.6823692322,61.6823692322,40.886882782,0.276814639568,0,0.000312687683618,0.0289031416178,0.0227874536067,0.0231001414359,1.01814460754,0.0607987716794,-0.292541503906,-0.00307547161356,1.11114120483,0.0261057317257,-5.38444137573,-0.151663973927,16.74613761904,95.120857238794,42.56311416623,35.50244140627,384
1.64951438349529E+018,95,1.64951438349529E+018,r1000913c5/base_footprint,0,1.64951438349529E+018,v/m1vw10zy74w/map,-8.6322553155,-1.12282201012,0,0,0,-0.726548573419,0.687115107142,0,61.8287086487,22.1209602356,43.3350486755,95.3602218628,41.5145225525,41.5145225525,61.8287086487,61.8287086487,38.7369194031,0.104288116097,0,0.000305480120005,0.0345695987344,0.0227946620435,0.0231001414359,-4.07843971252,-0.226046010852,-0.613670349121,-0.00647696759552,4.02629852295,0.0884107574821,-3.92129516602,-0.112630330026,18.04252052308,94.746551513679,45.54082107545,34.81562423708,957
1.64951438359479E+018,96,1.64951438359479E+018,r1000913c5/base_footprint,0,1.64951438359479E+018,v/m1vw10zy74w/map,-8.6322553155,-1.12282201012,0,0,0,-0.726548573419,0.687115107142,0,61.7968597412,22.4211425781,44.5310707092,95.3602218628,41.6079978943,41.6079978943,61.7968597412,61.7968597412,40.3197174072,0.218901216984,0,0.000389730877941,0.0862323865294,0.0239104703069,0.0243002008647,-4.37862205505,-0.242683500051,-0.613670349121,-0.00647696759552,3.93282318115,0.0863581970334,-5.50409317017,-0.158092617989,18.04252052305,94.746551513679,45.54082107545,34.81562423703,957
1.64951438369501E+018,97,1.64951438369501E+018,r1000913c5/base_footprint,0,1.64951438369501E+018,v/m1vw10zy74w/map,-8.61811691409,-1.02019740351,0,0,0,-0.725021144624,0.688726607478,0,62.4943618774,21.8548736572,45.70262146,95.6837310791,41.7566871643,41.7566871643,62.4943618774,62.4943618774,30.5351676941,0.325660973787,0,7.32336920919E-05,0.13232833147,0.0201497152448,0.0200764816254,-3.67354774475,-0.202050596476,-1.04112243652,-0.0110005680472,4.23495101929,0.0920808911324,4.29455184937,0.123301364481,18.18132591245,94.64260864258,45.99163818359,34.82971954347,1090
1.64951438389405E+018,98,1.64951438389405E+018,r1000913c5/base_footprint,0,1.64951438389405E+018,v/m1vw10zy74w/map,-8.61811691409,-1.02019740351,0,0,0,-0.725021144624,0.688726607478,0,62.4021453857,17.2113285065,46.8293914795,95.6837310791,41.9002761841,41.9002761841,62.4021453857,62.4021453857,33.7458190918,0.291267931461,0,0.000457339745481,0.147279679775,0.010137825273,0.00968048535287,0.969997406006,0.0533513016999,-1.04112243652,-0.0110005680472,4.09136199951,0.0889588221908,1.08390045166,0.0311199873686,18.181325912506,94.64260864258,45.99163818361,34.82971954346,1090
1.64951438399413E+018,99,1.64951438399413E+018,r1000913c5/base_footprint,0,1.64951438399413E+018,v/m1vw10zy74w/map,-8.61811691409,-1.02019740351,0,0,0,-0.725021144624,0.688726607478,0,62.5120849609,24.7404842377,46.8293914795,95.6837310791,42.1374549866,42.1374549866,62.5120849609,62.5120849609,34.3284034729,0.239000111818,0,0.000470110680908,0.151816740632,0.00481866067275,0.00434854999185,-6.5591583252,-0.3607634902,-1.04112243652,-0.0110005680472,3.85418319702,0.0838018283248,0.501316070557,0.0143933417276,18.1813259125,94.64260864258,45.99163818362,34.829719543457,1090
1.64951438409675E+018,100,1.64951438409675E+018,r1000913c5/base_footprint,0,1.64951438409675E+018,v/m1vw10zy74w/map,-8.61402807015,-0.929420427121,0,0,0,-0.724015916062,0.689783265445,0,63.2334022522,15.0818223953,46.8293914795,95.7612533569,42.2733345032,42.2733345032,63.2334022522,63.2334022522,23.0912914276,0.289825618267,0,0.000412491586758,0.152838379145,0.00266361772083,0.00225112610497,3.02431201935,0.167032450438,-1.15686798096,-0.0122284814715,3.88171768188,0.0841016843915,11.7237071991,0.336742997169,18.10613441465,94.60438537594,46.15505218508,34.8149986267,1169
