%time,field.header.seq,field.header.stamp,field.header.frame_id,field.pose.header.seq,field.pose.header.stamp,field.pose.header.frame_id,field.pose.pose.position.x,field.pose.pose.position.y,field.pose.pose.position.z,field.pose.pose.orientation.x,field.pose.pose.orientation.y,field.pose.pose.orientation.z,field.pose.pose.orientation.w,field.label,field.main_output,field.scan_score,field.pose_score,field.cov_score,field.lhood_map_score,field.lhood_robot_score,field.lhood_map_score_all,field.lhood_robot_score_all,field.point_angle_diff,field.average_orientation,field.map_average_orientation,field.sensor_div,field.odom_div_x,field.odom_div_w,field.imu_div_w,field.kdtree_div,field.kdtree_div_p,field.cov_div,field.cov_div_p,field.likelihood_div,field.likelihood_div_p,field.normal_diff_div,field.normal_diff_div_p,field.kdtree_average,field.cov_average,field.likelihood_average,field.normal_diff_average,field.map_update_count
1.64951394913626E+018,0,1.64951394913626E+018,r1000913c5/base_footprint,0,1.64951394913626E+018,v/m1vw10zy74w/map,-15.9863333339,-0.629182049763,0,0,0,-0.825936063443,0.563763797263,0,67.0047683716,41.1764717102,100,94.4691390991,49.9140625,49.9140625,67.0047683716,67.0047683716,33.0748901367,0.397612899542,0,0.00120028550737,0.873590767384,0.0285259094089,0.0297261960804,-8.31508636475,-0.253035187721,0.171371459961,0.00181076221634,-0.284503936768,-0.00573255028576,-16.4015884399,-0.983703672886,32.86138534545,94.640510559061,49.629558563232,16.6733016968,1625
1.64951394923563E+018,1,1.64951394923563E+018,r1000913c5/base_footprint,0,1.64951394923563E+018,v/m1vw10zy74w/map,-15.9856923652,-0.624222659334,0,0,0,-0.799391995913,0.600809817555,0,68.1462554932,48.6631011963,40.5953292847,94.8788757324,50.7117462158,50.7117462158,68.1462554932,68.1462554932,22.6182403564,0.182960137725,0,0.00204274151474,0.714617788792,0.0471115373075,0.0491542816162,-15.8017158508,-0.480859696865,-0.23836517334,-0.00251863780431,-1.08218765259,-0.0218053050339,-5.94493865967,-0.356554389,32.8613853455,94.64051055906,49.62955856321,16.67330169673,1625
1.64951394933506E+018,2,1.64951394933506E+018,r1000913c5/base_footprint,0,1.64951394933506E+018,v/m1vw10zy74w/map,-15.9808922946,-0.627040195959,0,0,0,-0.765201523803,0.643790826255,0,68.6748657227,43.7340164185,40.5138893127,94.8640899658,51.4431800842,51.4431800842,68.6748657227,68.6748657227,20.9494800568,0.281531721354,0,0.00130904314574,0.576778709888,0.0605168789625,0.0618259236217,-10.9865379333,-0.335492640734,-0.225547790527,-0.00238325516693,-1.79336547852,-0.0361202843487,-4.10152626038,-0.243443578482,32.7474784852,94.638542175273,49.64981460568,16.84795379642,1643
1.64951394943516E+018,3,1.64951394943516E+018,r1000913c5/base_footprint,0,1.64951394943516E+018,v/m1vw10zy74w/map,-15.9808922946,-0.627040195959,0,0,0,-0.765201523803,0.643790826255,0,69.0274963379,40.1960792542,41.7041969299,94.8640899658,52.2080307007,52.2080307007,69.0274963379,69.0274963379,22.8625278473,0.217217847705,0,0.00124087603763,0.399107843637,0.0697353035212,0.0709761828184,-7.44860076904,-0.227455705404,-0.225547790527,-0.00238325516693,-2.55821609497,-0.0515251904726,-6.0145740509,-0.356991380453,32.74747848516,94.638542175273,49.64981460573,16.8479537964,1643
1.64951395873577E+018,4,1.64951395873577E+018,r1000913c5/base_footprint,0,1.64951395873577E+018,v/m1vw10zy74w/map,-15.9806488044,-0.632389055524,0,0,0,-0.726539884464,0.687124294638,0,69.5286636353,43.5676727295,42.5827064514,94.5659332275,52.7628364563,52.7628364563,69.5286636353,69.5286636353,18.760055542,0.168733522296,0,3.66497283721E-06,0.0186681132764,0.00677343364805,0.00677709840238,-10.8201942444,-0.330413043499,0.0726089477539,0.000767223886214,-3.11302185059,-0.0626995638013,-1.91210174561,-0.113491632044,32.7474784851,94.6385421752539,49.64981460571,16.84795379639,1643
1.64951395893566E+018,5,1.64951395893566E+018,r1000913c5/base_footprint,0,1.64951395893566E+018,v/m1vw10zy74w/map,-15.9806488044,-0.632389055524,0,0,0,-0.726539884464,0.687124294638,0,69.1171951294,26.8179721832,42.7434082031,94.5659332275,53.0967903137,53.0967903137,69.1171951294,69.1171951294,29.7732391357,0.21132349968,0,4.68619582534E-05,0.042302813381,0.0155798988417,0.0156267601997,5.92950630188,0.181067571044,0.0726089477539,0.000767223886214,-3.44697570801,-0.0694257542491,-12.9252853394,-0.767172396183,32.74747848508,94.6385421752539,49.64981460569,16.8479537963,1643
1.64951395903512E+018,6,1.64951395903512E+018,r1000913c5/base_footprint,0,1.64951395903513E+018,v/m1vw10zy74w/map,-15.9806488044,-0.632389055524,0,0,0,-0.726539884464,0.687124294638,0,69.4674453735,29.0382823944,42.7434082031,94.5659332275,53.4117126465,53.4117126465,69.4674453735,69.4674453735,26.8698196411,0.216157019138,0,3.0748753943E-06,0.0643399134278,0.0245056897402,0.024502614513,3.7091960907,0.11326661706,0.0726089477539,0.000767223886214,-3.76189804077,-0.0757686197758,-10.0218658447,-0.594841718674,32.7474784851,94.6385421752539,49.64981460573,16.8479537964,1643
1.64951395913518E+018,7,1.64951395913518E+018,r1000913c5/base_footprint,0,1.64951395913518E+018,v/m1vw10zy74w/map,-15.9806488044,-0.632389055524,0,0,0,-0.726539884464,0.687124294638,0,69.725769043,27.5294113159,42.7434082031,94.5659332275,53.6617431641,53.6617431641,69.725769043,69.725769043,24.9203262329,0.238789141178,0,0.000205982141779,0.0972138419747,0.0428829044104,0.0430888868868,5.21806716919,0.159342557192,0.0726089477539,0.000767223886214,-4.01192855835,-0.0808045044541,-8.07237243652,-0.479130744934,32.74747848509,94.6385421752539,49.64981460575,16.84795379638,1643
1.64951395923524E+018,8,1.64951395923524E+018,r1000913c5/base_footprint,0,1.64951395923524E+018,v/m1vw10zy74w/map,-15.9806488044,-0.632389055524,0,0,0,-0.726539884464,0.687124294638,0,69.87890625,28.8645687103,42.7434082031,94.5659332275,53.7808380127,53.7808380127,69.87890625,69.87890625,23.4501228333,0.265149950981,0,0.000290256401058,0.0995031222701,0.0463181957603,0.0460279397666,3.88290977478,0.118571259081,0.0726089477539,0.000767223886214,-4.13102340698,-0.0832031965256,-6.60216903687,-0.391867697239,32.74747848508,94.6385421752539,49.64981460572,16.84795379643,1643
1.64951395933512E+018,9,1.64951395933512E+018,r1000913c5/base_footprint,0,1.64951395933512E+018,v/m1vw10zy74w/map,-15.9858302535,-0.767034355327,0,0,0,-0.718084880173,0.695955533685,0,70.0136947632,22.1719455719,42.7434082031,94.6556396484,53.6996765137,53.6996765137,70.0136947632,70.0136947632,20.4703063965,0.30727365613,0,0.000173479769728,0.0918853953481,0.0422127023339,0.0420392230153,11.7692317963,0.346753776073,0.000457763671875,4.83607163915E-06,-3.68278503418,-0.0736308246851,-3.54885101318,-0.209724932909,33.9411773682,94.6560974120719,50.01689147952,16.92145538332,1741
1.64951395943521E+018,10,1.64951395943521E+018,r1000913c5/base_footprint,0,1.64951395943521E+018,v/m1vw10zy74w/map,-15.991930215,-0.890229788617,0,0,0,-0.723863140324,0.689943587607,0,69.9476547241,20.0718460083,42.7434082031,94.4747848511,53.7197875977,53.7197875977,69.9476547241,69.9476547241,21.2251644135,0.342291980982,0,7.62900469908E-07,0.083306171,0.0444404706359,0.0444412343204,14.3766212463,0.417337030172,0.218460083008,0.00230702920817,-3.64947509766,-0.0728870034218,-4.37121963501,-0.259358853102,34.4484672546,94.693244934108,50.07031250004,16.85394477849,1734
1.64951395953531E+018,11,1.64951395953531E+018,r1000913c5/base_footprint,0,1.64951395953532E+018,v/m1vw10zy74w/map,-15.991930215,-0.890229788617,0,0,0,-0.723863140324,0.689943587607,0,70.2511672974,23.3511581421,43.4362945557,94.4747848511,53.8311424255,53.8311424255,70.2511672974,70.2511672974,16.9645175934,0.36690300703,0,6.18718913756E-05,0.0771739259362,0.0443187318742,0.0442568585277,11.0973091125,0.322142332792,0.218460083008,0.00230702920817,-3.76082992554,-0.0751109719276,-0.110572814941,-0.00656064879149,34.4484672546,94.693244934108,50.07031249996,16.853944778459,1734
1.64951395963516E+018,12,1.64951395963516E+018,r1000913c5/base_footprint,0,1.64951395963516E+018,v/m1vw10zy74w/map,-16.0017252827,-1.01672386799,0,0,0,-0.729668081156,0.683801499956,0,70.0438613892,25.7918548584,44.0519104004,94.4019165039,53.9611053467,53.9611053467,70.0438613892,70.0438613892,21.8373088837,0.339331716299,0,0.000498525856528,0.0712620168924,0.0342848114669,0.0337862856686,9.99322128296,0.279256671667,0.270179748535,0.00285384780727,-3.53535842896,-0.0701101869345,-5.88199901581,-0.368654638529,35.78507614136,94.672096252435,50.42574691774,15.95530986789,1820
1.64951395973524E+018,13,1.64951395973524E+018,r1000913c5/base_footprint,0,1.64951395973524E+018,v/m1vw10zy74w/map,-16.0017252827,-1.01672386799,0,0,0,-0.729668081156,0.683801499956,0,70.0103378296,30.2832241058,44.1458358765,94.4019165039,54.0205497742,54.0205497742,70.0103378296,70.0103378296,23.0827083588,0.313219219446,0,0.000944006780628,0.0649798288941,0.0137909259647,0.0128469187766,5.50185203552,0.153747111559,0.270179748535,0.00285384780727,-3.59480285645,-0.0712890326977,-7.12739849091,-0.446710139513,35.78507614132,94.672096252435,50.42574691775,15.95530986789,1820
1.64951395983522E+018,14,1.64951395983522E+018,r1000913c5/base_footprint,0,1.64951395983522E+018,v/m1vw10zy74w/map,-16.0109304474,-1.13132509854,0,0,0,-0.73655661472,0.67637589646,0,69.8779373169,35.1211090088,44.3278579712,94.2825241089,54.1707000732,54.1707000732,69.8779373169,69.8779373169,26.6577129364,0.311007142067,0,0.00012816733215,0.0593496747315,0.00840881466866,0.00853698235005,1.67841720581,0.0456097498536,0.483818054199,0.0051053785719,-3.57988357544,-0.0707615315914,-11.88534832,-0.804566383362,36.79952621461,94.766342163099,50.59081649776,14.7723646164,1566
1.64951395993513E+018,15,1.64951395993513E+018,r1000913c5/base_footprint,0,1.64951395993513E+018,v/m1vw10zy74w/map,-16.011047272,-1.14402992446,0,0,0,-0.735960302336,0.677024691858,0,70.4531326294,53.287197113,43.9244499207,94.5178985596,54.634513855,54.634513855,70.4531326294,70.4531326294,22.1608409882,0.210156187415,0,0.000622418709099,0.0504866540432,0.0136792436242,0.0130568249151,-16.4876708984,-0.448040306568,0.248443603516,0.00262164394371,-4.04369735718,-0.0799294710159,-7.38847637177,-0.5001552701,36.7995262146,94.766342163116,50.59081649782,14.77236461643,1566
1.64951396003506E+018,16,1.64951396003506E+018,r1000913c5/base_footprint,0,1.64951396003506E+018,v/m1vw10zy74w/map,-16.0164299096,-1.25682587188,0,0,0,-0.725018287031,0.688729615648,0,71.4988861084,59.0017814636,43.6968269348,95.1534042358,55.3233337402,55.3233337402,71.4988861084,71.4988861084,13.0642633438,0.141057491302,0,0.000702558609191,0.0430134497583,0.000946655869484,0.000244097260293,-21.5675392151,-0.576144695282,-0.230293273926,-0.00242610322312,-4.36876296997,-0.0857383906841,0.617433547974,0.0451284348965,37.4342422485,94.923110961874,50.95457077023,13.681696891774,1344
1.64951396013523E+018,17,1.64951396013523E+018,r1000913c5/base_footprint,0,1.64951396013523E+018,v/m1vw10zy74w/map,-16.0164299096,-1.25682587188,0,0,0,-0.725018287031,0.688729615648,0,71.0680847168,55.8823547363,43.072719574,95.1534042358,55.7968826294,55.7968826294,71.0680847168,71.0680847168,25.9331092834,0.187840864062,0,0.000824156450108,0.038620967418,0.00758036179468,0.00840451847762,-18.4481124878,-0.492813825607,-0.230293273926,-0.00242610322312,-4.84231185913,-0.0950319394469,-12.2514123917,-0.895460009575,37.4342422485,94.923110961874,50.95457077027,13.6816968917,1344
1.64951396263553E+018,18,1.64951396263553E+018,r1000913c5/base_footprint,0,1.64951396263553E+018,v/m1vw10zy74w/map,-16.0174208289,-1.74508764083,0,0,0,-0.702885782775,0.711302731875,0,71.5304870605,53.287197113,42.5045547485,94.4869995117,56.3039588928,56.3039588928,71.5304870605,71.5304870605,20.6871433258,0.186110541224,0,0.000276965933153,0.0736691132188,0.0116754230112,0.0119523890316,-3.22211074829,-0.0643584355712,0.189849853516,0.00200524041429,-0.986743927002,-0.0178379174322,-4.76596260071,-0.299347311258,50.06508636471,94.676849365216,55.317214965798,15.92118072509,865
1.64951396273547E+018,19,1.64951396273547E+018,r1000913c5/base_footprint,0,1.64951396273547E+018,v/m1vw10zy74w/map,-16.0180890878,-1.8695622511,0,0,0,-0.708563505257,0.705647049889,0,71.9656524658,73.2999572754,41.9575920105,94.7594146729,56.8267555237,56.8267555237,71.9656524658,71.9656524658,19.4810905457,0.481002271175,0,7.85247175372E-06,0.071121968329,0.0146540729329,0.0146619258448,-23.5561714172,-0.473550021648,-0.108047485352,-0.0011415311601,-1.63836669922,-0.0296868011355,-4.29719734192,-0.28301024437,49.7437858582,94.651367187548,55.18838882448,15.18389320378,888
1.6495139660358E+018,20,1.6495139660358E+018,r1000913c5/base_footprint,0,1.6495139660358E+018,v/m1vw10zy74w/map,-16.0104066491,-2.35715408394,0,0,0,-0.70831209528,0.705899409038,0,72.5232772827,72.7195205688,41.9575920105,94.629234314,57.3861083984,57.3861083984,72.5232772827,72.5232772827,15.016163826,0.459335327148,0,0.00336703914218,0.131921187043,0.0550513379276,0.0584183782339,-20.9793548584,-0.405475229025,0.0903015136719,0.000953356793616,-2.2705116272,-0.041195448488,0.0569982528687,0.00378143973649,51.7401657104,94.7195358276719,55.1155967712,15.0731620788687,470
1.64951396613526E+018,21,1.64951396613526E+018,r1000913c5/base_footprint,0,1.64951396613526E+018,v/m1vw10zy74w/map,-16.0104066491,-2.35715408394,0,0,0,-0.70831209528,0.705899409038,0,72.4218139648,51.7839927673,41.3853530884,94.629234314,57.4171714783,57.4171714783,72.4218139648,72.4218139648,17.178068161,0.766314744949,0,0.00387722812593,0.179694920778,0.0569759979844,0.060853227973,-0.0438270568848,-0.000847060640808,0.0903015136719,0.000953356793616,-2.30157470703,-0.041759043932,-2.10490608215,-0.139645949006,51.7401657104152,94.7195358276719,55.11559677127,15.07316207885,470
1.64951396623523E+018,22,1.64951396623523E+018,r1000913c5/base_footprint,0,1.64951396623523E+018,v/m1vw10zy74w/map,-16.0104066491,-2.35715408394,0,0,0,-0.70831209528,0.705899409038,0,72.439666748,52.5457229614,41.3853530884,94.629234314,57.6057052612,57.6057052612,72.439666748,72.439666748,18.8927974701,0.804392158985,0,0.00326178735122,0.205652683973,0.0618598274887,0.0651216134429,-0.805557250977,-0.0155692826957,0.0903015136719,0.000953356793616,-2.49010848999,-0.0451797433197,-3.81963539124,-0.253406375647,51.740165710423,94.7195358276719,55.11559677121,15.07316207886,470
1.64951396633534E+018,23,1.64951396633534E+018,r1000913c5/base_footprint,0,1.64951396633534E+018,v/m1vw10zy74w/map,-16.0104066491,-2.35715408394,0,0,0,-0.70831209528,0.705899409038,0,72.5778121948,50.7523956299,41.3853530884,94.629234314,57.6645126343,57.6645126343,72.5778121948,72.5778121948,17.0413188934,0.774853527546,0,0.00372716528364,0.207636341453,0.0671218261123,0.0708489865065,0.987770080566,0.0190909728408,0.0903015136719,0.000953356793616,-2.54891586304,-0.0462467260659,-1.96815681458,-0.130573585629,51.740165710466,94.7195358276719,55.11559677126,15.07316207882,470
1.64951396643514E+018,24,1.64951396643514E+018,r1000913c5/base_footprint,0,1.64951396643514E+018,v/m1vw10zy74w/map,-16.0065911254,-2.2320499818,0,0,0,-0.713610223699,0.700542967013,0,72.7219619751,55.1820716858,41.3853530884,95.0067062378,57.7782211304,57.7782211304,72.7219619751,72.7219619751,17.0335712433,0.789456307888,0,0.00362381059676,0.194397985935,0.0716559663415,0.0752797797322,-3.13477706909,-0.0602293945849,-0.25284576416,-0.00266844825819,-2.64139556885,-0.0479061976075,-1.81324481964,-0.119133107364,52.04729461671,94.75386047364,55.13682556155,15.22032642366,523
1.6495139665351E+018,25,1.6495139665351E+018,r1000913c5/base_footprint,0,1.64951396653511E+018,v/m1vw10zy74w/map,-16.0040019994,-2.1120643407,0,0,0,-0.713574784341,0.700579065597,0,72.7370910645,47.5113105774,41.3853530884,95.0925064087,57.8965530396,57.8965530396,72.7370910645,72.7370910645,18.3481330872,0.771930932999,0,0.0029650782235,0.181325182319,0.0599368549883,0.0629019364715,4.98422622681,0.0949457138777,-0.337074279785,-0.00355730834417,-2.67721939087,-0.0484833717346,-2.99962902069,-0.195434615016,52.49553680421,94.755432128915,55.21933364873,15.34850406651,587
1.64951396663554E+018,26,1.64951396663554E+018,r1000913c5/base_footprint,0,1.64951396663554E+018,v/m1vw10zy74w/map,-16.0053962817,-2.11786853864,0,0,0,-0.713616902503,0.700536163564,0,72.8509063721,43.8914031982,41.3853530884,95.2322311401,57.9392051697,57.9392051697,72.8509063721,72.8509063721,17.2630710602,0.843194842339,0,0.00358990440145,0.163026332855,0.0562944635749,0.0598843693733,8.60413360596,0.163902193308,-0.47679901123,-0.00503189116716,-2.719871521,-0.049255784601,-1.91456699371,-0.124739646912,52.49553680416,94.75543212887,55.2193336487,15.34850406649,587
1.64951396673593E+018,27,1.64951396673593E+018,r1000913c5/base_footprint,0,1.64951396673593E+018,v/m1vw10zy74w/map,-16.0053962817,-2.11786853864,0,0,0,-0.713616902503,0.700536163564,0,72.6396331787,42.9864234924,41.1820831299,95.2322311401,58.1868247986,58.1868247986,72.6396331787,72.6396331787,23.740398407,0.746445417404,0,0.00229021697305,0.141452163458,0.0538906492293,0.0561808682978,9.50911331177,0.181141361594,-0.47679901123,-0.00503189116716,-2.9674911499,-0.0537400767207,-8.39189434052,-0.546756505966,52.49553680417,94.75543212887,55.2193336487,15.34850406648,587
1.64951396683514E+018,28,1.64951396683514E+018,r1000913c5/base_footprint,0,1.64951396683514E+018,v/m1vw10zy74w/map,-16.0004165892,-1.97551849568,0,0,0,-0.714858798149,0.699268831501,0,73.1240310669,41.1764717102,41.1820831299,95.5972442627,58.438911438,58.438911438,73.1240310669,73.1240310669,19.0577259064,0.819006085396,0,0.00196301122196,0.125303179026,0.03657515347,0.0385381653905,8.44406509399,0.170172780752,-0.953689575195,-0.0100766457617,-3.27582168579,-0.0593843050301,-4.1742811203,-0.280464708805,49.62053680419,94.643554687505,55.16308975221,14.8834447861,813
1.6495139669351E+018,29,1.6495139669351E+018,r1000913c5/base_footprint,0,1.6495139669351E+018,v/m1vw10zy74w/map,-16.0004165892,-1.97551849568,0,0,0,-0.714858798149,0.699268831501,0,73.1284637451,38.860584259,40.9968414307,95.5972442627,58.572971344,58.572971344,73.1284637451,73.1284637451,20.4257850647,0.815321862698,0,0.00183300918434,0.121051259339,0.0333260856569,0.0351590961218,10.7599525452,0.21684473753,-0.953689575195,-0.0100766457617,-3.4098815918,-0.0618145503104,-5.54234027863,-0.37238290906,49.6205368042,94.643554687505,55.1630897522,14.88344478607,813
1.64951396703506E+018,30,1.64951396703506E+018,r1000913c5/base_footprint,0,1.64951396703506E+018,v/m1vw10zy74w/map,-16.0004165892,-1.97551849568,0,0,0,-0.714858798149,0.699268831501,0,73.1822052002,39.3090553284,40.9968414307,95.5972442627,58.7569465637,58.7569465637,73.1822052002,73.1822052002,21.4454479218,0.736258268356,0,0.00151539663784,0.112202204764,0.0277051404119,0.0292205382138,10.3114814758,0.207806736231,-0.953689575195,-0.0100766457617,-3.59385681152,-0.0651496648788,-6.56200313568,-0.440892755985,49.6205368042,94.643554687505,55.16308975218,14.88344478612,813
1.64951396723516E+018,31,1.64951396723516E+018,r1000913c5/base_footprint,0,1.64951396723516E+018,v/m1vw10zy74w/map,-16.0000225309,-1.85011914317,0,0,0,-0.714492900382,0.699642691168,0,73.4747467041,41.1764717102,41.0424613953,95.5396575928,59.0550956726,59.0550956726,73.4747467041,73.4747467041,19.1923599243,0.630341589451,0,0.000648756918963,0.096434764564,0.0179966576397,0.0186454150826,8.46855163574,0.170582085848,-0.883636474609,-0.00933523755521,-3.86973190308,-0.0701224282384,-3.93367290497,-0.257798910141,49.64502334594,94.656021118191,55.18536376952,15.25868701933,904
1.64951396733518E+018,32,1.64951396733518E+018,r1000913c5/base_footprint,0,1.64951396733518E+018,v/m1vw10zy74w/map,-15.994971046,-1.73583614085,0,0,0,-0.714024838286,0.700120368445,0,73.5688400269,45.6327972412,41.0424613953,95.1278915405,59.23595047,59.23595047,73.5688400269,73.5688400269,17.9695034027,0.544358313084,0,0.000598846876528,0.0925458595157,0.0158271454275,0.0164259914309,4.43228912354,0.0885305404663,-0.451042175293,-0.00476401764899,-3.91873550415,-0.0708411559463,-2.04832267761,-0.128653943539,50.06508636474,94.676849365207,55.31721496585,15.92118072509,865
1.64951396743525E+018,33,1.64951396743525E+018,r1000913c5/base_footprint,0,1.64951396743525E+018,v/m1vw10zy74w/map,-15.9941952342,-1.74117991869,0,0,0,-0.713863291336,0.700285085721,0,73.7777404785,43.3878822327,41.1162147522,95.4599914551,59.4574699402,59.4574699402,73.7777404785,73.7777404785,17.797290802,0.539242863655,0,0.000481845723698,0.0828649625182,0.0154015142471,0.0158833600581,6.67720413208,0.133370473981,-0.783142089844,-0.00827173795551,-4.14025497437,-0.0748456865549,-1.8761100769,-0.117837369442,50.06508636478,94.676849365256,55.31721496583,15.9211807251,865
1.64951396753573E+018,34,1.64951396753573E+018,r1000913c5/base_footprint,0,1.64951396753573E+018,v/m1vw10zy74w/map,-15.9941952342,-1.74117991869,0,0,0,-0.713863291336,0.700285085721,0,73.913192749,42.9864234924,41.3426513672,95.4599914551,59.7040290833,59.7040290833,73.913192749,73.913192749,18.0220432281,0.470332086086,0,0.000450352148619,0.0766153559089,0.0154330069199,0.0158833600581,7.07866287231,0.141389206052,-0.783142089844,-0.00827173795551,-4.38681411743,-0.0793028771877,-2.10086250305,-0.131953939795,50.06508636471,94.676849365256,55.31721496587,15.92118072505,865
1.64951396763521E+018,35,1.64951396763521E+018,r1000913c5/base_footprint,0,1.64951396763521E+018,v/m1vw10zy74w/map,-15.993272406,-1.62038593222,0,0,0,-0.714238160205,0.699902743605,0,74.0583572388,46.2714233398,41.3426513672,95.1251907349,60.0800819397,60.0800819397,74.0583572388,74.0583572388,18.2651805878,0.456306904554,0,0.0004461647477,0.0747773423791,0.0154371950775,0.0158833600581,3.46546173096,0.0696758925915,-0.432838439941,-0.00457099685445,-4.65618515015,-0.0840104222298,-1.5770740509,-0.0945028737187,49.73688507076,94.692352294959,55.42389678955,16.6881065369,864
1.64951396773607E+018,36,1.64951396773607E+018,r1000913c5/base_footprint,0,1.64951396773607E+018,v/m1vw10zy74w/map,-15.9894995104,-1.60179697472,0,0,0,-0.714460669392,0.699675604757,0,74.2663879395,46.1924285889,41.3188285828,95.3454742432,60.3402900696,60.3402900696,74.2663879395,74.2663879395,18.1237831116,0.438021123409,0,0.000465662073111,0.0699172690511,0.0154176978394,0.0158833600581,2.21199035645,0.0456981062889,-0.673553466797,-0.00711460644379,-5.15272140503,-0.0933674275875,-1.19192314148,-0.070395283401,48.40441894535,94.671920776403,55.18756866457,16.93185997012,813
1.64951396783523E+018,37,1.64951396783523E+018,r1000913c5/base_footprint,0,1.64951396783523E+018,v/m1vw10zy74w/map,-15.9894995104,-1.60179697472,0,0,0,-0.714460669392,0.699675604757,0,74.4396438599,43.9338226318,41.7683944702,95.3454742432,60.5812606812,60.5812606812,74.4396438599,74.4396438599,17.6076908112,0.471210062504,0,0.00048331861035,0.0651793256402,0.0154000408947,0.0158833600581,4.47059631348,0.0923592597246,-0.673553466797,-0.00711460644379,-5.3936920166,-0.0977338254452,-0.675830841064,-0.0399147421122,48.40441894528,94.671920776403,55.1875686646,16.931859970136,813
1.64951396793558E+018,38,1.64951396793558E+018,r1000913c5/base_footprint,0,1.64951396793558E+018,v/m1vw10zy74w/map,-15.992415326,-1.48625043066,0,0,0,-0.714795378906,0.699333658774,0,74.5020294189,42.9864234924,41.7683944702,95.116355896,60.7623672485,60.7623672485,74.5020294189,74.5020294189,17.6159343719,0.416102409363,0,0.000482533534523,0.0604133792222,0.0154008259997,0.0158833600581,4.31037521362,0.0911346077919,-0.450454711914,-0.00475836312398,-5.671459198,-0.102947279811,-0.197629928589,-0.0113461064175,47.29679870602,94.665901184086,55.0909080505,17.418304443311,816
1.6495139680352E+018,39,1.6495139680352E+018,r1000913c5/base_footprint,0,1.6495139680352E+018,v/m1vw10zy74w/map,-15.992415326,-1.48625043066,0,0,0,-0.714795378906,0.699333658774,0,74.6413116455,46.6063346863,42.3215827942,95.116355896,60.9092063904,60.9092063904,74.6413116455,74.6413116455,16.6947078705,0.330830335617,0,0.000482565665152,0.0557743981481,0.0154007934034,0.0158833600581,0.690464019775,0.0145985363051,-0.450454711914,-0.00475836312398,-5.81829833984,-0.105612680316,0.723596572876,0.0415423065424,47.296798706075,94.665901184086,55.09090805056,17.418304443376,816
1.6495139681352E+018,40,1.6495139681352E+018,r1000913c5/base_footprint,0,1.64951396813521E+018,v/m1vw10zy74w/map,-15.992415326,-1.48625043066,0,0,0,-0.714795378906,0.699333658774,0,74.7505569458,50.2262458801,43.1620178223,95.116355896,61.149055481,61.149055481,74.7505569458,74.7505569458,17.3186759949,0.260668665171,0,0.000493472325616,0.052712123841,0.015389887616,0.0158833600581,-2.92944717407,-0.0619375370443,-0.450454711914,-0.00475836312398,-6.05814743042,-0.109966374934,0.0996284484863,0.00571975577623,47.29679870603,94.665901184086,55.09090805058,17.4183044433863,816
1.64951396823545E+018,41,1.64951396823545E+018,r1000913c5/base_footprint,0,1.64951396823545E+018,v/m1vw10zy74w/map,-15.9884877866,-1.34813409466,0,0,0,-0.713835496125,0.700313418743,0,74.9229888916,50.2262458801,43.1620178223,95.2472763062,61.3418426514,61.3418426514,74.9229888916,74.9229888916,16.7683010101,0.245821028948,0,0.000505877600517,0.0445065572858,0.015377481468,0.0158833600581,-11.847820282,-0.308710426092,-0.315673828125,-0.00332527654245,-10.2825241089,-0.201383888721,-3.34939002991,-0.249602228403,38.3784255981,94.931602478075,51.0593185425,13.41891098019,1342
1.64951396833578E+018,42,1.64951396833578E+018,r1000913c5/base_footprint,0,1.64951396833578E+018,v/m1vw10zy74w/map,-15.9884877866,-1.34813409466,0,0,0,-0.713835496125,0.700313418743,0,74.888458252,50.0891265869,44.4167442322,95.2472763062,61.372051239,61.372051239,74.888458252,74.888458252,17.7161216736,0.20273180306,0,0.000519645924214,0.0399689115584,0.015627451241,0.01614709571,-11.7107009888,-0.305137604475,-0.315673828125,-0.00332527654245,-10.3127326965,-0.201975524426,-4.29721069336,-0.320235431194,38.3784255981,94.931602478075,51.0593185425,13.41891098024,1342
1.64951396843523E+018,43,1.64951396843523E+018,r1000913c5/base_footprint,0,1.64951396843523E+018,v/m1vw10zy74w/map,-15.9884877866,-1.34813409466,0,0,0,-0.713835496125,0.700313418743,0,74.9024658203,53.6541900635,45.5680580139,95.2472763062,61.5007553101,61.5007553101,74.9024658203,74.9024658203,18.853937149,0.17780162394,0,0.000504829455167,0.032027926296,0.0159155838192,0.0164204128087,-15.2757644653,-0.398029983044,-0.315673828125,-0.00332527654245,-10.4414367676,-0.204496204853,-5.43502616882,-0.405027359724,38.3784255982,94.931602478075,51.0593185425,13.41891098018,1342
1.64951396853519E+018,44,1.64951396853519E+018,r1000913c5/base_footprint,0,1.64951396853519E+018,v/m1vw10zy74w/map,-15.9838514341,-1.20815827246,0,0,0,-0.715475009307,0.698638326359,0,74.8262481689,53.8461532593,46.8665390015,95.2074661255,61.5137557983,61.5137557983,74.8262481689,74.8262481689,20.2229194641,0.173776730895,0,0.000175168373971,0.022642986849,0.0156811121851,0.0158562809229,-16.8731155396,-0.456362694502,-0.286781311035,-0.0030212730635,-10.6243858337,-0.208774164319,-6.4465970993,-0.467947602272,36.9730377197,94.920684814465,50.8893699646,13.7763223648,1344
1.64951396863522E+018,45,1.64951396863522E+018,r1000913c5/base_footprint,0,1.64951396863522E+018,v/m1vw10zy74w/map,-15.9838514341,-1.20815827246,0,0,0,-0.715475009307,0.698638326359,0,74.6794662476,52.2335243225,47.7653541565,95.2074661255,61.47290802,61.47290802,74.6794662476,74.6794662476,22.4238777161,0.210882887244,0,0.000164664015756,0.0133640952408,0.0156916175038,0.0158562809229,-15.2604866028,-0.412746369839,-0.286781311035,-0.0030212730635,-10.5835380554,-0.207971483469,-8.64755535126,-0.627711474895,36.9730377197,94.920684814465,50.8893699646,13.77632236484,1344
1.64951396874244E+018,46,1.64951396874244E+018,r1000913c5/base_footprint,0,1.64951396874244E+018,v/m1vw10zy74w/map,-15.976092731,-1.09293682706,0,0,0,-0.714664857167,0.699467041347,0,74.8836975098,58.0483360291,48.6688613892,95.2325897217,61.4473228455,61.4473228455,74.8836975098,74.8836975098,18.5618648529,0.143242806196,0,0.000158498907695,0.000256890867604,0.0156977809966,0.0158562809229,-21.6515045166,-0.594873309135,-0.558113098145,-0.00589507445693,-10.9487304688,-0.216812580824,-2.75819683075,-0.174528896809,36.3968315125,94.674476623555,50.4985923767,15.80366802215,1821
1.64951396883513E+018,47,1.64951396883513E+018,r1000913c5/base_footprint,0,1.64951396883513E+018,v/m1vw10zy74w/map,-15.976092731,-1.09293682706,0,0,0,-0.714664857167,0.699467041347,0,74.7356872559,59.8930473328,48.886428833,95.2325897217,61.4291038513,61.4291038513,74.7356872559,74.7356872559,21.0292472839,0.0815620869398,0,0.000167179357959,0.0422318279743,0.0156891010702,0.0158562809229,-23.4962158203,-0.645556628704,-0.558113098145,-0.00589507445693,-10.9305114746,-0.21645180881,-5.22557926178,-0.33065611124,36.3968315125,94.674476623555,50.4985923767,15.80366802212,1821
1.6495139689351E+018,48,1.6495139689351E+018,r1000913c5/base_footprint,0,1.6495139689351E+018,v/m1vw10zy74w/map,-15.9771972766,-0.977602388811,0,0,0,-0.715753466702,0.698353044601,0,74.7980728149,56.5610847473,48.886428833,95.1601715088,61.3592720032,61.3592720032,74.7980728149,74.7980728149,18.8914375305,0.09405464679,0,0.000566953676753,0.112742595375,0.0101898713037,0.00962291751057,-21.2050704956,-0.599758505821,-0.453140258789,-0.00478465296328,-11.2059326172,-0.223433434963,-2.04204559326,-0.121194019914,35.3560142517,94.707031250011,50.153339386,16.84939193724,1752
1.6495139691354E+018,49,1.6495139691354E+018,r1000913c5/base_footprint,0,1.6495139691354E+018,v/m1vw10zy74w/map,-15.9755458359,-0.978767234993,0,0,0,-0.71557193137,0.698539054768,0,74.9688644409,62.5668449402,49.0774154663,95.3957977295,61.356678009,61.356678009,74.9688644409,74.9688644409,16.6374359131,0.166714206338,0,0.000282958731987,0.128996327519,0.00855903699994,0.00884199514985,-27.2108306885,-0.769623816013,-0.688766479492,-0.00727260112762,-11.203338623,-0.223381713033,0.21195602417,0.0125794466585,35.3560142517,94.707031250008,50.153339386,16.84939193727,1752
1.64951396923546E+018,50,1.64951396923546E+018,r1000913c5/base_footprint,0,1.64951396923546E+018,v/m1vw10zy74w/map,-15.9755458359,-0.978767234993,0,0,0,-0.71557193137,0.698539054768,0,74.9276275635,59.2760162354,49.0746650696,95.3957977295,61.4187011719,61.4187011719,74.9276275635,74.9276275635,18.0495986938,0.147731408477,0,0.000490097969305,0.136153399944,0.00869174767286,0.0091818459332,-23.9200019836,-0.676546931267,-0.688766479492,-0.00727260112762,-11.2653617859,-0.224618375301,-1.20020675659,-0.0712314546108,35.3560142518,94.707031250008,50.153339386,16.84939193721,1752
1.6495139693352E+018,51,1.6495139693352E+018,r1000913c5/base_footprint,0,1.6495139693352E+018,v/m1vw10zy74w/map,-15.9755458359,-0.978767234993,0,0,0,-0.71557193137,0.698539054768,0,74.9709777832,55.9946098328,49.0746650696,95.3957977295,61.2638549805,61.2638549805,74.9709777832,74.9709777832,15.5969676971,0.151400834322,0,2.08769852179E-05,0.153815239668,0.0058164014481,0.00583727844059,-20.6385955811,-0.583736479282,-0.688766479492,-0.00727260112762,-11.1105155945,-0.221530929208,1.25242424011,0.0743305310607,35.3560142517,94.707031250008,50.153339386,16.84939193721,1752
1.64951396943517E+018,52,1.64951396943517E+018,r1000913c5/base_footprint,0,1.64951396943517E+018,v/m1vw10zy74w/map,-15.9755458359,-0.978767234993,0,0,0,-0.71557193137,0.698539054768,0,74.9218063354,58.3710403442,49.0565109253,95.3957977295,61.2697792053,61.2697792053,74.9218063354,74.9218063354,16.5459842682,0.134637326002,0,6.35026954114E-05,0.155950188637,0.00417805090547,0.00411454821005,-23.0150260925,-0.650950789452,-0.688766479492,-0.00727260112762,-11.1164398193,-0.221649050713,0.303407669067,0.0180070400238,35.3560142517,94.707031250008,50.153339386,16.849391937267,1752
1.64951396953543E+018,53,1.64951396953543E+018,r1000913c5/base_footprint,0,1.64951396953543E+018,v/m1vw10zy74w/map,-15.9743335124,-0.844164534858,0,0,0,-0.715384482437,0.698731022846,0,75.116897583,61.0859718323,49.0491790771,95.7043991089,61.3135681152,61.3135681152,75.116897583,75.116897583,14.6181507111,0.100163243711,0,5.57445637241E-05,0.157190665603,0.00311944121495,0.00317518576048,-26.893283844,-0.786521494389,-1.04180145264,-0.0110054183751,-11.2071380615,-0.223666667938,2.46936798096,0.144512966275,34.1926879883,94.66259765626,50.1064300537,17.08751869206,1779
1.64951396963542E+018,54,1.64951396963542E+018,r1000913c5/base_footprint,0,1.64951396963542E+018,v/m1vw10zy74w/map,-15.9743335124,-0.844164534858,0,0,0,-0.715384482437,0.698731022846,0,75.1292037964,59.2760162354,49.263961792,95.7043991089,61.2591362,61.2591362,75.1292037964,75.1292037964,13.8087701797,0.203650698066,0,9.73323185463E-05,0.157325297594,0.00124002317898,0.00133735546842,-25.0833282471,-0.733587503433,-1.04180145264,-0.0110054183751,-11.1527061462,-0.222580343485,3.27874851227,0.191879734397,34.1926879883,94.66259765626,50.1064300538,17.08751869197,1779
1.64951396983573E+018,55,1.64951396983573E+018,r1000913c5/base_footprint,0,1.64951396983574E+018,v/m1vw10zy74w/map,-15.9743335124,-0.844164534858,0,0,0,-0.715384482437,0.698731022846,0,75.1176376343,60.4705886841,49.263961792,95.7043991089,61.458820343,61.458820343,75.1176376343,75.1176376343,16.1735897064,0.166894614697,0,0.000232767008129,0.155518367887,8.85291228769E-05,0.000321296131006,-26.2779006958,-0.768523991108,-1.04180145264,-0.0110054183751,-11.3523902893,-0.226565539837,0.913928985596,0.0534851774573,34.1926879883,94.66259765626,50.1064300537,17.087518691996,1779
1.64951396993597E+018,56,1.64951396993597E+018,r1000913c5/base_footprint,0,1.64951396993597E+018,v/m1vw10zy74w/map,-15.9739215057,-0.730386749198,0,0,0,-0.715505349661,0.698607253474,0,75.1989364624,59.827835083,49.2564697266,95.5611495972,61.5105018616,61.5105018616,75.1989364624,75.1989364624,14.7527103424,0.198310956359,0,0.000108495129098,0.151592284441,0.000921507889871,0.000813012768049,-26.3344268799,-0.78625702858,-0.908157348633,-0.0095945969224,-11.5750923157,-0.23180128634,2.32249832153,0.136015802622,33.4934082031,94.652992248567,49.9354095459,17.07520866393,1731
1.64951397003514E+018,57,1.64951397003514E+018,r1000913c5/base_footprint,0,1.64951397003514E+018,v/m1vw10zy74w/map,-15.9739215057,-0.730386749198,0,0,0,-0.715505349661,0.698607253474,0,75.2381362915,60.7843132019,49.3070335388,95.5611495972,61.4236793518,61.4236793518,75.2381362915,75.2381362915,13.1094760895,0.199687242508,0,0.000199947113288,0.150420844555,0.000410702108638,0.000610649236478,-27.2909049988,-0.814814209938,-0.908157348633,-0.0095945969224,-11.4882698059,-0.230062589049,3.96573257446,0.232250899076,33.4934082031,94.652992248567,49.9354095459,17.07520866396,1731
1.64951397013515E+018,58,1.64951397013515E+018,r1000913c5/base_footprint,0,1.64951397013515E+018,v/m1vw10zy74w/map,-15.9739215057,-0.730386749198,0,0,0,-0.715505349661,0.698607253474,0,75.2189865112,56.605594635,49.276222229,95.5611495972,61.3190155029,61.3190155029,75.2189865112,75.2189865112,12.3237333298,0.192141965032,0,0.000166524056112,0.15035918355,0.00115139700938,0.000984873040579,-23.1121864319,-0.690051794052,-0.908157348633,-0.0095945969224,-11.383605957,-0.227966606617,4.75147533417,0.278267472982,33.4934082031,94.652992248567,49.9354095459,17.07520866397,1731
1.64951397023529E+018,59,1.64951397023529E+018,r1000913c5/base_footprint,0,1.64951397023529E+018,v/m1vw10zy74w/map,-15.9701349601,-0.62237666201,0,0,0,-0.714721026288,0.69940964719,0,75.1711196899,60.4628753662,49.276222229,95.2507247925,61.3026885986,61.3026885986,75.1711196899,75.1711196899,11.8915538788,0.190262839198,0,0.000337145320373,0.150739386678,0.00115064845886,0.000813503109384,-27.7153968811,-0.846336841583,-0.612182617188,-0.00646863970906,-11.6528739929,-0.234701260924,4.9563999176,0.294184088707,32.7474784851,94.638542175312,49.6498146057,16.8479537964,1643
1.64951397033584E+018,60,1.64951397033584E+018,r1000913c5/base_footprint,0,1.64951397033584E+018,v/m1vw10zy74w/map,-15.9701349601,-0.62237666201,0,0,0,-0.714721026288,0.69940964719,0,75.0016937256,60.7843132019,49.2730293274,95.2507247925,61.2480278015,61.2480278015,75.0016937256,75.0016937256,14.3508844376,0.130629643798,0,0.000209820456803,0.150864705443,0.000929868780077,0.000720048323274,-28.0368347168,-0.85615247488,-0.612182617188,-0.00646863970906,-11.5982131958,-0.233600333333,2.49706935883,0.14821203053,32.7474784851,94.638542175312,49.6498146057,16.84795379643,1643
1.64951397043519E+018,61,1.64951397043519E+018,r1000913c5/base_footprint,0,1.64951397043519E+018,v/m1vw10zy74w/map,-15.9657624897,-0.488028206717,0,0,0,-0.715456758034,0.698657016986,0,74.9833755493,55.4079704285,49.2730293274,95.2846069336,61.1538696289,61.1538696289,74.9833755493,74.9833755493,13.7855501175,0.201717793941,0,0.000292671466013,0.150579795241,0.000314317352604,2.16458975046E-05,-23.0506286621,-0.712377071381,-0.650451660156,-0.00687332870439,-11.8249778748,-0.239717081189,2.60329723358,0.158845663071,32.3573417664,94.634155273444,49.3288917541,16.38884735108,1521
1.64951397143544E+018,62,1.64951397143544E+018,r1000913c5/base_footprint,0,1.64951397143544E+018,v/m1vw10zy74w/map,-15.9642476254,-0.352032908486,0,0,0,-0.716765132106,0.697314667418,0,74.5416488647,56.7058830261,49.2611351013,95.2116241455,60.9360847473,60.9360847473,74.5416488647,74.5416488647,19.1218318939,0.170526102185,0,0.000621028651949,0.211858361959,0.0174566879869,0.0180777162313,-21.5271568298,-0.611936807632,-1.00173950195,-0.01063306164,-9.54985427856,-0.185844615102,2.21162796021,0.103669442236,35.1787261963,94.20988464355,51.38623046874,21.33345985411,869
1.64951397153531E+018,63,1.64951397153531E+018,r1000913c5/base_footprint,0,1.64951397153531E+018,v/m1vw10zy74w/map,-15.9642476254,-0.352032908486,0,0,0,-0.716765132106,0.697314667418,0,74.5475692749,62.0194549561,49.1943969727,95.2116241455,60.7912940979,60.7912940979,74.5475692749,74.5475692749,17.451587677,0.0535181574523,0,0.000777926528826,0.212343066931,0.0810949280858,0.0803169980645,-26.8407287598,-0.762981832027,-1.00173950195,-0.01063306164,-9.40506362915,-0.183026924729,3.88187217712,0.181961685419,35.1787261963,94.20988464355,51.38623046875,21.33345985412,869
1.64951397163526E+018,64,1.64951397163526E+018,r1000913c5/base_footprint,0,1.64951397163526E+018,v/m1vw10zy74w/map,-15.9642476254,-0.352032908486,0,0,0,-0.716765132106,0.697314667418,0,74.0846252441,49.1978607178,49.1943969727,95.2116241455,60.4659538269,60.4659538269,74.0846252441,74.0846252441,22.2709083557,0.16119286418,0,0.00201688962989,0.208869591355,0.106407493353,0.104390598834,-14.0191345215,-0.398511707783,-1.00173950195,-0.01063306164,-9.07972335815,-0.176695644855,-0.937448501587,-0.0439426377416,35.1787261963,94.20988464355,51.38623046875,21.333459854113,869
1.64951397173521E+018,65,1.64951397173521E+018,r1000913c5/base_footprint,0,1.64951397173521E+018,v/m1vw10zy74w/map,-15.9611702979,-0.38621449935,0,0,0,-0.681704998329,0.731627155902,0,73.65284729,32.773109436,49.1943969727,95.1989974976,59.7955474854,59.7955474854,73.65284729,73.65284729,22.7570285797,0.162528082728,0,0.00225377385505,0.20502230525,0.134537309408,0.13228353858,2.31363677979,0.065940476954,-0.98030090332,-0.010404526256,-8.35478591919,-0.162415668368,-1.24687957764,-0.0579670369625,35.08674621579,94.21869659428,51.44076156621,21.51014900206,915
1.64951397183524E+018,66,1.64951397183524E+018,r1000913c5/base_footprint,0,1.64951397183524E+018,v/m1vw10zy74w/map,-15.9526736638,-0.43292795244,0,0,0,-0.640025964017,0.768353281625,0,73.2500152588,22.7660522461,49.1943969727,95.613571167,58.7274436951,58.7274436951,73.2500152588,73.2500152588,19.9649944305,0.275989949703,0,0.00319600361399,0.200263142586,0.161891177297,0.158695176244,12.0883750916,0.346824675798,-1.37576293945,-0.0145988427103,-7.25719070435,-0.140997767448,1.72382545471,0.0794799104333,34.8544273377,94.23780822755,51.47025299075,21.68881988521,957
1.64951397193532E+018,67,1.64951397193532E+018,r1000913c5/base_footprint,0,1.64951397193532E+018,v/m1vw10zy74w/map,-15.9390953884,-0.481948130043,0,0,0,-0.593383292286,0.804920038536,0,72.6413269043,25.4602603912,49.0196685791,95.8143005371,57.7279815674,57.7279815674,72.6413269043,72.6413269043,20.8497543335,0.158879026771,0,0.0040704831481,0.193652823567,0.178716406226,0.174645915627,6.89708137512,0.213153526187,-1.18014526367,-0.0124706057832,-8.39908981323,-0.170267149806,-4.46090698242,-0.272191613913,32.35734176632,94.63415527343,49.32889175417,16.38884735108,1521
1.64951397203505E+018,68,1.64951397203505E+018,r1000913c5/base_footprint,0,1.64951397203505E+018,v/m1vw10zy74w/map,-15.9197971025,-0.533333558279,0,0,0,-0.530567968688,0.847642395472,0,72.017036438,21.5686283112,48.7951583862,95.6615753174,56.8670883179,56.8670883179,72.017036438,72.017036438,22.2395954132,0.229600593448,0,0.00515947677195,0.188505455852,0.192857697606,0.187698215246,10.7303447723,0.332219392061,-1.03099822998,-0.0108949802816,-7.44108581543,-0.150550022721,-5.52690505981,-0.330701112747,32.2989730835,94.63057708742,49.42600250247,16.71269035339,1574
1.64951397213536E+018,69,1.64951397213536E+018,r1000913c5/base_footprint,0,1.64951397213536E+018,v/m1vw10zy74w/map,-15.9013758115,-0.565490370789,0,0,0,-0.478369829779,0.878158474284,0,71.4936218262,28.2639884949,48.4348449707,95.6793441772,56.107208252,56.107208252,71.4936218262,71.4936218262,23.518245697,0.244399577379,0,0.00686174724251,0.184112131596,0.166966363788,0.160104617476,4.09786987305,0.12662653625,-1.04368591309,-0.0110284639522,-6.58278656006,-0.132920011878,-6.67272567749,-0.396112769842,32.36185836795,94.63565826411,49.52442169194,16.84552001951,1611
1.64951397223577E+018,70,1.64951397223577E+018,r1000913c5/base_footprint,0,1.64951397223577E+018,v/m1vw10zy74w/map,-15.876374235,-0.593125585258,0,0,0,-0.415604696244,0.909545346016,0,70.6976928711,26.8413238525,47.9113616943,95.6791305542,55.5124549866,55.5124549866,70.6976928711,70.6976928711,31.4208526611,0.282645195723,0,0.00709527311847,0.180721014738,0.142481908202,0.135386630893,5.45100021362,0.168801724911,-1.04634094238,-0.0110568543896,-6.01574325562,-0.121538244188,-14.5469264984,-0.862094938755,32.29232406612,94.63278961182,49.49671173098,16.8739261627,1606
1.6495139724358E+018,71,1.6495139724358E+018,r1000913c5/base_footprint,0,1.6495139724358E+018,v/m1vw10zy74w/map,-15.8254281361,-0.6352878439,0,0,0,-0.3604903135,0.932762956958,0,70.2515029907,24.8640632629,47.3645591736,95.588760376,55.2225532532,55.2225532532,70.2515029907,70.2515029907,35.99609375,0.256973743439,0,0.00669167563319,0.174682214856,0.0859627053142,0.0792710334063,7.52210617065,0.232262909412,-0.965156555176,-0.0101999556646,-5.62677001953,-0.113452591002,-18.8544483185,-1.09992051125,32.38616943355,94.623603820824,49.59578323367,17.1416454315,1653
1.64951397253519E+018,72,1.64951397253519E+018,r1000913c5/base_footprint,0,1.64951397253519E+018,v/m1vw10zy74w/map,-15.7879392041,-0.668435030819,0,0,0,-0.299998021599,0.953939823593,0,70.0141906738,21.2362918854,46.8766899109,95.6298294067,54.8045349121,54.8045349121,70.0141906738,70.0141906738,35.9009933472,0.307875066996,0,0.00633408501744,0.173327431083,0.0780021250248,0.0716680362821,11.4242191315,0.349786907434,-1.00621795654,-0.010633898899,-5.09211730957,-0.102431498468,-18.6366977692,-1.07949364185,32.6605110169,94.62361145016,49.71241760253,17.264295578,1698
1.64951397263521E+018,73,1.64951397263521E+018,r1000913c5/base_footprint,0,1.64951397263521E+018,v/m1vw10zy74w/map,-15.7385029467,-0.694615372096,0,0,0,-0.231767052756,0.972771316013,0,69.8027572632,20.9257469177,46.4398574829,95.7263565063,54.5839195251,54.5839195251,69.8027572632,69.8027572632,37.6715927124,0.180664569139,0,0.00625693239272,0.164410293102,0.0153187504038,0.00906181894243,11.6127510071,0.356892645359,-1.10108947754,-0.011636315845,-4.87775802612,-0.0981318578124,-20.3251209259,-1.17171502113,32.5384979248,94.62526702876,49.70616149898,17.3464717865,1698
1.64951397273515E+018,74,1.64951397273515E+018,r1000913c5/base_footprint,0,1.64951397273515E+018,v/m1vw10zy74w/map,-15.6735164573,-0.727406656582,0,0,0,-0.163668253887,0.986515434583,0,69.8534622192,27.0782699585,45.3807106018,95.6947784424,54.518913269,54.518913269,69.8534622192,69.8534622192,35.943145752,0.493590086699,0,0.00612840428948,0.154625847936,0.0048299068585,0.010958311148,5.23036193848,0.161887452006,-1.07419586182,-0.0113526657224,-4.88278198242,-0.098371528089,-18.4012699127,-1.04899096489,32.30863189698,94.62058258058,49.63613128658,17.5418758393,1693
1.64951397283521E+018,75,1.64951397283521E+018,r1000913c5/base_footprint,0,1.64951397283521E+018,v/m1vw10zy74w/map,-15.6069920306,-0.743922252827,0,0,0,-0.10019318836,0.994968002001,0,69.7093200684,18.3276615143,44.2408332825,95.5503082275,54.4835510254,54.4835510254,69.7093200684,69.7093200684,37.6357536316,0.144319877028,0,0.00522340787575,0.0903746262193,0.0613671317697,0.0665905401111,13.627866745,0.426463514566,-0.923713684082,-0.00976167060435,-5.07146072388,-0.102636031806,-20.0830554962,-1.1441577673,31.9555282593,94.626594543418,49.41209030152,17.5526981354,1623
1.64951397293506E+018,76,1.64951397293506E+018,r1000913c5/base_footprint,0,1.64951397293506E+018,v/m1vw10zy74w/map,-15.5316233084,-0.748629536836,0,0,0,-0.0457379761793,0.998953471156,0,69.7543106079,21.2598419189,43.1718025208,95.5579376221,54.3973999023,54.3973999023,69.7543106079,69.7543106079,35.9228744507,0.142977118492,0,0.00366715504788,0.0603262521327,0.0959616973996,0.0996288508177,9.44574928284,0.307623118162,-0.855918884277,-0.009038021788,-5.62888336182,-0.115420430899,-18.4364109039,-1.05432474613,30.70559120174,94.702018737823,48.76851654048,17.4864635468,1316
1.64951397303541E+018,77,1.64951397303541E+018,r1000913c5/base_footprint,0,1.64951397303541E+018,v/m1vw10zy74w/map,-15.4054532399,-0.751407436535,0,0,0,0.014631020821,0.999892960886,0,70.1711502075,24.7058830261,42.3037643433,95.2844467163,54.3360595703,54.3360595703,70.1711502075,70.1711502075,26.7728176117,-0.0798366442323,0,0.00307572865859,0.0492893531919,0.123761929572,0.126837655902,2.44583320618,0.0900802463293,-1.05491638184,-0.0111951781437,-3.28415298462,-0.0643296837807,4.43393135071,0.142082452774,27.15171623228,94.22953033446,51.05190658568,31.20674896241,338
1.6495139731351E+018,78,1.6495139731351E+018,r1000913c5/base_footprint,0,1.6495139731351E+018,v/m1vw10zy74w/map,-15.4054532399,-0.751407436535,0,0,0,0.014631020821,0.999892960886,0,69.3038787842,21.2523727417,41.4119720459,95.2844467163,54.6210021973,54.6210021973,69.3038787842,69.3038787842,45.4609947205,-0.0195539556444,0,0.00179154821672,0.0452540926635,0.138242721558,0.140034273267,5.8993434906,0.217273324728,-1.05491638184,-0.0111951781437,-3.56909561157,-0.0699111148715,-14.2542457581,-0.456768035889,27.1517162323,94.22953033446,51.05190658573,31.2067489624,338
1.64951397323521E+018,79,1.64951397323521E+018,r1000913c5/base_footprint,0,1.64951397323521E+018,v/m1vw10zy74w/map,-15.2601595699,-0.737534519113,0,0,0,0.0424966709565,0.999096608421,0,69.4253387451,9.57705402374,40.6444358826,95.1719207764,55.0795631409,55.0795631409,69.4253387451,69.4253387451,47.8221130371,-0.025984345004,0,0.00118570250925,0.0407218374312,0.157387897372,0.15857359767,16.8271903992,0.637291073799,-0.952606201172,-0.0101105188951,-3.93322372437,-0.0769013762474,-14.8281059265,-0.449418157339,26.40424442294,94.219314575228,51.14633941653,32.9940071106,270
1.64951397333514E+018,80,1.64951397333514E+018,r1000913c5/base_footprint,0,1.64951397333514E+018,v/m1vw10zy74w/map,-15.160666378,-0.695476049972,0,0,0,0.0561506384357,0.998422308346,0,70.1393737793,14.8732662201,40.0435638428,94.9684371948,55.752910614,55.752910614,70.1393737793,70.1393737793,41.5091514587,0.272299140692,0,0.000558569503482,0.0369082316756,0.162676751614,0.163235321641,11.814119339,0.442685514688,-0.777519226074,-0.00825471524149,-4.57748413086,-0.0894469171762,-7.92966461182,-0.236146092415,26.6873855591,94.190917968726,51.17542648314,33.57948684688,248
1.64951397343516E+018,81,1.64951397343516E+018,r1000913c5/base_footprint,0,1.64951397343516E+018,v/m1vw10zy74w/map,-15.0172945156,-0.665819563987,0,0,0,0.0594997934964,0.998228317858,0,70.5765151978,21.8900680542,40.0435638428,94.6868515015,56.2923736572,56.2923736572,70.5765151978,70.5765151978,38.4530754089,0.410443007946,0,0.000444106088253,0.0262827519327,0.188789203763,0.188345104456,8.70111846924,0.284432202578,-0.603881835938,-0.00641860952601,-5.48667907715,-0.107993386686,-9.04310417175,-0.307484298944,30.59118652344,94.082969665562,50.80569458005,29.40997123715,388
1.64951397353516E+018,82,1.64951397353516E+018,r1000913c5/base_footprint,0,1.64951397353516E+018,v/m1vw10zy74w/map,-14.9111579727,-0.647301052782,0,0,0,0.0542689885607,0.998526352622,0,71.0141906738,32.4975891113,40.0466690063,94.5082626343,56.6983795166,56.6983795166,71.0141906738,71.0141906738,34.3167419434,0.572735548019,0,0.000874956778716,0.0209186989814,0.191847875714,0.190972924232,-1.01368904114,-0.0321970619261,-0.228103637695,-0.00241942354478,-5.73887634277,-0.112616412342,-6.97480773926,-0.255095630884,31.48390007016,94.280158996605,50.95950317383,27.34193420414,632
1.6495139736352E+018,83,1.6495139736352E+018,r1000913c5/base_footprint,0,1.6495139736352E+018,v/m1vw10zy74w/map,-14.7816761103,-0.633225135604,0,0,0,0.0363919566692,0.999337593354,0,71.3853149414,31.6888046265,40.2612762451,94.4266891479,57.169670105,57.169670105,71.3853149414,71.3853149414,32.432849884,0.497613161802,0,0.00140607566573,0.00677599851042,0.182726070285,0.181319996715,-0.700611114502,-0.0226089693606,-0.151580810547,-0.00160785613116,-6.33818054199,-0.124690040946,-4.89253425598,-0.177649900317,30.988193511998,94.275108337353,50.83148956301,27.54031562802,720
1.64951397373515E+018,84,1.64951397373515E+018,r1000913c5/base_footprint,0,1.64951397373515E+018,v/m1vw10zy74w/map,-14.6496662437,-0.61060170913,0,0,0,0.0186711903016,0.999825678132,0,71.2778396606,31.985294342,40.8922157288,93.9669418335,57.3027038574,57.3027038574,71.2778396606,71.2778396606,34.1490898132,0.359139323235,0,0.000988630112261,0.0120482519269,0.17186820507,0.17087957263,-1.04253387451,-0.0336923375726,0.329780578613,0.0034972645808,-6.4755821228,-0.12740406394,-6.57284355164,-0.238351643085,30.94276046749,94.296722412113,50.8271217346,27.57624626156,758
1.64951397383743E+018,85,1.64951397383743E+018,r1000913c5/base_footprint,0,1.64951397383744E+018,v/m1vw10zy74w/map,-14.5095919682,-0.607515269815,0,0,0,-0.00106179006325,0.999999436301,0,71.4262771606,34.5351028442,41.6000976562,93.949546814,57.4885635376,57.4885635376,71.4262771606,71.4262771606,33.421875,0.309530615807,0,0.000433801265899,0.0230093915015,0.177876189351,0.177442386746,-4.19994354248,-0.138451337814,0.270126342773,0.00286698457785,-6.83270263672,-0.134884744883,-5.8631477356,-0.212751030922,30.33515930172,94.219673156773,50.65586090088,27.5587272644,768
1.6495139739351E+018,86,1.6495139739351E+018,r1000913c5/base_footprint,0,1.6495139739351E+018,v/m1vw10zy74w/map,-14.5095919682,-0.607515269815,0,0,0,-0.00106179006325,0.999999436301,0,71.6753234863,33.4619102478,42.2673492432,93.949546814,57.7618370056,57.7618370056,71.6753234863,71.6753234863,31.8903503418,0.458524435759,0,0.000373261747882,0.0312900170684,0.192478731275,0.192105472088,-3.12675094604,-0.103073500097,0.270126342773,0.00286698457785,-7.10597610474,-0.140279442072,-4.33162307739,-0.157177910209,30.33515930176,94.219673156773,50.65586090086,27.55872726441,768
1.64951397403514E+018,87,1.64951397403514E+018,r1000913c5/base_footprint,0,1.64951397403514E+018,v/m1vw10zy74w/map,-14.3619679672,-0.609914469355,0,0,0,-0.0145676070595,0.999893886782,0,71.7526321411,30.5689487457,42.7550125122,93.8302459717,58.095489502,58.095489502,71.7526321411,71.7526321411,33.6727333069,0.368198275566,0,0.000679146731272,0.0435709133744,0.216030925512,0.215351775289,-0.50777053833,-0.016891239211,0.400360107422,0.00424872664735,-7.46054077148,-0.147339746356,-5.97724151611,-0.215820014477,30.06117820737,94.230606079122,50.63494873052,27.69549179079,801
1.64951397413534E+018,88,1.64951397413534E+018,r1000913c5/base_footprint,0,1.64951397413534E+018,v/m1vw10zy74w/map,-14.2112718224,-0.614526315902,0,0,0,-0.0230332325997,0.999734699906,0,72.0536956787,33.5038375854,42.8284797668,93.7646408081,58.5876808167,58.5876808167,72.0536956787,72.0536956787,33.3331108093,0.440983206034,0,0.0015853967052,0.0533937476575,0.230308920145,0.2287235111,-4.04356575012,-0.137254863977,0.440139770508,0.00467215944082,-8.03440093994,-0.158929377794,-5.31551361084,-0.189720541239,29.46027183528,94.204780578608,50.55327987676,28.01759719846,789
1.64951397423503E+018,89,1.64951397423503E+018,r1000913c5/base_footprint,0,1.64951397423503E+018,v/m1vw10zy74w/map,-14.0518351127,-0.616921712957,0,0,0,-0.0303620654306,0.999538966215,0,72.3527450562,25.6965942383,42.8885879517,93.848991394,58.7710189819,58.7710189819,72.3527450562,72.3527450562,30.2339458466,0.310938298702,0,0.00195843912661,0.0722047016025,0.251303881407,0.249345436692,3.03325080872,0.105578392744,0.195693969727,0.00208086147904,-8.75023269653,-0.174931928515,-1.22867774963,-0.0423605032265,28.72984504702,94.044685363727,50.02078628537,29.00526809697,685
1.64951397433512E+018,90,1.64951397433512E+018,r1000913c5/base_footprint,0,1.64951397433512E+018,v/m1vw10zy74w/map,-13.8849876164,-0.635597158348,0,0,0,-0.0323664095372,0.999476070516,0,72.1802749634,25.420167923,42.8251609802,93.6820144653,59.0055236816,59.0055236816,72.1802749634,72.1802749634,35.2699050903,0.258145391941,0,0.00168285542168,0.0816539749503,0.267126888037,0.265444040298,-2.08154296875,-0.0891887545586,0.318412780762,0.00338735454716,-8.60385131836,-0.170705676079,-0.854560852051,-0.024830808863,23.33862495425,94.000427246062,50.40167236324,34.415344238249,375
1.64951397443532E+018,91,1.64951397443532E+018,r1000913c5/base_footprint,0,1.64951397443532E+018,v/m1vw10zy74w/map,-13.7255694727,-0.645459557334,0,0,0,-0.0323606773386,0.999476256127,0,71.8945388794,25.420167923,42.7377052307,93.688583374,59.2031860352,59.2031860352,71.8945388794,71.8945388794,42.5716323853,0.103701755404,0,0.00253439601511,0.0947789698839,0.289623141289,0.287088751793,-1.6177406311,-0.0679653659463,0.418678283691,0.00444894749671,-8.33022689819,-0.163745671511,-7.90971374512,-0.228196069598,23.8024272919,94.107261657691,50.87295913701,34.66191864018,333
1.64951397453519E+018,92,1.64951397453519E+018,r1000913c5/base_footprint,0,1.6495139745352E+018,v/m1vw10zy74w/map,-13.5827227959,-0.656388496219,0,0,0,-0.0310591023002,0.999517549703,0,72.1850738525,23.6883945465,42.6224937439,93.9539413452,59.3792610168,59.3792610168,72.1850738525,72.1850738525,40.1988182068,0.189314007759,0,0.00311513990164,0.105978965759,0.30491566658,0.30180054903,4.32883834839,0.154506281018,0.340591430664,0.00361199560575,-10.02085495,-0.203022256494,-9.58484268188,-0.313087165356,28.01723289489,94.294532775864,49.3584060668,30.61397552492,696
1.6495139746354E+018,93,1.6495139746354E+018,r1000913c5/base_footprint,0,1.6495139746354E+018,v/m1vw10zy74w/map,-13.4127688962,-0.661272749946,0,0,0,-0.0269637948215,0.999636410786,0,72.827003479,34.8739509583,42.404006958,94.1845321655,59.6082992554,59.6082992554,72.827003479,72.827003479,31.9479503632,0.285635739565,0,0.00512276031077,0.121622674167,0.299724072218,0.29460132122,-7.59325218201,-0.27833789587,0.31901550293,0.00337569881231,-10.8485298157,-0.222489356995,-1.98397254944,-0.0662119239569,27.28069877629,94.50354766843,48.7597694397,29.96397781376,1017
1.64951397473544E+018,94,1.64951397473544E+018,r1000913c5/base_footprint,0,1.64951397473544E+018,v/m1vw10zy74w/map,-13.2700886635,-0.662655353615,0,0,0,-0.0226885993728,0.999742580597,0,72.6899642944,42.7662963867,42.131477356,94.2191467285,59.6763000488,59.6763000488,72.6899642944,72.6899642944,35.2736358643,0.367693722248,0,0.00571343675256,0.133470863104,0.259664446115,0.253951013088,-15.6292724609,-0.575939059258,0.326538085938,0.00345375970937,-11.0258216858,-0.226633369923,-5.37058258057,-0.179599806666,27.1370239258,94.545684814438,48.650478363,29.90305328373,1117
1.64951397483518E+018,95,1.64951397483518E+018,r1000913c5/base_footprint,0,1.64951397483518E+018,v/m1vw10zy74w/map,-13.0982232474,-0.666256252607,0,0,0,-0.0165328366184,0.999863323316,0,72.6926116943,36.319480896,42.1587867737,94.3360748291,59.561882019,59.561882019,72.6926116943,72.6926116943,34.4111633301,0.331570208073,0,0.0048544309102,0.159948348999,0.22016748786,0.215313047171,-9.38934516907,-0.348655700684,0.212181091309,0.00224415655248,-10.9388771057,-0.224973291159,-4.50407409668,-0.150602221489,26.93013572693,94.548255920409,48.6230049133,29.90708923342,1177
1.64951397493519E+018,96,1.64951397493519E+018,r1000913c5/base_footprint,0,1.64951397493519E+018,v/m1vw10zy74w/map,-12.8284488767,-0.67928332403,0,0,0,-0.0127922170769,0.999918176244,0,72.6832962036,25.1336898804,42.4230232239,94.7964553833,59.5402374268,59.5402374268,72.6832962036,72.6832962036,36.0024147034,0.258107513189,0,0.00492359464988,0.208060950041,0.179029107094,0.174105510116,1.66353607178,0.062078665942,-0.255325317383,-0.00270067970268,-10.8796539307,-0.223582476377,-5.75235176086,-0.190159991384,26.79722595218,94.541130065917,48.6605834961,30.25006294254,1193
1.64951397503514E+018,97,1.64951397503514E+018,r1000913c5/base_footprint,0,1.64951397503514E+018,v/m1vw10zy74w/map,-12.670878196,-0.682101032748,0,0,0,-0.0134259911793,0.999909867318,0,72.6512069702,11.2487096786,43.0061721802,95.1729354858,59.3897247314,59.3897247314,72.6512069702,72.6512069702,36.3098983765,0.30939501524,0,0.00549991196021,0.258885353804,0.1213510409,0.115851126611,15.6325025558,0.581540107727,-0.62663269043,-0.00662778643891,-10.4836807251,-0.214363709092,-5.67069625854,-0.1850797683,26.8812122344,94.54630279537,48.9060440063,30.63920211796,1052
1.64951397513531E+018,98,1.64951397513531E+018,r1000913c5/base_footprint,0,1.64951397513531E+018,v/m1vw10zy74w/map,-12.5248272579,-0.687274400264,0,0,0,-0.01620881004,0.999868628609,0,72.3769760132,39.7180366516,43.7174949646,95.6022186279,59.2962036133,59.2962036133,72.3769760132,72.3769760132,41.7813529968,0.0596254840493,0,0.0049976343289,0.286854505539,0.0799529030919,0.0749552696943,-15.356628418,-0.630367040634,-1.27593994141,-0.013526876457,-9.6058807373,-0.193314924836,-8.04642868042,-0.238519251347,24.3614082336,94.32627868649,49.690322876,33.73492431638,584
1.64951397523532E+018,99,1.64951397523532E+018,r1000913c5/base_footprint,0,1.64951397523532E+018,v/m1vw10zy74w/map,-12.5248272579,-0.687274400264,0,0,0,-0.01620881004,0.999868628609,0,72.37865448,37.254901886,44.6281547546,95.6022186279,59.1774177551,59.1774177551,72.37865448,72.37865448,40.468296051,0.113999970257,0,0.00477836467326,0.295475810766,0.0683917999268,0.0636134296656,-12.8934936523,-0.529258966446,-1.27593994141,-0.013526876457,-9.48709487915,-0.19092439115,-6.73337173462,-0.199596464634,24.3614082337,94.32627868649,49.69032287595,33.73492431638,584
1.64951397533502E+018,100,1.64951397533502E+018,r1000913c5/base_footprint,0,1.64951397533502E+018,v/m1vw10zy74w/map,-12.4014192043,-0.6950085607,0,0,0,-0.0186200508855,0.999826631824,0,72.7368545532,40.2121505737,45.5103797913,95.4455566406,59.1441040039,59.1441040039,72.7368545532,72.7368545532,33.0969047546,0.0778081342578,0,0.00447310227901,0.303251355886,0.0557418614626,0.0512687601149,-16.3505802155,-0.685226500034,-1.11827850342,-0.0118553033099,-9.16698455811,-0.183423623443,1.13282394409,0.0330947376788,23.8615703582,94.32727813718,49.97711944579,34.22972869869,523
