%time,field.header.seq,field.header.stamp,field.header.frame_id,field.pose.header.seq,field.pose.header.stamp,field.pose.header.frame_id,field.pose.pose.position.x,field.pose.pose.position.y,field.pose.pose.position.z,field.pose.pose.orientation.x,field.pose.pose.orientation.y,field.pose.pose.orientation.z,field.pose.pose.orientation.w,field.label,field.main_output,field.scan_score,field.pose_score,field.cov_score,field.lhood_map_score,field.lhood_robot_score,field.lhood_map_score_all,field.lhood_robot_score_all,field.point_angle_diff,field.average_orientation,field.map_average_orientation,field.sensor_div,field.odom_div_x,field.odom_div_w,field.imu_div_w,field.kdtree_div,field.kdtree_div_p,field.cov_div,field.cov_div_p,field.likelihood_div,field.likelihood_div_p,field.normal_diff_div,field.normal_diff_div_p,field.kdtree_average,field.cov_average,field.likelihood_average,field.normal_diff_average,field.map_update_count
1.64951936528418E+018,0,1.64951936528418E+018,r1000913c5/base_footprint,0,1.64951936528418E+018,v/m1vw10zy74w/map,-8.69523109199,-0.781244318332,0,0,0,-0.890444036415,0.455092757592,0,62.519618988,4.6801199913,100,95.1466598511,42.1240882874,42.1240882874,62.519618988,62.519618988,32.1150093079,0.0834504142404,0,0.00589137291536,0.412854909897,0.00847840867937,0.00258703622967,13.5314426422,0.743013799191,-0.59252166748,-0.00626648077741,4.42086791992,0.094980597496,2.47937011719,0.0716697350144,18.2115626335,94.55413818362,46.54495620732,34.59437942509,1176
1.64951936538361E+018,1,1.64951936538361E+018,r1000913c5/base_footprint,0,1.64951936538361E+018,v/m1vw10zy74w/map,-8.69396545695,-0.783764441041,0,0,0,-0.865561750483,0.500802212555,0,62.8307685852,21.5686283112,42.1689605713,95.4727325439,42.1232719421,42.1232719421,62.8307685852,62.8307685852,27.6792984009,0.2465095222,0,0.00615334138274,0.324648439884,0.00951297953725,0.01566632092,-3.35706520081,-0.18433701992,-0.918594360352,-0.00971500948071,4.42168426514,0.0949981436133,6.91508102417,0.199890300632,18.21156311039,94.554138183548,46.54495620724,34.59437942507,1176
1.64951936548371E+018,2,1.64951936548371E+018,r1000913c5/base_footprint,0,1.64951936548371E+018,v/m1vw10zy74w/map,-8.69574641863,-0.792908828016,0,0,0,-0.833682357497,0.552244263708,0,62.8715782166,16.5623703003,43.1474456787,95.4854888916,42.1315116882,42.1315116882,62.8715782166,62.8715782166,27.0797023773,0.0979885235429,0,0.00296072009951,0.233842521906,0.0386660993099,0.0416268184781,1.64919281006,0.0905574560165,-0.931350708008,-0.00984991993755,4.41344451904,0.0948211103678,7.51467704773,0.217222481966,18.21156311036,94.554138183592,46.54495620724,34.59437942503,1176
1.64951936558388E+018,3,1.64951936558388E+018,r1000913c5/base_footprint,0,1.64951936558388E+018,v/m1vw10zy74w/map,-8.69748396403,-0.772231721678,0,0,0,-0.802144416069,0.597130082787,0,62.8149337769,20.7516345978,44.3165206909,95.4215164185,42.0398902893,42.0398902893,62.8149337769,62.8149337769,26.8794727325,0.106482312083,0,0.00260901008733,0.195604577661,0.052707079798,0.0553160905838,-2.54007148743,-0.139475747943,-0.867378234863,-0.00917335040867,4.50506591797,0.0967895612121,7.7149066925,0.223010405898,18.21156311037,94.554138183637,46.54495620727,34.594379425,1176
1.64951936568395E+018,4,1.64951936568395E+018,r1000913c5/base_footprint,0,1.64951936568395E+018,v/m1vw10zy74w/map,-8.68738722431,-0.766202116244,0,0,0,-0.766552956378,0.6421810999,0,62.8181419373,16.1966152191,44.9168815613,95.5118637085,42.1263122559,42.1263122559,62.8181419373,62.8181419373,28.0803432465,0.0689013451338,0,0.00226844847202,0.176384672523,0.0615690723062,0.0638375207782,2.01494789124,0.110641129315,-0.957725524902,-0.0101288584992,4.41864395142,0.0949328169227,6.51403617859,0.188297525048,18.21156311034,94.554138183598,46.54495620732,34.59437942509,1176
1.64951936698402E+018,5,1.64951936698402E+018,r1000913c5/base_footprint,0,1.64951936698402E+018,v/m1vw10zy74w/map,-8.68413629318,-0.765123688907,0,0,0,-0.731427778768,0.681918913396,0,62.8353500366,24.0196075439,45.4880027771,96.0843887329,42.3185424805,42.3185424805,62.8353500366,62.8353500366,31.9077758789,0.0803017541766,0,0.00242049037479,0.0309621375054,0.179202765226,0.176782265306,-5.77232933044,-0.316339194775,-1.52242279053,-0.0160997379571,4.23215103149,0.0909148901701,2.76852416992,0.0798390880227,18.24727821346,94.56196594237,46.55069351199,34.67630004882,1182
1.64951936708374E+018,6,1.64951936708374E+018,r1000913c5/base_footprint,0,1.64951936708374E+018,v/m1vw10zy74w/map,-8.68413629318,-0.765123688907,0,0,0,-0.731427778768,0.681918913396,0,62.7221870422,18.3673477173,45.8188896179,96.0843887329,42.264919281,42.264919281,62.7221870422,62.7221870422,33.3655891418,0.206792190671,0,0.00490643177181,0.0746510699391,0.153612419963,0.148705989122,-0.120069503784,-0.00658013205975,-1.52242279053,-0.0160997379571,4.28577423096,0.0920668169856,1.31071090698,0.0377984642982,18.247278213516,94.56196594237,46.55069351196,34.67630004878,1182
1.6495193671846E+018,7,1.6495193671846E+018,r1000913c5/base_footprint,0,1.6495193671846E+018,v/m1vw10zy74w/map,-8.68413629318,-0.765123688907,0,0,0,-0.731427778768,0.681918913396,0,62.7158279419,19.9346408844,45.8601264954,96.0843887329,42.3148155212,42.3148155212,62.7158279419,62.7158279419,34.0188903809,0.173705160618,0,0.00531144347042,0.104496367276,0.156965732574,0.151654288173,-1.6873626709,-0.0924720168114,-1.52242279053,-0.0160997379571,4.23587799072,0.0909949466586,0.657409667969,0.0189584717155,18.2472782135,94.56196594237,46.55069351192,34.676300048869,1182
1.64951936728357E+018,8,1.64951936728357E+018,r1000913c5/base_footprint,0,1.64951936728357E+018,v/m1vw10zy74w/map,-8.68413629318,-0.765123688907,0,0,0,-0.731427778768,0.681918913396,0,63.0654754639,22.1095333099,45.797492981,96.0843887329,42.4778175354,42.4778175354,63.0654754639,63.0654754639,29.4856834412,0.054250087589,0,0.00426260894164,0.104598835111,0.1572560817,0.152993485332,-3.86225509644,-0.211661979556,-1.52242279053,-0.0160997379571,4.07287597656,0.0874933451414,5.19061660767,0.149687722325,18.24727821346,94.56196594237,46.55069351196,34.67630004887,1182
1.64951936738371E+018,9,1.64951936738371E+018,r1000913c5/base_footprint,0,1.64951936738371E+018,v/m1vw10zy74w/map,-8.68982768669,-0.916390434079,0,0,0,-0.7012225157,0.712942482585,0,63.0784606934,14.8936166763,45.8083381653,96.0374450684,42.4513130188,42.4513130188,63.0784606934,63.0784606934,28.7966632843,0.131230443716,0,0.00167637248524,0.0998689234257,0.159069433808,0.157393068075,3.10767841339,0.172636374831,-1.44841003418,-0.0153126632795,3.80146026611,0.0821888074279,5.90589332581,0.170186117291,18.00129508969,94.58903503422,46.25277328491,34.70255661011,1167
1.64951936748453E+018,10,1.64951936748453E+018,r1000913c5/base_footprint,0,1.64951936748453E+018,v/m1vw10zy74w/map,-8.6892749634,-0.918802358787,0,0,0,-0.700296527464,0.713852067044,0,62.7200813293,15.0326795578,45.8848800659,96.025138855,42.5138206482,42.5138206482,62.7200813293,62.7200813293,35.878288269,0.104953527451,0,0.000789990241174,0.0981779396534,0.160257413983,0.159467428923,2.96861553192,0.164911225438,-1.4361038208,-0.0151825612411,3.73895263672,0.0808373689651,-1.17573165894,-0.0338802598417,18.00129508972,94.5890350342,46.25277328492,34.70255661006,1167
1.64951936758456E+018,11,1.64951936758456E+018,r1000913c5/base_footprint,0,1.64951936758456E+018,v/m1vw10zy74w/map,-8.6892749634,-0.918802358787,0,0,0,-0.700296527464,0.713852067044,0,63.0303955078,19.0654983521,45.9951896667,96.025138855,42.5666923523,42.5666923523,63.0303955078,63.0303955078,30.8636264801,0.109956771135,0,0.000114018432214,0.0965781584382,0.161025881767,0.160911858082,-1.06420326233,-0.0591181516647,-1.4361038208,-0.0151825612411,3.68608093262,0.0796942710876,3.83893013,0.110623843968,18.00129508977,94.5890350342,46.25277328492,34.7025566101,1167
1.64951936768401E+018,12,1.64951936768401E+018,r1000913c5/base_footprint,0,1.64951936768401E+018,v/m1vw10zy74w/map,-8.6892749634,-0.918802358787,0,0,0,-0.700296527464,0.713852067044,0,63.0922050476,16.0839157104,46.1215629578,96.025138855,42.441493988,42.441493988,63.0922050476,63.0922050476,28.3989086151,0.158277899027,0,0.000293694989523,0.0933000445366,0.159909516573,0.159615814686,1.91737937927,0.106513410807,-1.4361038208,-0.0151825612411,3.81127929688,0.0824010968208,6.303647995,0.18164794147,18.00129508967,94.5890350342,46.25277328488,34.7025566101,1167
1.64951936778387E+018,13,1.64951936778387E+018,r1000913c5/base_footprint,0,1.64951936778387E+018,v/m1vw10zy74w/map,-8.6892749634,-0.918802358787,0,0,0,-0.700296527464,0.713852067044,0,62.8646774292,17.9784584045,46.2189102173,96.025138855,42.2910041809,42.2910041809,62.8646774292,62.8646774292,30.8691673279,0.142592310905,0,3.06678994093E-05,0.0903244838119,0.156867787242,0.156837120652,0.0228366851807,0.00126861350145,-1.4361038208,-0.0151825612411,3.961769104,0.0856547355652,3.83338928223,0.110464178026,18.0012950896807,94.5890350342,46.2527732849,34.70255661013,1167
1.64951936788386E+018,14,1.64951936788386E+018,r1000913c5/base_footprint,0,1.64951936788386E+018,v/m1vw10zy74w/map,-8.68961418557,-1.0688707085,0,0,0,-0.70166667518,0.71250535222,0,62.7671699524,17.7293300629,46.3760871887,95.8907470703,42.12134552,42.12134552,62.7671699524,62.7671699524,30.3081645966,0.076747186482,0,0.000403402926167,0.0842031985521,0.148226007819,0.147822603583,0.257978439331,0.0143422484398,-1.19390106201,-0.0126076117158,3.72278213501,0.0812052115798,4.38501167297,0.126394063234,17.987308502231,94.69684600829,45.84412765501,34.69317626957,1014
1.64951936798377E+018,15,1.64951936798377E+018,r1000913c5/base_footprint,0,1.64951936798377E+018,v/m1vw10zy74w/map,-8.68812337177,-1.07596631801,0,0,0,-0.701850936256,0.71232384719,0,63.0182609558,17.4836597443,46.4073600769,96.1034011841,42.0272674561,42.0272674561,63.0182609558,63.0182609558,25.5380249023,0.195963457227,0,0.000390410830732,0.0778084769845,0.13062505424,0.130234643817,0.503648757935,0.0280002299696,-1.40655517578,-0.0148532418534,3.81686019897,0.0832573398948,9.15515136719,0.263889104128,17.987308502235,94.69684600832,45.84412765507,34.69317626949,1014
1.64951936808386E+018,16,1.64951936808386E+018,r1000913c5/base_footprint,0,1.64951936808386E+018,v/m1vw10zy74w/map,-8.68812337177,-1.07596631801,0,0,0,-0.701850936256,0.71232384719,0,62.9582290649,18.9189186096,46.4565734863,96.1034011841,41.9312973022,41.9312973022,62.9582290649,62.9582290649,25.5821380615,0.221669480205,0,0.000903434061911,0.0713773071766,0.108759187162,0.10785575211,-0.931610107422,-0.0517926365137,-1.40655517578,-0.0148532418534,3.91283035278,0.0853507444263,9.11103820801,0.262617588043,17.987308502178,94.69684600832,45.84412765498,34.69317626951,1014
1.64951936818371E+018,17,1.64951936818371E+018,r1000913c5/base_footprint,0,1.64951936818371E+018,v/m1vw10zy74w/map,-8.69521640598,-1.22377703963,0,0,0,-0.712533252417,0.70163834288,0,62.6127204895,17.0943546295,46.3449783325,96.1506118774,41.7140045166,41.7140045166,62.6127204895,62.6127204895,29.6244792938,0.288186818361,0,0.0038878575433,0.0622527822852,0.0698404759169,0.0659526214004,-0.501176834106,-0.0302037894726,-1.0385055542,-0.0109187522903,0.731281280518,0.0172287989408,5.71482658386,0.161713033915,16.593177795394,95.1121063232,42.445285797118,35.33930587766,392
1.6495193682843E+018,18,1.6495193682843E+018,r1000913c5/base_footprint,0,1.6495193682843E+018,v/m1vw10zy74w/map,-8.69521640598,-1.22377703963,0,0,0,-0.712533252417,0.70163834288,0,63.0372581482,17.4133224487,46.0320053101,96.1506118774,41.6306838989,41.6306838989,63.0372581482,63.0372581482,21.0829715729,0.195078596473,0,0.00310432864353,0.0583021864295,0.0542207099497,0.0511163808405,-0.82014465332,-0.0494266189635,-1.0385055542,-0.0109187522903,0.814601898193,0.0191918108612,14.2563343048,0.40341296792,16.59317779538,95.1121063232,42.445285797093,35.3393058777,392
1.6495193683839E+018,19,1.6495193683839E+018,r1000913c5/base_footprint,0,1.6495193683839E+018,v/m1vw10zy74w/map,-8.6999254446,-1.36547953642,0,0,0,-0.718261130408,0.69577363312,0,62.9794082642,15.966386795,45.7983360291,95.7044525146,41.6662559509,41.6662559509,62.9794082642,62.9794082642,20.9022445679,0.180124133825,0,0.00237067765556,0.0508146062493,0.0357837378979,0.0334130600095,-0.212089538574,-0.0134623292834,-0.538948059082,-0.00566327106208,-0.437042236328,-0.0106003051624,15.3766441345,0.423845499754,15.754297256426,95.165504455518,41.229213714572,36.2788887024,324
1.64951936848387E+018,20,1.64951936848387E+018,r1000913c5/base_footprint,0,1.64951936848387E+018,v/m1vw10zy74w/map,-8.6999254446,-1.36547953642,0,0,0,-0.718261130408,0.69577363312,0,62.8024215698,16.3214588165,45.8772506714,95.7044525146,41.6369552612,41.6369552612,62.8024215698,62.8024215698,23.7715396881,0.219399601221,0,0.00517654884607,0.0447336472571,0.00587292015553,0.0110494690016,-0.567161560059,-0.0360004343092,-0.538948059082,-0.00566327106208,-0.407741546631,-0.00988962687552,12.5073490143,0.34475556016,15.754297256441,95.165504455518,41.229213714569,36.2788887024,324
1.64951937298415E+018,21,1.64951937298415E+018,r1000913c5/base_footprint,0,1.64951937298415E+018,v/m1vw10zy74w/map,-8.70804716246,-2.46457472837,0,0,0,-0.709122434083,0.705085366094,0,62.6837158203,16.1966152191,45.0947494507,95.6773757935,41.7013397217,41.7013397217,62.6837158203,62.6837158203,26.5061016083,0.290224194527,0,0.0131408469751,0.0849747434258,0.0316679142416,0.0448087602854,-5.2718963623,-0.482565850019,-0.289726257324,-0.00303735607304,-1.38527679443,-0.0343604199588,-0.212623596191,-0.00808655284345,10.9247188568,95.387649536176,40.31606292727,26.293478012109,146
1.64951937308428E+018,22,1.64951937308428E+018,r1000913c5/base_footprint,0,1.64951937308428E+018,v/m1vw10zy74w/map,-8.70804716246,-2.46457472837,0,0,0,-0.709122434083,0.705085366094,0,61.7043838501,2.11046242714,44.0653610229,95.6773757935,41.2854042053,41.2854042053,61.7043838501,61.7043838501,39.6419906616,1.50258696079,0,0.0131288403645,0.0964937955141,0.0317253060639,0.0448541492224,8.81425666809,0.8068177104,-0.289726257324,-0.00303735607304,-0.969341278076,-0.0240435507149,-13.3485126495,-0.507673919201,10.92471909523,95.387649536176,40.316062927224,26.2934780121,146
1.64951937318376E+018,23,1.64951937318376E+018,r1000913c5/base_footprint,0,1.64951937318376E+018,v/m1vw10zy74w/map,-8.70804716246,-2.46457472837,0,0,0,-0.709122434083,0.705085366094,0,61.3707313538,0,42.9762573242,95.6773757935,40.8742904663,40.8742904663,61.3707313538,61.3707313538,41.207698822,1.2631829977,0,0.0126797892153,0.128762826324,0.0323235280812,0.0450033172965,10.9247188568,1,-0.289726257324,-0.00303735607304,-0.558227539062,-0.0138462809846,-14.9142208099,-0.567221283913,10.9247188568,95.387649536176,40.316062927238,26.2934780121,146
1.64951937328391E+018,24,1.64951937328391E+018,r1000913c5/base_footprint,0,1.64951937328391E+018,v/m1vw10zy74w/map,-8.70804716246,-2.46457472837,0,0,0,-0.709122434083,0.705085366094,0,61.2377624512,1.35746610165,42.1378135681,95.6773757935,40.5753211975,40.5753211975,61.2377624512,61.2377624512,40.3722648621,1.3005900383,0,0.00984847266227,0.154901668429,0.0336632393301,0.043511711061,9.56725311279,0.875743627548,-0.289726257324,-0.00303735607304,-0.259258270264,-0.00643064454198,-14.07878685,-0.535447895527,10.92471921444,95.387649536176,40.316062927236,26.2934780121,146
1.64951937338411E+018,25,1.64951937338411E+018,r1000913c5/base_footprint,0,1.64951937338412E+018,v/m1vw10zy74w/map,-8.70804716246,-2.46457472837,0,0,0,-0.709122434083,0.705085366094,0,61.2055435181,3.90660071373,41.4099884033,95.6773757935,40.2918357849,40.2918357849,61.2055435181,61.2055435181,37.8905792236,1.28380012512,0,0.00942874699831,0.16164702177,0.0336065143347,0.043035261333,7.01811790466,0.642407178879,-0.289726257324,-0.00303735607304,0.024227142334,0.000600930245128,-11.5971012115,-0.441063791513,10.92471861839,95.387649536176,40.316062927234,26.2934780121,146
1.64951937348372E+018,26,1.64951937348372E+018,r1000913c5/base_footprint,0,1.64951937348372E+018,v/m1vw10zy74w/map,-8.70804716246,-2.46457472837,0,0,0,-0.709122434083,0.705085366094,0,61.1580581665,7.49887752533,41.0138587952,95.6773757935,40.0031089783,40.0031089783,61.1580581665,61.1580581665,35.6270599365,1.54024374485,0,0.00964018702507,0.172621980309,0.0351203493774,0.0447605364025,3.42584133148,0.313586235046,-0.289726257324,-0.00303735607304,0.312953948975,0.00776251265779,-9.33358192444,-0.354977071285,10.92471885681,95.387649536176,40.316062927275,26.29347801206,146
1.64951937358394E+018,27,1.64951937358394E+018,r1000913c5/base_footprint,0,1.64951937358394E+018,v/m1vw10zy74w/map,-8.70804716246,-2.46457472837,0,0,0,-0.709122434083,0.705085366094,0,60.93957901,5.1799826622,40.8510971069,95.6773757935,39.7214546204,39.7214546204,60.93957901,60.93957901,36.5178451538,1.58957850933,0,0.00979311205447,0.176704451442,0.0359106175601,0.0457037314773,5.74473619461,0.525847494602,-0.289726257324,-0.00303735607304,0.594608306885,0.0147486701608,-10.2243671417,-0.38885563612,10.92471885681,95.387649536176,40.316062927285,26.2934780121,146
1.64951937368412E+018,28,1.64951937368412E+018,r1000913c5/base_footprint,0,1.64951937368412E+018,v/m1vw10zy74w/map,-8.70804716246,-2.46457472837,0,0,0,-0.709122434083,0.705085366094,0,61.3296966553,9.98217487335,40.8457756042,95.6773757935,39.5818862915,39.5818862915,61.3296966553,61.3296966553,27.9883804321,1.41255533695,0,0.0113713024184,0.181337013841,0.0377417802811,0.0491130836308,0.942543983459,0.0862762704492,-0.289726257324,-0.00303735607304,0.734176635742,0.0182105246931,-1.69490242004,-0.064460940659,10.924718856809,95.387649536176,40.316062927242,26.29347801206,146
1.64951937378393E+018,29,1.64951937378393E+018,r1000913c5/base_footprint,0,1.64951937378393E+018,v/m1vw10zy74w/map,-8.70804716246,-2.46457472837,0,0,0,-0.709122434083,0.705085366094,0,61.4382286072,10.6590003967,40.9163742065,95.6773757935,39.4868545532,39.4868545532,61.4382286072,61.4382286072,25.0084838867,1.39910662174,0,0.0114799020812,0.181698575616,0.0399423986673,0.0514223016798,0.265718460083,0.024322681129,-0.289726257324,-0.00303735607304,0.829208374023,0.0205676928163,1.28499412537,0.0488712117076,10.924718856783,95.387649536176,40.316062927223,26.29347801207,146
1.64951937388417E+018,30,1.64951937388417E+018,r1000913c5/base_footprint,0,1.64951937388417E+018,v/m1vw10zy74w/map,-8.70804716246,-2.46457472837,0,0,0,-0.709122434083,0.705085366094,0,61.177028656,13.0816507339,41.2203407288,95.6773757935,39.4807052612,39.4807052612,61.177028656,61.177028656,29.6436271667,1.54370033741,0,0.0114578884095,0.180761098862,0.040970582515,0.0524284690619,-2.15693187714,-0.19743591547,-0.289726257324,-0.00303735607304,0.835357666016,0.0207202192396,-3.35014915466,-0.12741369009,10.92471885676,95.387649536176,40.316062927216,26.29347801204,146
1.64951937398499E+018,31,1.64951937398499E+018,r1000913c5/base_footprint,0,1.64951937398499E+018,v/m1vw10zy74w/map,-8.70804716246,-2.46457472837,0,0,0,-0.709122434083,0.705085366094,0,61.2522010803,11.9825706482,41.7576675415,95.6773757935,39.3963394165,39.3963394165,61.2522010803,61.2522010803,27.3794231415,1.43125712872,0,0.0115982070565,0.179319351912,0.0422508493066,0.0538490563631,-1.05785179138,-0.0968310311437,-0.289726257324,-0.00303735607304,0.919723510742,0.0228128302842,-1.08594512939,-0.0413009300828,10.92471885682,95.387649536176,40.316062927242,26.29347801211,146
1.6495193740838E+018,32,1.6495193740838E+018,r1000913c5/base_footprint,0,1.6495193740838E+018,v/m1vw10zy74w/map,-8.70804716246,-2.46457472837,0,0,0,-0.709122434083,0.705085366094,0,60.9622192383,14.0271492004,42.5283622742,95.6773757935,39.2782440186,39.2782440186,60.9622192383,60.9622192383,31.3236503601,1.37670505047,0,0.0111394645646,0.172237038612,0.0470733530819,0.0582128204405,-3.10243034363,-0.283982634544,-0.289726257324,-0.00303735607304,1.03781890869,0.0257420707494,-5.03017234802,-0.191308751702,10.92471885677,95.387649536176,40.31606292729,26.29347801208,146
1.649519374184E+018,33,1.649519374184E+018,r1000913c5/base_footprint,0,1.64951937418401E+018,v/m1vw10zy74w/map,-8.70564835656,-2.30562866169,0,0,0,-0.713518590166,0.700636297581,0,60.9018516541,11.9892234802,43.5324211121,95.6940917969,39.1748466492,39.1748466492,60.9018516541,60.9018516541,31.3537273407,1.58474028111,0,0.0112473731861,0.165082141757,0.0488341599703,0.0600815303624,-0.161885261536,-0.0136873787269,-0.293060302734,-0.00307187763974,1.25497055054,0.031040718779,-3.22686195374,-0.114725261927,11.827338218664,95.401031494166,40.42981719974,28.12686538696,194
1.64951937428422E+018,34,1.64951937428422E+018,r1000913c5/base_footprint,0,1.64951937428422E+018,v/m1vw10zy74w/map,-8.70564835656,-2.30562866169,0,0,0,-0.713518590166,0.700636297581,0,60.8946151733,14.4385023117,44.6832466125,95.6940917969,39.1581192017,39.1581192017,60.8946151733,60.8946151733,31.3033275604,1.27987277508,0,0.0116741843522,0.15530090034,0.0512903481722,0.0629645287991,-2.61116409302,-0.220773607492,-0.293060302734,-0.00307187763974,1.27169799805,0.0314544588327,-3.17646217346,-0.112933389843,11.82733821868,95.401031494166,40.42981719975,28.12686538694,194
1.64951937438383E+018,35,1.64951937438383E+018,r1000913c5/base_footprint,0,1.64951937438383E+018,v/m1vw10zy74w/map,-8.70318208883,-2.1652956653,0,0,0,-0.714413299787,0.699723972069,0,60.6707992554,13.3126935959,45.6116752625,95.3302764893,39.1490745544,39.1490745544,60.6707992554,60.6707992554,33.9246368408,1.23738741875,0,0.0105129992589,0.139660090208,0.0464763380587,0.056989338249,-1.00504493713,-0.0816601887345,0.0580749511719,0.000608826463576,1.31815719604,0.0325734466314,-4.68168449402,-0.160096168518,12.30764865877,95.3883514404719,40.46723175044,29.24295234678,221
1.64951937448393E+018,36,1.64951937448393E+018,r1000913c5/base_footprint,0,1.64951937448393E+018,v/m1vw10zy74w/map,-8.70656326323,-2.14921774274,0,0,0,-0.713979609124,0.700166492882,0,60.9248924255,10.23965168,46.6423721313,95.8689880371,39.2667617798,39.2667617798,60.9248924255,60.9248924255,32.561290741,1.44179928303,0,0.0106774987653,0.118744283915,0.0301311407238,0.0408086366951,2.30752754211,0.183908075094,-0.519836425781,-0.0054519250989,1.24700927734,0.0307798869908,-2.64189338684,-0.0883003547788,12.54717922211,95.349151611319,40.51377105714,29.91939735416,242
1.64951937458388E+018,37,1.64951937458388E+018,r1000913c5/base_footprint,0,1.64951937458388E+018,v/m1vw10zy74w/map,-8.70656326323,-2.14921774274,0,0,0,-0.713979609124,0.700166492882,0,60.7979164124,9.09090900421,47.643699646,95.8689880371,39.3620529175,39.3620529175,60.7979164124,60.7979164124,35.8760032654,1.24924147129,0,0.00667229248211,0.10547722131,0.0255648680031,0.0322371609509,3.4562702179,0.275461941957,-0.519836425781,-0.0054519250989,1.15171813965,0.0284278187901,-5.95660591125,-0.199088439345,12.54717922211,95.349151611319,40.51377105715,29.91939735415,242
1.64951937468448E+018,38,1.64951937468448E+018,r1000913c5/base_footprint,0,1.64951937468448E+018,v/m1vw10zy74w/map,-8.70656326323,-2.14921774274,0,0,0,-0.713979609124,0.700166492882,0,61.2459106445,11.5367078781,49.896396637,95.8689880371,39.6142196655,39.6142196655,61.2459106445,61.2459106445,30.5355167389,1.17940878868,0,0.00586497178301,0.100725539029,0.0244586784393,0.0303236506879,1.01047134399,0.0805337429047,-0.519836425781,-0.0054519250989,0.899551391602,0.0222035963088,-0.616119384766,-0.0205926410854,12.54717922209,95.349151611319,40.513771057102,29.919397354134,242
1.64951937478447E+018,39,1.64951937478447E+018,r1000913c5/base_footprint,0,1.64951937478448E+018,v/m1vw10zy74w/map,-8.69743128668,-2.02070366113,0,0,0,-0.714909089978,0.699217414734,0,61.3696784973,14.0271492004,72.1848449707,95.8411483765,39.9112586975,39.9112586975,61.3696784973,61.3696784973,31.4155387878,0.962583482265,0,0.00544576346874,0.0952962636948,0.0221598781645,0.0276056434959,-1.26679134369,-0.0992755368352,-0.497665405273,-0.00521971099079,0.714534759521,0.0175882037729,-0.571725845337,-0.0185361597687,12.76035785671,95.343482971227,40.625793457021,30.843812942463,278
1.64951937488396E+018,40,1.64951937488396E+018,r1000913c5/base_footprint,0,1.64951937488396E+018,v/m1vw10zy74w/map,-8.69743128668,-2.02070366113,0,0,0,-0.714909089978,0.699217414734,0,61.3107337952,16.8509502411,75.8937454224,95.8411483765,40.410358429,40.410358429,61.3107337952,61.3107337952,37.8667602539,0.783234596252,0,0.00331786554307,0.0759460702538,0.0157946590334,0.0191125255078,-4.09059238434,-0.320570349693,-0.497665405273,-0.00521971099079,0.215435028076,0.00530291255563,-7.0229473114,-0.227693870664,12.76035785676,95.343482971227,40.625793457076,30.8438129425,278
1.64951937498501E+018,41,1.64951937498501E+018,r1000913c5/base_footprint,0,1.64951937498502E+018,v/m1vw10zy74w/map,-8.70242129788,-1.87996314693,0,0,0,-0.716387460105,0.697702663751,0,61.7339706421,15.3297681808,79.4144973755,95.868309021,40.6912918091,40.6912918091,61.7339706421,61.7339706421,33.3804206848,0.766645014286,0,0.00297413463704,0.0704083964229,0.0139105217531,0.016884656623,-1.82493305206,-0.135131821036,-0.595268249512,-0.00624802382663,0.0231819152832,0.000569377734791,-1.47629928589,-0.0462729968131,13.50483512874,95.273040771488,40.7144737243832,31.90412139891,302
1.64951937508399E+018,42,1.64951937508399E+018,r1000913c5/base_footprint,0,1.649519375084E+018,v/m1vw10zy74w/map,-8.70242129788,-1.87996314693,0,0,0,-0.716387460105,0.697702663751,0,61.4420967102,14.9849720001,75.9380493164,95.868309021,40.8674201965,40.8674201965,61.4420967102,61.4420967102,40.5363502502,0.759271085262,0,0.00120386783965,0.0585728287697,0.012121303007,0.0133251715451,-1.48013687134,-0.109600514174,-0.595268249512,-0.00624802382663,-0.152946472168,-0.00375656271353,-8.63222885132,-0.270567834377,13.50483512876,95.273040771488,40.714473724332,31.90412139888,302
1.64951937518386E+018,43,1.64951937518386E+018,r1000913c5/base_footprint,0,1.64951937518387E+018,v/m1vw10zy74w/map,-8.69121129919,-1.74713236295,0,0,0,-0.716942504385,0.697132301221,0,61.7040557861,14.2857141495,72.6655426025,95.5787277222,41.0028190613,41.0028190613,61.7040557861,61.7040557861,36.2408981323,0.863108038902,0,0.00027990405215,0.0493511036038,0.013045267202,0.0133251715451,0.0492277145386,0.00343410624191,-0.325927734375,-0.00342171289958,-0.168338775635,-0.00412246631458,-2.14093780518,-0.0627841725945,14.3349418640386,95.252799987825,40.834480285665,34.09996032712,311
1.64951937528398E+018,44,1.64951937528398E+018,r1000913c5/base_footprint,0,1.64951937528398E+018,v/m1vw10zy74w/map,-8.69319580481,-1.7446545987,0,0,0,-0.717440016194,0.696620286213,0,61.5056877136,15.2612094879,65.1559448242,95.8082427979,41.0081329346,41.0081329346,61.5056877136,61.5056877136,40.6951599121,0.743663728237,0,0.000272877776297,0.0456229634583,0.0130522930995,0.0133251715451,-0.926267623901,-0.0646160691977,-0.555442810059,-0.00583124905825,-0.173652648926,-0.00425259862095,-6.59519958496,-0.193407833576,14.334941863999,95.252799987841,40.834480285674,34.09996032714,311
1.64951937538379E+018,45,1.64951937538379E+018,r1000913c5/base_footprint,0,1.64951937538379E+018,v/m1vw10zy74w/map,-8.69319580481,-1.7446545987,0,0,0,-0.717440016194,0.696620286213,0,61.2761306763,14.6644573212,59.1407546997,95.8082427979,40.9552078247,40.9552078247,61.2761306763,61.2761306763,44.2555427551,0.666496098042,0,0.000290980533464,0.0369729921222,0.0136129930615,0.0139039736241,-0.329515457153,-0.022986870259,-0.555442810059,-0.00583124905825,-0.120727539062,-0.00295650982298,-10.155582428,-0.297818005085,14.334941864047,95.252799987841,40.834480285638,34.0999603271,311
1.64951937548444E+018,46,1.64951937548444E+018,r1000913c5/base_footprint,0,1.64951937548444E+018,v/m1vw10zy74w/map,-8.68601567792,-1.60387910999,0,0,0,-0.71711104397,0.696958930365,0,61.171585083,18.3673477173,54.6199798584,95.5631637573,40.8624076843,40.8624076843,61.171585083,61.171585083,44.2528419495,0.627279698849,0,5.02999064338E-05,0.0336283408105,0.0138536738232,0.0139039736241,-3.2788772583,-0.217310115695,-0.346733093262,-0.00364152574912,0.147850036621,0.0036051964853,-8.74940872192,-0.246438384056,15.088470459,95.216430664038,41.010257720921,35.50343322758,311
1.64951937558415E+018,47,1.64951937558415E+018,r1000913c5/base_footprint,0,1.64951937558415E+018,v/m1vw10zy74w/map,-8.68601567792,-1.60387910999,0,0,0,-0.71711104397,0.696958930365,0,61.0349693298,17.0943546295,49.2505455017,95.5631637573,40.7003288269,40.7003288269,61.0349693298,61.0349693298,44.9614830017,0.670905709267,0,0.000367378204828,0.0241360515356,0.0142713515088,0.0139039736241,-2.00588417053,-0.132941514254,-0.346733093262,-0.00364152574912,0.309928894043,0.00755735067651,-9.45804977417,-0.26639816165,15.08847045897,95.216430664038,41.010257720943,35.50343322753,311
1.64951937568501E+018,48,1.64951937568501E+018,r1000913c5/base_footprint,0,1.64951937568501E+018,v/m1vw10zy74w/map,-8.68287671557,-1.45298058896,0,0,0,-0.718377293131,0.695653695968,0,61.0356178284,18.1924419403,48.1015396118,95.4253540039,40.7137374878,40.7137374878,61.0356178284,61.0356178284,44.5985069275,0.558600068092,0,0.000649604306091,0.0182629823685,0.0145535776392,0.0139039736241,-2.48740959167,-0.158382967114,-0.237594604492,-0.00249606254511,0.48885345459,0.0118646286428,-8.32191848755,-0.229401901364,15.70503234863,95.187759399408,41.20259094239,36.27658843995,312
1.64951937578409E+018,49,1.64951937578409E+018,r1000913c5/base_footprint,0,1.64951937578409E+018,v/m1vw10zy74w/map,-8.68287671557,-1.45298058896,0,0,0,-0.718377293131,0.695653695968,0,61.1454696655,17.6470584869,48.0051383972,95.4253540039,40.6570320129,40.6570320129,61.1454696655,61.1454696655,42.008769989,0.518691241741,0,0.000940201804042,0.0119073493406,0.0148441754282,0.0139039736241,-1.94202613831,-0.12365629524,-0.237594604492,-0.00249606254511,0.545558929443,0.0132408887148,-5.73218154907,-0.158013254404,15.70503234859,95.187759399408,41.202590942343,36.27658843993,312
1.64951937588387E+018,50,1.64951937588387E+018,r1000913c5/base_footprint,0,1.64951937588387E+018,v/m1vw10zy74w/map,-8.68148648926,-1.31627690753,0,0,0,-0.718827369734,0.695188616508,0,60.9688034058,15.075963974,47.8822937012,95.1005706787,40.5714607239,40.5714607239,60.9688034058,60.9688034058,43.0953598022,0.417653292418,0,0.00123897218145,0.00550949480385,0.0151429455727,0.0139039736241,1.01023101807,0.0628011152148,0.0572967529297,0.00060212315293,0.795124053955,0.0192214082927,-6.79198074341,-0.18708948791,16.08619499207,95.1578674316297,41.366584777855,36.30337905879,316
1.64951937598405E+018,51,1.64951937598405E+018,r1000913c5/base_footprint,0,1.64951937598405E+018,v/m1vw10zy74w/map,-8.68270691483,-1.3271345074,0,0,0,-0.719333727781,0.694664658721,0,61.3682174683,14.807302475,47.7036743164,95.1749801636,40.532245636,40.532245636,61.3682174683,61.3682174683,35.7502365112,0.340757906437,0,0.00122317660134,0.000948101689573,0.0151271503419,0.0139039736241,1.27889251709,0.0795024856925,-0.0171127319336,-0.000179835173185,0.834339141846,0.0201693978161,0.553142547607,0.0152366682887,16.08619499209,95.1578674316664,41.366584777846,36.303379058807,316
1.64951937608396E+018,52,1.64951937608396E+018,r1000913c5/base_footprint,0,1.64951937608396E+018,v/m1vw10zy74w/map,-8.68270691483,-1.3271345074,0,0,0,-0.719333727781,0.694664658721,0,61.3619766235,17.4836597443,47.6023025513,95.1749801636,40.5116615295,40.5116615295,61.3619766235,61.3619766235,35.6402893066,0.51795488596,0,0.00119459908456,0.00561830261722,0.0150985727087,0.0139039736241,-1.3974647522,-0.0868735462427,-0.0171127319336,-0.000179835173185,0.854923248291,0.020667001605,0.663089752197,0.0182652343065,16.0861949921,95.1578674316664,41.366584777791,36.303379058797,316
1.64951937618397E+018,53,1.64951937618397E+018,r1000913c5/base_footprint,0,1.64951937618397E+018,v/m1vw10zy74w/map,-8.68270691483,-1.3271345074,0,0,0,-0.719333727781,0.694664658721,0,61.4044418335,16.4300193787,47.5682868958,95.1749801636,40.4591140747,40.4591140747,61.4044418335,61.4044418335,34.3083877563,0.327864944935,0,0.00199501938187,0.0192123223096,0.0144467270002,0.0124517083168,-0.343824386597,-0.0213738791645,-0.0171127319336,-0.000179835173185,0.907470703125,0.0219372883439,1.99499130249,0.0549533218145,16.086194992103,95.1578674316664,41.366584777825,36.30337905879,316
1.64951937628455E+018,54,1.64951937628455E+018,r1000913c5/base_footprint,0,1.64951937628455E+018,v/m1vw10zy74w/map,-8.6830771917,-1.20364848876,0,0,0,-0.716812881309,0.697265582967,0,60.9793243408,16.806722641,47.5589065552,95.3255157471,40.3682022095,40.3682022095,60.9793243408,60.9793243408,41.5206108093,0.269385427237,0,0.00155317375902,0.0739746019244,0.0131813595071,0.0116281853989,1.22092437744,0.0677251070738,-0.418899536133,-0.00441380729899,4.82622909546,0.106788136065,-6.81867980957,-0.196492806077,18.02764701844,94.906616210967,45.19443130496,34.70193099973,787
1.64951937638512E+018,55,1.64951937638512E+018,r1000913c5/base_footprint,0,1.64951937638512E+018,v/m1vw10zy74w/map,-8.6830771917,-1.20364848876,0,0,0,-0.716812881309,0.697265582967,0,61.1999588013,20.4639606476,47.6408882141,95.3255157471,40.3208198547,40.3208198547,61.1999588013,61.1999588013,37.0374450684,0.279183626175,0,0.00113921414595,0.108149334788,0.0121480468661,0.0132872611284,-2.43631362915,-0.135143190622,-0.418899536133,-0.00441380729899,4.8736114502,0.107836544514,-2.3355140686,-0.0673021376133,18.02764701845,94.906616210967,45.1944313049,34.7019309998,787
1.64951937648458E+018,56,1.64951937648458E+018,r1000913c5/base_footprint,0,1.64951937648458E+018,v/m1vw10zy74w/map,-8.67418082902,-1.0690231543,0,0,0,-0.716737870932,0.697342687903,0,61.5783691406,15.7279930115,47.7095756531,95.2397613525,40.3128509521,40.3128509521,61.5783691406,61.5783691406,29.8312530518,0.367989420891,0,0.00114508369006,0.13395729661,0.011089018546,0.0122341029346,2.22242546082,0.123809114099,-0.559829711914,-0.00591286551207,5.49953460693,0.120044708252,4.9656829834,0.142704606056,17.95041847232,94.679931640586,45.81238555903,34.7969360352,1025
1.64951937658444E+018,57,1.64951937658444E+018,r1000913c5/base_footprint,0,1.64951937658445E+018,v/m1vw10zy74w/map,-8.67660153868,-1.0549688646,0,0,0,-0.716668471209,0.697414010739,0,61.9231796265,18.5520362854,47.9424972534,95.5082015991,40.2934532166,40.2934532166,61.9231796265,61.9231796265,24.3816013336,0.41534563899,0,0.00072143622674,0.15394321084,0.00715070636943,0.00642926990986,-0.458524703979,-0.0253419410437,-0.880096435547,-0.00930058211088,5.70701217651,0.124064229429,10.4042377472,0.299094051123,18.093511581421,94.628105163553,46.00046539311,34.7858390808,1080
1.64951937668393E+018,58,1.64951937668393E+018,r1000913c5/base_footprint,0,1.64951937668394E+018,v/m1vw10zy74w/map,-8.67660153868,-1.0549688646,0,0,0,-0.716668471209,0.697414010739,0,61.9753570557,15.6186609268,48.1051025391,95.5082015991,40.4047966003,40.4047966003,61.9753570557,61.9753570557,24.6448764801,0.366246044636,0,0.000190875143744,0.159826859832,0.000307077221805,0.000116202063509,2.4748506546,0.13678111136,-0.880096435547,-0.00930058211088,5.59566879272,0.121643744409,10.1409626007,0.291525602341,18.0935115814,94.628105163553,46.00046539302,34.7858390808,1080
1.64951937678392E+018,59,1.64951937678392E+018,r1000913c5/base_footprint,0,1.64951937678392E+018,v/m1vw10zy74w/map,-8.670592034,-0.917823043512,0,0,0,-0.717074271922,0.696996763656,0,61.997756958,18.6735095978,49.9915008545,95.3607788086,40.5448570251,40.5448570251,61.997756958,61.997756958,25.2236042023,0.415149658918,0,2.55422710325E-05,0.159201145172,0.00139625673182,0.00142179895192,-0.526681900024,-0.0290233585984,-0.756561279297,-0.00799711979926,5.65983963013,0.122494898736,9.50995826721,0.273797363043,18.146827697776,94.604217529303,46.20469665523,34.73356246951,1170
1.64951937698815E+018,60,1.64951937698815E+018,r1000913c5/base_footprint,0,1.64951937698815E+018,v/m1vw10zy74w/map,-8.67085890592,-0.920292038802,0,0,0,-0.716864025513,0.697213001116,0,62.0368080139,14.5850124359,54.4042472839,95.4871368408,40.6581764221,40.6581764221,62.0368080139,62.0368080139,26.1994419098,0.351733624935,0,0.000156057547429,0.157388746738,0.00311568565667,0.00327174318954,3.56181526184,0.196277573705,-0.882919311523,-0.00933276861906,5.54652023315,0.120042346418,8.53412055969,0.245702430606,18.14682769774,94.604217529277,46.20469665525,34.73356246949,1170
1.64951937708454E+018,61,1.64951937708454E+018,r1000913c5/base_footprint,0,1.64951937708454E+018,v/m1vw10zy74w/map,-8.67085890592,-0.920292038802,0,0,0,-0.716864025513,0.697213001116,0,62.3290863037,19.9679870605,58.5163726807,95.4871368408,40.8290939331,40.8290939331,62.3290863037,62.3290863037,22.7843723297,0.142119526863,0,0.000257836596575,0.156034871936,0.00401045475155,0.00426829140633,-1.82115936279,-0.100356899202,-0.882919311523,-0.00933276861906,5.37560272217,0.116343207657,11.9491901398,0.344024330378,18.14682769771,94.604217529277,46.20469665527,34.7335624695,1170
1.64951937718524E+018,62,1.64951937718524E+018,r1000913c5/base_footprint,0,1.64951937718524E+018,v/m1vw10zy74w/map,-8.67085890592,-0.920292038802,0,0,0,-0.716864025513,0.697213001116,0,62.4843711853,18.6735095978,62.2910957336,95.4871368408,41.0622940063,41.0622940063,62.4843711853,62.4843711853,22.5078086853,0.0828438699245,0,0.000475986860693,0.155868083239,0.00420996919274,0.00468595605344,-0.526681900024,-0.0290233585984,-0.882919311523,-0.00933276861906,5.14240264893,0.111296102405,12.2257537842,0.351986736059,18.146827697776,94.604217529277,46.20469665523,34.7335624695,1170
1.64951937738464E+018,63,1.64951937738464E+018,r1000913c5/base_footprint,0,1.64951937738464E+018,v/m1vw10zy74w/map,-8.67085890592,-0.920292038802,0,0,0,-0.716864025513,0.697213001116,0,62.2817878723,21.3036575317,66.0598754883,95.4871368408,41.3107948303,41.3107948303,62.2817878723,62.2817878723,28.8381080627,0.237858265638,0,0.000325825472828,0.154965162277,0.00235012522899,0.00267595052719,-3.15682983398,-0.173960417509,-0.882919311523,-0.00933276861906,4.89390182495,0.105917841196,5.89545440674,0.169733658433,18.14682769772,94.604217529277,46.20469665525,34.73356246944,1170
1.64951937758428E+018,64,1.64951937758428E+018,r1000913c5/base_footprint,0,1.64951937758428E+018,v/m1vw10zy74w/map,-8.67369964278,-0.778759898144,0,0,0,-0.714563790157,0.699570289389,0,62.5492630005,25.5702285767,67.1462173462,95.4879455566,41.5586242676,41.5586242676,62.5492630005,62.5492630005,26.7030258179,0.154890298843,0,0.000333770702127,0.154977336526,0.000861898937728,0.000528128235601,-7.32295036316,-0.401317417622,-0.925979614258,-0.0097923045978,4.99206924438,0.107239417732,7.97327423096,0.22993439436,18.24727821354,94.561965942342,46.55069351198,34.67630004886,1182
1.64951937768359E+018,65,1.64951937768359E+018,r1000913c5/base_footprint,0,1.64951937768359E+018,v/m1vw10zy74w/map,-8.67377438594,-0.779851823777,0,0,0,-0.714840302883,0.699287738613,0,62.850402832,19.6754570007,68.1072998047,95.6955947876,41.7413825989,41.7413825989,62.850402832,62.850402832,24.0037994385,0.226189434528,0,0.00173716829158,0.15512855351,0.000712247390766,0.00102492084261,-1.42817878723,-0.0782680436969,-1.13362884521,-0.0119882114232,4.80931091309,0.103313408792,10.6725006104,0.307775080204,18.24727821347,94.56196594239,46.55069351199,34.6763000489,1182
1.64951937788387E+018,66,1.64951937788387E+018,r1000913c5/base_footprint,0,1.64951937788387E+018,v/m1vw10zy74w/map,-8.67377438594,-0.779851823777,0,0,0,-0.714840302883,0.699287738613,0,62.9157371521,25.3549690247,69.0647659302,95.6955947876,42.0086250305,42.0086250305,62.9157371521,62.9157371521,25.7140407562,0.105488538742,0,0.00146306143142,0.155044570565,0.000798749155365,0.0022618107032,-7.10769081116,-0.389520615339,-1.13362884521,-0.0119882114232,4.54206848145,0.0975725203753,8.9622592926,0.258454889059,18.24727821354,94.56196594239,46.55069351195,34.6763000488,1182
1.64951937799576E+018,67,1.64951937799576E+018,r1000913c5/base_footprint,0,1.64951937799576E+018,v/m1vw10zy74w/map,-8.67377438594,-0.779851823777,0,0,0,-0.714840302883,0.699287738613,0,62.845664978,25.0604343414,68.7139205933,95.6955947876,42.2022819519,42.2022819519,62.845664978,62.845664978,29.0667953491,0.122346960008,0,0.00121110351756,0.155067771673,0.00105070706923,0.0022618107032,-6.81315612793,-0.373379319906,-1.13362884521,-0.0119882114232,4.34841156006,0.0934123918414,5.60950469971,0.161767676473,18.24727821347,94.56196594239,46.55069351196,34.67630004881,1182
1.649519378085E+018,68,1.649519378085E+018,r1000913c5/base_footprint,0,1.649519378085E+018,v/m1vw10zy74w/map,-8.6684049321,-0.6548111981,0,0,0,-0.715169501631,0.698951059758,0,62.8129844666,25.1336898804,65.2875366211,95.6848754883,42.3855514526,42.3855514526,62.8129844666,62.8129844666,31.5957565308,-0.0905568152666,0,0.00125027098693,0.155124351382,0.00101153959986,0.0022618107032,-6.90526390076,-0.378818452358,-1.16459655762,-0.0123211294413,4.42058563232,0.0944445729256,3.07876968384,0.0887905359268,18.22842597964,94.52027893068,46.80613708492,34.67452621464,1116
1.64951937818464E+018,69,1.64951937818464E+018,r1000913c5/base_footprint,0,1.64951937818464E+018,v/m1vw10zy74w/map,-8.6684049321,-0.6548111981,0,0,0,-0.715169501631,0.698951059758,0,63.2426147461,21.837228775,62.6102600098,95.6848754883,42.5942573547,42.5942573547,63.2426147461,63.2426147461,26.116481781,0.192379236221,0,0.00183104665484,0.155339166522,0.000430763990153,0.0022618107032,-3.60880279541,-0.197976648808,-1.16459655762,-0.0123211294413,4.21187973022,0.0899856314063,8.55804443359,0.24681070447,18.22842597959,94.52027893068,46.80613708492,34.67452621459,1116
1.64951937828377E+018,70,1.64951937828377E+018,r1000913c5/base_footprint,0,1.64951937828377E+018,v/m1vw10zy74w/map,-8.6684049321,-0.6548111981,0,0,0,-0.715169501631,0.698951059758,0,62.7681617737,25.1336898804,59.4765319824,95.6848754883,42.7222442627,42.7222442627,62.7681617737,62.7681617737,36.0389099121,0.270202517509,0,0.00168494449463,0.155365929008,0.000576866150368,0.0022618107032,-6.90526390076,-0.378818452358,-1.16459655762,-0.0123211294413,4.08389282227,0.0872512236238,-1.36438369751,-0.0393483005464,18.22842597964,94.52027893068,46.80613708497,34.67452621459,1116
1.64951937838406E+018,71,1.64951937838406E+018,r1000913c5/base_footprint,0,1.64951937838406E+018,v/m1vw10zy74w/map,-8.66933221771,-0.518401604087,0,0,0,-0.715329488587,0.69878732298,0,63.7195777893,22.9494609833,58.0413017273,95.5314941406,42.8950881958,42.8950881958,63.7195777893,63.7195777893,20.2279281616,0.233262330294,0,0.00132494978607,0.15543974936,0.000298653263599,0.00162360304967,-4.71685791016,-0.258704572916,-1.01400756836,-0.010728253983,3.8939781189,0.0832241028547,14.3810348511,0.415529191494,18.23260307314,94.51748657224,46.7890663147,34.6089630127,1050
1.6495193792838E+018,72,1.6495193792838E+018,r1000913c5/base_footprint,0,1.6495193792838E+018,v/m1vw10zy74w/map,-8.66431774649,-0.37935681943,0,0,0,-0.713870819333,0.700277411677,0,63.314250946,24.6064624786,57.5311508179,95.6339874268,42.917552948,42.917552948,63.314250946,63.314250946,28.1353759766,0.212907135487,0,0.00238107703626,0.20541138947,0.0274649132043,0.0298459902406,-6.67226409912,-0.372041404247,-1.14897918701,-0.0121604390442,3.75791168213,0.0805115029216,6.25321960449,0.181839928031,17.93419837948,94.48500823979,46.67546463013,34.38859558109,864
1.64951937938369E+018,73,1.64951937938369E+018,r1000913c5/base_footprint,0,1.64951937938369E+018,v/m1vw10zy74w/map,-8.66431774649,-0.37935681943,0,0,0,-0.713870819333,0.700277411677,0,63.5238952637,22.9208927155,56.4647979736,95.6339874268,42.9733848572,42.9733848572,63.5238952637,63.5238952637,24.9647521973,0.16289588809,0,0.000648870249279,0.201000452042,0.0525310002267,0.0531798712909,-4.98669433594,-0.278055042028,-1.14897918701,-0.0121604390442,3.70207977295,0.0793153271079,9.42384338379,0.274039775133,17.93419837956,94.48500823979,46.67546463015,34.38859558109,864
1.64951937948447E+018,74,1.64951937948447E+018,r1000913c5/base_footprint,0,1.64951937948447E+018,v/m1vw10zy74w/map,-8.66431774649,-0.37935681943,0,0,0,-0.713870819333,0.700277411677,0,63.6130332947,21.0201568604,57.4492454529,95.6339874268,42.9690513611,42.9690513611,63.6130332947,63.6130332947,23.3134841919,0.10401892662,0,0.000145855534356,0.199283182621,0.0652677118778,0.0654135718942,-3.08595848083,-0.172071173787,-1.14897918701,-0.0121604390442,3.70641326904,0.0794081687927,11.0751113892,0.322057694197,17.93419837957,94.48500823979,46.67546463014,34.3885955811,864
1.6495193795847E+018,75,1.6495193795847E+018,r1000913c5/base_footprint,0,1.6495193795847E+018,v/m1vw10zy74w/map,-8.66135217231,-0.484145603985,0,0,0,-0.674841834164,0.737962396645,0,63.151184082,23.777961731,59.9486122131,95.4022598267,42.9474983215,42.9474983215,63.151184082,63.151184082,30.5597953796,0.133751288056,0,0.00166785647161,0.194082841277,0.105733469129,0.107401318848,-5.67324256897,-0.313357114792,-0.894905090332,-0.00946915801615,3.78178024292,0.0809295699,3.9947052002,0.115605928004,18.10471916203,94.507354736368,46.72927856442,34.5545005798,1004
1.64951937968476E+018,76,1.64951937968476E+018,r1000913c5/base_footprint,0,1.64951937968476E+018,v/m1vw10zy74w/map,-8.65155529203,-0.551589450605,0,0,0,-0.630290364838,0.776359488892,0,62.8383369446,17.6470584869,63.960647583,95.1469573975,42.8741760254,42.8741760254,62.8383369446,62.8383369446,34.4800415039,0.255796641111,0,0.00428524846211,0.189625233412,0.124087706208,0.128372952342,0.585544586182,0.0321152471006,-0.629470825195,-0.00665983464569,3.91489028931,0.0836710482836,0.128921508789,0.00372509029694,18.232603073082,94.517486572305,46.78906631471,34.608963012689,1050
1.64951937978456E+018,77,1.64951937978456E+018,r1000913c5/base_footprint,0,1.64951937978456E+018,v/m1vw10zy74w/map,-8.6386815656,-0.599790772789,0,0,0,-0.588405992989,0.808565635811,0,63.1064834595,20.4401187897,64.8058700562,95.3107833862,42.8270492554,42.8270492554,63.1064834595,63.1064834595,29.7342529297,0.0842674523592,0,0.00356388371438,0.180148586631,0.151748523116,0.155312404037,-2.24802780151,-0.123571708798,-0.789367675781,-0.00835120491683,3.95010375977,0.0844451487064,4.94752502441,0.142654880881,18.19209098819,94.521415710419,46.77715301517,34.68177795411,1090
1.64951937988369E+018,78,1.64951937988369E+018,r1000913c5/base_footprint,0,1.6495193798837E+018,v/m1vw10zy74w/map,-8.62130000624,-0.641531029511,0,0,0,-0.535815099174,0.844335347772,0,63.0737342834,16.0899658203,62.995803833,94.9232406616,42.9414024353,42.9414024353,63.0737342834,63.0737342834,30.1635608673,0.00355080328882,0,0.00285970116965,0.12303096056,0.0868978500366,0.0897575467825,2.11553192139,0.116202913225,-0.388999938965,-0.00411491049454,3.82867431641,0.0818616226315,4.5928440094,0.132143810391,18.20549774169,94.534240722635,46.77007675171,34.7564048767,1120
1.64951937998375E+018,79,1.64951937998375E+018,r1000913c5/base_footprint,0,1.64951937998375E+018,v/m1vw10zy74w/map,-8.59817826577,-0.67202613164,0,0,0,-0.475647604936,0.879635922367,0,62.5973205566,11.9892234802,58.6813278198,94.565284729,43.0075683594,43.0075683594,62.5973205566,62.5973205566,38.1649589539,-0.188034385443,0,0.00213944865391,0.10370066762,0.0580150559545,0.060154505074,6.14130210876,0.338727205992,-0.0239410400391,-0.000253233563853,3.68827438354,0.0789850726724,-3.34656524658,-0.0961148664355,18.13052558896,94.5413436889609,46.69584274294,34.81839370732,1154
1.64951938008371E+018,80,1.64951938008371E+018,r1000913c5/base_footprint,0,1.64951938008371E+018,v/m1vw10zy74w/map,-8.59325490486,-0.680996924961,0,0,0,-0.419956116252,0.907544412369,0,63.0910682678,18.4807777405,48.2462730408,94.366065979,43.1627159119,43.1627159119,63.0910682678,63.0910682678,30.2359619141,0.206053003669,0,0.0044861799106,0.0804135203362,0.0297736488283,0.0342598296702,-0.350252151489,-0.0193183664232,0.175277709961,0.0018539794255,3.53312683105,0.0756625533104,4.58243179321,0.131609514356,18.130525589011,94.541343688961,46.69584274295,34.81839370731,1154
1.64951938018383E+018,81,1.64951938018383E+018,r1000913c5/base_footprint,0,1.64951938018383E+018,v/m1vw10zy74w/map,-8.59325490486,-0.680996924961,0,0,0,-0.419956116252,0.907544412369,0,62.9354019165,19.0588226318,47.8727111816,94.366065979,43.3784446716,43.3784446716,62.9354019165,62.9354019165,35.3677787781,0.158742651343,0,0.0140712987632,0.0713472366333,0.0367842428386,0.0508555434644,-0.928297042847,-0.0512007810175,0.175277709961,0.0018539794255,3.31739807129,0.0710426867008,-0.549385070801,-0.0157785881311,18.130525588953,94.541343688961,46.69584274289,34.818393707299,1154
1.64951938028391E+018,82,1.64951938028391E+018,r1000913c5/base_footprint,0,1.64951938028391E+018,v/m1vw10zy74w/map,-8.5919590599,-0.679899020817,0,0,0,-0.371141763604,0.928576217286,0,63.18567276,21.2669677734,47.4163665771,94.2757949829,43.6113700867,43.6113700867,63.18567276,63.18567276,33.0535621643,0.0887461453676,0,0.0119413845241,0.0654408708215,0.0337068326771,0.0456482172012,-3.13644218445,-0.172992348671,0.265548706055,0.00280881044455,3.08447265625,0.0660545453429,1.76483154297,0.0506867580116,18.13052558895,94.541343688955,46.69584274295,34.81839370727,1154
1.64951938068366E+018,83,1.64951938068366E+018,r1000913c5/base_footprint,0,1.64951938068366E+018,v/m1vw10zy74w/map,-8.59264804614,-0.671096668715,0,0,0,-0.264217421021,0.964463143116,0,63.2558937073,12.7134723663,46.8877830505,94.1335754395,43.7841033936,43.7841033936,63.2558937073,63.2558937073,33.1430969238,0.133444428444,0,0.014035211876,0.0161881186068,0.0886409878731,0.0746057778597,5.41705322266,0.298780828714,0.407768249512,0.00431312108412,2.91173934937,0.0623554289341,1.67529678345,0.0481152795255,18.13052558896,94.541343689012,46.69584274297,34.81839370725,1154
1.64951938078474E+018,84,1.64951938078474E+018,r1000913c5/base_footprint,0,1.64951938078474E+018,v/m1vw10zy74w/map,-8.59264804614,-0.671096668715,0,0,0,-0.264217421021,0.964463143116,0,62.7489776611,15.701713562,46.2530479431,94.1335754395,44.0238037109,44.0238037109,62.7489776611,62.7489776611,44.8563804626,-0.0519079305232,0,0.0137985004112,0.0107092019171,0.0844450816512,0.0706465765834,2.42881202698,0.133962586522,0.407768249512,0.00431312108412,2.67203903198,0.0572222024202,-10.0379867554,-0.288295507431,18.13052558898,94.541343689012,46.69584274288,34.8183937072,1154
1.64951938088378E+018,85,1.64951938088378E+018,r1000913c5/base_footprint,0,1.64951938088378E+018,v/m1vw10zy74w/map,-8.54606938798,-0.689911567346,0,0,0,-0.213745006978,0.976889488116,0,62.9429969788,12.9226493835,45.6651916504,94.6799240112,44.1741790771,44.1741790771,62.9429969788,62.9429969788,44.954914093,0.0142851425335,0,0.0142018375918,0.00851498637348,0.0849874690175,0.0707856342196,5.24206542969,0.288585066795,-0.13850402832,-0.00146500894334,2.52500915527,0.0540696568787,-10.0996208191,-0.289758592844,18.16471481319,94.54141998288,46.69918823237,34.8552932739,1144
1.64951938098382E+018,86,1.64951938098382E+018,r1000913c5/base_footprint,0,1.64951938098382E+018,v/m1vw10zy74w/map,-8.5409162574,-0.693825635398,0,0,0,-0.209848024145,0.977734016368,0,63.1652183533,22.2011394501,45.1823043823,94.5301208496,44.4019203186,44.4019203186,63.1652183533,63.1652183533,42.8752326965,0.0123369162902,0,0.0143613182008,0.00620574411005,0.0881738439202,0.0738125219941,-4.03642463684,-0.222212389112,0.0112991333008,0.000119515163533,2.29726791382,0.0491928867996,-8.01993942261,-0.230092436075,18.16471481326,94.5414199829008,46.69918823242,34.85529327389,1144
1.64951938108442E+018,87,1.64951938108442E+018,r1000913c5/base_footprint,0,1.64951938108442E+018,v/m1vw10zy74w/map,-8.5409162574,-0.693825635398,0,0,0,-0.209848024145,0.977734016368,0,63.3633308411,17.1764698029,44.8043861389,94.5301208496,44.624130249,44.624130249,63.3633308411,63.3633308411,41.7091217041,0.0302925687283,0,0.0132825141773,0.00446204142645,0.0930105373263,0.0797280222178,0.988245010376,0.0544046536088,0.0112991333008,0.000119515163533,2.0750579834,0.0444345623255,-6.85382843018,-0.196636661887,18.164714813276,94.5414199829008,46.6991882324,34.85529327392,1144
1.64951938118476E+018,88,1.64951938118476E+018,r1000913c5/base_footprint,0,1.64951938118476E+018,v/m1vw10zy74w/map,-8.46655681887,-0.723644286924,0,0,0,-0.155611920455,0.987818267806,0,63.6132583618,21.2523727417,44.6822471619,94.8201370239,44.7842979431,44.7842979431,63.6132583618,63.6132583618,39.9842262268,0.103250458837,0,0.011455019936,0.00674170255661,0.105620510876,0.0941654965281,-3.07284545898,-0.169027790427,-0.283340454102,-0.00299714459106,1.88693237305,0.0404303111136,-4.78339004517,-0.135888531804,18.17952728272,94.536796569798,46.67123031615,35.20083618163,1190
1.64951938128475E+018,89,1.64951938128475E+018,r1000913c5/base_footprint,0,1.64951938128475E+018,v/m1vw10zy74w/map,-8.39950255234,-0.747141669284,0,0,0,-0.105842449076,0.994382912149,0,63.6755828857,20.2722415924,44.6504936218,94.7059860229,44.8025627136,44.8025627136,63.6755828857,63.6755828857,38.6487350464,0.122193865478,0,0.0113816754892,0.0106942774728,0.123122237623,0.11174055934,-2.11728858948,-0.116623193026,-0.197944641113,-0.00209447415546,1.87697219849,0.0402097441256,-3.44107818604,-0.0977366417646,18.15495300292,94.508041381787,46.67953491209,35.20765686036,1196
1.6495193813849E+018,90,1.6495193813849E+018,r1000913c5/base_footprint,0,1.6495193813849E+018,v/m1vw10zy74w/map,-8.39357625628,-0.75129043546,0,0,0,-0.100477694942,0.994939311124,0,63.4135513306,18.6991863251,44.7543449402,94.7916641235,44.7556381226,44.7556381226,63.4135513306,63.4135513306,43.1669769287,0.171434789896,0,0.01154700201,0.0151165528223,0.132954597473,0.121407590806,-0.544233322144,-0.029977126047,-0.283622741699,-0.00300104357302,1.92389678955,0.0412149950862,-7.95932006836,-0.226067870855,18.154953002956,94.508041381801,46.67953491215,35.20765686034,1196
1.64951938148467E+018,91,1.64951938148467E+018,r1000913c5/base_footprint,0,1.64951938148467E+018,v/m1vw10zy74w/map,-8.39357625628,-0.75129043546,0,0,0,-0.100477694942,0.994939311124,0,63.7609291077,21.2669677734,44.9439926147,94.7916641235,45.083152771,45.083152771,63.7609291077,63.7609291077,40.4513053894,0.243555992842,0,0.0124492971227,0.025070015341,0.170999631286,0.158550336957,-3.11201477051,-0.171414092183,-0.283622741699,-0.00300104357302,1.59638214111,0.034198757261,-5.24364852905,-0.148934885859,18.15495300289,94.508041381801,46.67953491211,35.20765686035,1196
1.64951938158384E+018,92,1.64951938158384E+018,r1000913c5/base_footprint,0,1.64951938158384E+018,v/m1vw10zy74w/map,-8.28169751083,-0.761889536532,0,0,0,-0.0450793379294,0.998983409918,0,64.0112228394,19.5501728058,45.2370452881,95.1408081055,45.2086601257,45.2086601257,64.0112228394,64.0112228394,38.5584411621,0.254180639982,0,0.0126894656569,0.0289510712028,0.188987851143,0.176298379898,-1.47080612183,-0.0813527479768,-0.665969848633,-0.00704917684197,1.81254959106,0.0385474897921,-2.79931259155,-0.0782824605703,18.07936668397,94.474838256867,47.02120971676,35.75912857055,1098
1.64951938168387E+018,93,1.64951938168387E+018,r1000913c5/base_footprint,0,1.64951938168387E+018,v/m1vw10zy74w/map,-8.28169751083,-0.761889536532,0,0,0,-0.0450793379294,0.998983409918,0,63.9779930115,16.2210330963,45.6402702332,95.1408081055,45.3658256531,45.3658256531,63.9779930115,63.9779930115,40.853931427,0.367133915424,0,0.0152928754687,0.03429267928,0.233862832189,0.218569949269,1.85833358765,0.102787539363,-0.665969848633,-0.00704917684197,1.65538406372,0.0352050513029,-5.09480285645,-0.14247559011,18.07936668395,94.474838256867,47.02120971682,35.75912857055,1098
1.64951938178381E+018,94,1.64951938178381E+018,r1000913c5/base_footprint,0,1.64951938178381E+018,v/m1vw10zy74w/map,-8.12889716566,-0.771767336779,0,0,0,-0.0037071002648,0.99999312868,0,64.8303222656,20.0367641449,46.1320610046,95.4216690063,45.7784614563,45.7784614563,64.8303222656,64.8303222656,30.9795475006,0.147442907095,0,0.0167278368026,0.0420240983367,0.264661073685,0.247933223844,-1.76371383667,-0.096519947052,-1.075050354,-0.0113946888596,2.30484008789,0.0479343160987,5.98410606384,0.161891624331,18.27305030823,94.3466186523,48.08330154419,36.96365356444,877
1.64951938188404E+018,95,1.64951938188404E+018,r1000913c5/base_footprint,0,1.64951938188404E+018,v/m1vw10zy74w/map,-7.98460336615,-0.765226670368,0,0,0,0.0148254135718,0.999890097517,0,64.8350906372,15.4411764145,46.6034202576,95.4576950073,46.0678024292,46.0678024292,64.8350906372,64.8350906372,34.1483230591,0.0646556019783,0,0.0147565482184,0.0467088595033,0.31498453021,0.300227999687,1.9823102951,0.113772310317,-1.20076751709,-0.0127393025905,2.18107223511,0.0452046245337,3.35022354126,0.0893427580595,17.4234867096,94.25692749021,48.24887466431,37.49854660036,817
1.64951938198509E+018,96,1.64951938198509E+018,r1000913c5/base_footprint,0,1.64951938198509E+018,v/m1vw10zy74w/map,-7.98460336615,-0.765226670368,0,0,0,0.0148254135718,0.999890097517,0,64.7143859863,20.3334884644,47.1255302429,95.4576950073,46.3311004639,46.3311004639,64.7143859863,64.7143859863,39.1646728516,0.261743396521,0,0.0130272153765,0.0482348315418,0.331121474504,0.31809425354,-2.91000175476,-0.167016044259,-1.20076751709,-0.0127393025905,1.91777420044,0.039747543633,-1.66612625122,-0.0444317571819,17.42348670964,94.25692749021,48.24887466434,37.49854660038,817
1.64951938208523E+018,97,1.64951938208523E+018,r1000913c5/base_footprint,0,1.64951938208523E+018,v/m1vw10zy74w/map,-7.82696319647,-0.759957800188,0,0,0,0.022872694657,0.999738385699,0,65.058631897,11.9892234802,47.7894706726,95.5476455688,46.5376853943,46.5376853943,65.058631897,65.058631897,35.5231056213,0.0761189088225,0,0.014796430245,0.05116796121,0.36434212327,0.349545687437,4.59317970276,0.276991188526,-1.30606842041,-0.0138587281108,1.74582672119,0.0361578240991,2.03730392456,0.0542407259345,16.58240318296,94.24157714839,48.28351211549,37.56040954586,784
1.64951938218401E+018,98,1.64951938218401E+018,r1000913c5/base_footprint,0,1.64951938218401E+018,v/m1vw10zy74w/map,-7.82696319647,-0.759957800188,0,0,0,0.022872694657,0.999738385699,0,65.4387054443,14.0271492004,50.7411460876,95.5476455688,46.7585334778,46.7585334778,65.4387054443,65.4387054443,31.0669441223,-0.0487160868943,0,0.0186006147414,0.0125529011711,0.262597322464,0.243996709585,2.55525398254,0.154094308615,-1.30606842041,-0.0138587281108,1.5249786377,0.0315838381648,6.49346542358,0.172880575061,16.58240318294,94.24157714839,48.2835121155,37.56040954588,784
1.64951938228384E+018,99,1.64951938228384E+018,r1000913c5/base_footprint,0,1.64951938228384E+018,v/m1vw10zy74w/map,-7.66629484441,-0.755096959375,0,0,0,0.0210695781291,0.999778011799,0,65.3714065552,11.9892234802,62.5598869324,95.5484008789,46.8933677673,46.8933677673,65.3714065552,65.3714065552,33.7372512817,0.103520594537,0,0.0129688289016,0.0195668824017,0.243284657598,0.230315819383,3.8402338028,0.242600470781,-1.14228057861,-0.0120996451005,0.194812774658,0.00413719052449,2.83053207397,0.0774050801992,15.829457283,94.40612030029,47.088180541958,36.56778335567,1036
1.64951938238414E+018,100,1.64951938238414E+018,r1000913c5/base_footprint,0,1.64951938238414E+018,v/m1vw10zy74w/map,-7.51985922473,-0.747788106076,0,0,0,0.018268193528,0.999833122629,0,65.0871124268,20.3619918823,62.7468109131,95.2458343506,47.1371078491,47.1371078491,65.0871124268,65.0871124268,40.397769928,0.297640234232,0,0.0056702955626,0.0162597820163,0.25066229701,0.244992017746,-4.55180644989,-0.287903428078,-0.77677154541,-0.00822249613702,-0.597545623779,-0.0128395194188,-4.19128799438,-0.115760706365,15.81018543241,94.46906280519,46.539562225321,36.20648193362,1179
1.64951938248393E+018,101,1.64951938248393E+018,r1000913c5/base_footprint,0,1.64951938248393E+018,v/m1vw10zy74w/map,-7.51985922473,-0.747788106076,0,0,0,0.018268193528,0.999833122629,0,65.5758743286,19.7446422577,63.9560012817,95.2458343506,47.3202934265,47.3202934265,65.5758743286,65.5758743286,33.5784111023,0.347292512655,0,0.00778138125315,0.00808405503631,0.254651427269,0.246870040894,-3.93445682526,-0.248855829239,-0.77677154541,-0.00822249613702,-0.780731201172,-0.0167756453156,2.6280708313,0.0725856423378,15.81018543244,94.46906280519,46.539562225328,36.2064819336,1179
