%time,field.header.seq,field.header.stamp,field.header.frame_id,field.pose.header.seq,field.pose.header.stamp,field.pose.header.frame_id,field.pose.pose.position.x,field.pose.pose.position.y,field.pose.pose.position.z,field.pose.pose.orientation.x,field.pose.pose.orientation.y,field.pose.pose.orientation.z,field.pose.pose.orientation.w,field.label,field.main_output,field.scan_score,field.pose_score,field.cov_score,field.lhood_map_score,field.lhood_robot_score,field.lhood_map_score_all,field.lhood_robot_score_all,field.point_angle_diff,field.average_orientation,field.map_average_orientation,field.sensor_div,field.odom_div_x,field.odom_div_w,field.imu_div_w,field.kdtree_div,field.kdtree_div_p,field.cov_div,field.cov_div_p,field.likelihood_div,field.likelihood_div_p,field.normal_diff_div,field.normal_diff_div_p,field.kdtree_average,field.cov_average,field.likelihood_average,field.normal_diff_average,field.map_update_count
1.64951777930821E+018,0,1.64951777930821E+018,r1000913c5/base_footprint,0,1.64951777930822E+018,v/m1vw10zy74w/map,-7.11345109235,-0.765154822716,0,0,0,-0.735890185953,0.677100904015,0,63.9745788574,28.571428299,100,96.3349227905,43.6142845154,43.6142845154,63.9745788574,63.9745788574,26.2976074219,-0.146292567253,0,0.00254259002395,0.0191936269403,0.265973329544,0.268515914679,-12.5494060516,-0.783259809017,-1.82849884033,-0.019347878173,2.51779174805,0.0545778982341,9.52342224121,0.265861213207,16.0220222474,94.50642395017,46.13207626345,35.82102966311,1267
1.6495177794086E+018,1,1.6495177794086E+018,r1000913c5/base_footprint,0,1.6495177794086E+018,v/m1vw10zy74w/map,-7.11345109235,-0.765154822716,0,0,0,-0.735890185953,0.677100904015,0,63.2448577881,14.5969495773,40.5374755859,96.3349227905,43.310634613,43.310634613,63.2448577881,63.2448577881,36.1531181335,0.141576901078,0,0.00248655490577,0.0555366948247,0.30981194973,0.312298506498,1.42507266998,0.0889446213841,-1.82849884033,-0.019347878173,2.82144165039,0.0611600838602,-0.332088470459,-0.00927076861262,16.02202224728,94.50642395017,46.13207626339,35.821029663041,1267
1.64951777950864E+018,2,1.64951777950864E+018,r1000913c5/base_footprint,0,1.64951777950864E+018,v/m1vw10zy74w/map,-7.11345109235,-0.765154822716,0,0,0,-0.735890185953,0.677100904015,0,63.1597938538,14.3598613739,41.5888671875,96.3349227905,42.978099823,42.978099823,63.1597938538,63.1597938538,34.0928955078,0.12562468648,0,0.00226916559041,0.10255727917,0.353494614363,0.351225465536,1.66216087341,0.103742264211,-1.82849884033,-0.019347878173,3.15397644043,0.0683684051037,1.72813415527,0.0482435636222,16.02202224731,94.50642395017,46.13207626343,35.82102966307,1267
1.64951777960876E+018,3,1.64951777960876E+018,r1000913c5/base_footprint,0,1.64951777960876E+018,v/m1vw10zy74w/map,-7.11345109235,-0.765154822716,0,0,0,-0.735890185953,0.677100904015,0,62.7380752563,13.4453783035,42.9031066895,96.3349227905,42.4174346924,42.4174346924,62.7380752563,62.7380752563,35.6286392212,0.202733412385,0,0.00274689262733,0.115362636745,0.358532041311,0.355785131454,2.57664394379,0.160818889737,-1.82849884033,-0.019347878173,3.71464157104,0.0805218815804,0.192390441895,0.00537087954581,16.02202224729,94.50642395017,46.13207626344,35.821029663095,1267
1.6495177797083E+018,4,1.6495177797083E+018,r1000913c5/base_footprint,0,1.6495177797083E+018,v/m1vw10zy74w/map,-7.11345109235,-0.765154822716,0,0,0,-0.735890185953,0.677100904015,0,62.3790435791,11.9825706482,43.9439849854,96.3349227905,41.992729187,41.992729187,62.3790435791,62.3790435791,37.5044441223,0.0573101006448,0,0.00164355232846,0.112978696823,0.341229975224,0.339586406946,4.03945159912,0.252118706703,-1.82849884033,-0.019347878173,4.13934707642,0.0897281765938,-1.68341445923,-0.0469951443374,16.02202224732,94.50642395017,46.13207626342,35.82102966307,1267
1.64951777980906E+018,5,1.64951777980906E+018,r1000913c5/base_footprint,0,1.64951777980906E+018,v/m1vw10zy74w/map,-7.12924001914,-0.902010233448,0,0,0,-0.766339421659,0.642435904049,0,62.2956848145,13.9596138,44.7430419922,96.0573196411,41.7091255188,41.7091255188,62.2956848145,62.2956848145,34.9426078796,-0.0281113740057,0,0.00178609776776,0.105944991112,0.300734847784,0.298948734999,2.10045623779,0.130787491798,-1.52243041992,-0.0161044299603,4.27898406982,0.0930454432964,0.823684692383,0.0230296365917,16.06007003779,94.53488922118,45.98810958862,35.766292571983,1275
1.64951777990807E+018,6,1.64951777990807E+018,r1000913c5/base_footprint,0,1.64951777990807E+018,v/m1vw10zy74w/map,-7.12924001914,-0.902010233448,0,0,0,-0.766339421659,0.642435904049,0,61.7681465149,12.6297578812,45.3652915955,96.0573196411,41.4455680847,41.4455680847,61.7681465149,61.7681465149,41.5918617249,-0.000675746588968,0,0.00642606895417,0.0973683074117,0.245748385787,0.239322319627,3.43031215668,0.213592603803,-1.52243041992,-0.0161044299603,4.54254150391,0.0987764373422,-5.82556915283,-0.162878751755,16.06007003788,94.53488922118,45.98810958861,35.76629257207,1275
1.64951778000814E+018,7,1.64951778000814E+018,r1000913c5/base_footprint,0,1.64951778000814E+018,v/m1vw10zy74w/map,-7.12924001914,-0.902010233448,0,0,0,-0.766339421659,0.642435904049,0,61.6268997192,11.5435647964,45.8601455688,96.0573196411,41.2995071411,41.2995071411,61.6268997192,61.6268997192,42.5568695068,-0.0600586086512,0,0.00321565708145,0.0925221815705,0.226766556501,0.223550900817,4.51650524139,0.28122574091,-1.52243041992,-0.0161044299603,4.68860244751,0.101952493191,-6.79057693481,-0.189859688282,16.06007003779,94.53488922118,45.98810958861,35.76629257199,1275
1.64951778020804E+018,8,1.64951778020804E+018,r1000913c5/base_footprint,0,1.64951778020804E+018,v/m1vw10zy74w/map,-7.16863978216,-1.05802004959,0,0,0,-0.791863049948,0.610698706506,0,61.7556304932,19.8635978699,46.1524543762,95.8818435669,41.2891197205,41.2891197205,61.7556304932,61.7556304932,39.4957580566,-0.0191183779389,0,0.00240079592913,0.0877633020282,0.220380097628,0.217979311943,-4.12145614624,-0.261810392141,-1.28323364258,-0.0135650373995,4.45561981201,0.0974017977715,-3.44581222534,-0.0955843925476,15.74214172366,94.59860992432,45.74473953251,36.04994583126,1179
1.64951778030833E+018,9,1.64951778030833E+018,r1000913c5/base_footprint,0,1.64951778030833E+018,v/m1vw10zy74w/map,-7.16863978216,-1.05802004959,0,0,0,-0.791863049948,0.610698706506,0,62.2047576904,20.1680679321,46.4164848328,95.8818435669,41.4002075195,41.4002075195,62.2047576904,62.2047576904,32.6112442017,-0.0323236845434,0,0.00229377415963,0.0861323326826,0.218087092042,0.215793311596,-4.4259262085,-0.281151473522,-1.28323364258,-0.0135650373995,4.34453201294,0.0949733704329,3.43870162964,0.0953871533275,15.7421417236,94.59860992432,45.74473953244,36.04994583134,1179
1.64951778040802E+018,10,1.64951778040802E+018,r1000913c5/base_footprint,0,1.64951778040802E+018,v/m1vw10zy74w/map,-7.16863978216,-1.05802004959,0,0,0,-0.791863049948,0.610698706506,0,62.3184661865,13.6690645218,46.6524620056,95.8818435669,41.563785553,41.563785553,62.3184661865,62.3184661865,32.3311500549,-0.0010272389045,0,0.0020545211155,0.0813099592924,0.210856199265,0.208801686764,2.07307720184,0.131689652801,-1.28323364258,-0.0135650373995,4.18095397949,0.0913974791765,3.71879577637,0.103156767786,15.74214172364,94.59860992432,45.74473953249,36.04994583127,1179
1.6495177805081E+018,11,1.6495177805081E+018,r1000913c5/base_footprint,0,1.6495177805081E+018,v/m1vw10zy74w/map,-7.16863978216,-1.05802004959,0,0,0,-0.791863049948,0.610698706506,0,62.3295288086,21.0084037781,46.8628311157,95.8818435669,41.6852645874,41.6852645874,62.3295288086,62.3295288086,33.4439849854,-0.228898897767,0,0.00197247392498,0.0797656476498,0.207768186927,0.20579572022,-5.26626205444,-0.334532767534,-1.28323364258,-0.0135650373995,4.05947494507,0.0887418985367,2.60596084595,0.0722875073552,15.74214172366,94.59860992432,45.74473953247,36.04994583135,1179
1.64951778060871E+018,12,1.64951778060871E+018,r1000913c5/base_footprint,0,1.64951778060871E+018,v/m1vw10zy74w/map,-7.16863978216,-1.05802004959,0,0,0,-0.791863049948,0.610698706506,0,62.2939987183,21.5686283112,46.9822311401,95.8818435669,41.8631134033,41.8631134033,62.2939987183,62.2939987183,36.0042953491,-0.022104376927,0,0.00171807070728,0.076702773571,0.202532336116,0.200814262033,-5.82648658752,-0.370120316744,-1.28323364258,-0.0135650373995,3.88162612915,0.0848540440202,0.0456504821777,0.00126631208695,15.74214172368,94.59860992432,45.74473953245,36.0499458312777,1179
1.64951778070863E+018,13,1.64951778070863E+018,r1000913c5/base_footprint,0,1.64951778070863E+018,v/m1vw10zy74w/map,-7.16863978216,-1.05802004959,0,0,0,-0.791863049948,0.610698706506,0,62.6792945862,20.1680679321,46.5889091492,95.8818435669,42.0439453125,42.0439453125,62.6792945862,62.6792945862,31.0219764709,0.00328138400801,0,0.00144458259456,0.0751187875867,0.199758172035,0.198313578963,-4.4259262085,-0.281151473522,-1.28323364258,-0.0135650373995,3.70079421997,0.0809009820223,5.02796936035,0.139472320676,15.7421417236,94.59860992432,45.74473953247,36.04994583125,1179
1.64951778080822E+018,14,1.64951778080822E+018,r1000913c5/base_footprint,0,1.64951778080822E+018,v/m1vw10zy74w/map,-7.2047928124,-1.21275694087,0,0,0,-0.768237014983,0.640165516729,0,62.6042098999,25.8312015533,46.0771903992,95.4222183228,42.2410011292,42.2410011292,62.6042098999,62.6042098999,32.8470535278,-0.0546280257404,0,0.00103494978976,0.0735721588135,0.19695071876,0.19591575861,-10.6926212311,-0.706315994263,-0.275123596191,-0.00289156055078,1.80318450928,0.0409403517842,4.69017791748,0.124947361648,15.1385803222,95.147094726609,44.04418563848,37.53723144528,534
1.64951778090865E+018,15,1.64951778090865E+018,r1000913c5/base_footprint,0,1.64951778090865E+018,v/m1vw10zy74w/map,-7.2047928124,-1.21275694087,0,0,0,-0.768237014983,0.640165516729,0,63.0235939026,25.518409729,45.6950759888,95.4222183228,42.416179657,42.416179657,63.0235939026,63.0235939026,27.1900405884,0.043420676142,0,0.000282724155113,0.0704106688499,0.193677276373,0.193394556642,-10.3798294067,-0.685654103756,-0.275123596191,-0.00289156055078,1.62800598145,0.0369630157948,10.3471908569,0.275651425123,15.1385803223,95.147094726609,44.04418563845,37.5372314453,534
1.64951778100803E+018,16,1.64951778100803E+018,r1000913c5/base_footprint,0,1.64951778100803E+018,v/m1vw10zy74w/map,-7.2047928124,-1.21275694087,0,0,0,-0.768237014983,0.640165516729,0,62.8797149658,22.7136116028,45.3990211487,95.4222183228,42.5395278931,42.5395278931,62.8797149658,62.8797149658,31.1120548248,-0.0341947488487,0,0.000163590666489,0.0688286870718,0.19270658493,0.192870169878,-7.57503128052,-0.500379264355,-0.275123596191,-0.00289156055078,1.50465774536,0.0341624617577,6.42517662048,0.171168103814,15.13858032228,95.147094726609,44.04418563846,37.53723144528,534
1.64951778110796E+018,17,1.64951778110796E+018,r1000913c5/base_footprint,0,1.64951778110796E+018,v/m1vw10zy74w/map,-7.2047928124,-1.21275694087,0,0,0,-0.768237014983,0.640165516729,0,63.3398857117,22.7136116028,45.1935005188,95.4222183228,42.6490783691,42.6490783691,63.3398857117,63.3398857117,24.0120658875,0.00619927467778,0,0.00145266694017,0.0642114877701,0.188995540142,0.190448209643,-7.57503128052,-0.500379264355,-0.275123596191,-0.00289156055078,1.39510726929,0.0316751748323,13.5251655579,0.360313355923,15.13858032228,95.147094726609,44.04418563839,37.5372314454,534
1.64951778120805E+018,18,1.64951778120805E+018,r1000913c5/base_footprint,0,1.64951778120805E+018,v/m1vw10zy74w/map,-7.22351575903,-1.35321867182,0,0,0,-0.741099878958,0.671394793998,0,63.1484184265,17.9784584045,45.0650482178,94.5660476685,42.7383956909,42.7383956909,63.1484184265,63.1484184265,25.3408794403,0.0873043462634,0,0.0042641996406,0.0563333854079,0.183870688081,0.188134893775,-3.59093379974,-0.249586626887,0.605285644531,0.00635995762423,-0.249279022217,-0.00586689123884,13.8208370209,0.352917045355,14.38752460476,95.171333313031,42.489116668683,39.1617164612,347
1.6495177847097E+018,19,1.6495177847097E+018,r1000913c5/base_footprint,0,1.6495177847097E+018,v/m1vw10zy74w/map,-7.23026069581,-2.23304435205,0,0,0,-0.707331903709,0.706881586969,0,62.3360137939,19.3747425079,44.9327926636,92.0232086182,42.8372840881,42.8372840881,62.3360137939,62.3360137939,31.8779735565,-0.0688175410032,0,0.000287729897536,0.037295088172,0.000673062982969,0.000385333114536,-5.75425624847,-0.42247068882,3.16072845459,0.0332065336406,-0.431255340576,-0.0101696709171,2.7012386322,0.078117415309,13.62048625943,95.18393707279,42.406028747524,34.5792121887,255
1.64951778620956E+018,20,1.64951778620956E+018,r1000913c5/base_footprint,0,1.64951778620956E+018,v/m1vw10zy74w/map,-7.22979556565,-2.479499035,0,0,0,-0.710128869486,0.704071721292,0,63.101524353,17.4714660645,44.7005805969,93.9708251953,42.8826599121,42.8826599121,63.101524353,63.101524353,25.6002788544,1.13633263111,0,0.0100661758333,0.0852981284261,0.02810770832,0.0381738841534,-4.36374187469,-0.332913756371,1.2261505127,0.0128801418468,-0.582611083984,-0.0137732960284,9.00270271301,0.260171294212,13.10772418981,95.196975708,42.300048828116,34.60298156741,186
1.64951778630845E+018,21,1.64951778630845E+018,r1000913c5/base_footprint,0,1.64951778630845E+018,v/m1vw10zy74w/map,-7.22979556565,-2.479499035,0,0,0,-0.710128869486,0.704071721292,0,62.2720870972,11.1111106873,43.9627189636,93.9708251953,42.6573562622,42.6573562622,62.2720870972,62.2720870972,38.0968551636,1.32981860638,0,0.0101043051109,0.171934425831,0.0353691130877,0.0454734191298,1.9966135025,0.152323424816,1.2261505127,0.0128801418468,-0.357307434082,-0.00844697467983,-3.49387359619,-0.100970305502,13.1077241898,95.196975708,42.300048828118,34.60298156741,186
1.64951778640793E+018,22,1.64951778640793E+018,r1000913c5/base_footprint,0,1.64951778640793E+018,v/m1vw10zy74w/map,-7.22979556565,-2.479499035,0,0,0,-0.710128869486,0.704071721292,0,62.031463623,11.3122167587,43.4658317566,93.9708251953,42.5708503723,42.5708503723,62.031463623,62.031463623,41.4938049316,0.876998901367,0,0.00979848019779,0.189714327455,0.0334983766079,0.0432968586683,1.79550743103,0.136980861425,1.2261505127,0.0128801418468,-0.270801544189,-0.00640192022547,-6.89082336426,-0.199139580131,13.10772418973,95.196975708,42.300048828111,34.60298156734,186
1.64951778650862E+018,23,1.64951778650862E+018,r1000913c5/base_footprint,0,1.64951778650862E+018,v/m1vw10zy74w/map,-7.22979556565,-2.479499035,0,0,0,-0.710128869486,0.704071721292,0,62.0306854248,13.5472373962,43.2099151611,93.9708251953,42.6387672424,42.6387672424,62.0306854248,62.0306854248,42.2413291931,1.23801457882,0,0.00839754659683,0.198850765824,0.0348180197179,0.0432155653834,-0.439513206482,-0.033530857414,1.2261505127,0.0128801418468,-0.338718414307,-0.0080075180158,-7.63834762573,-0.220742464066,13.107724189718,95.196975708,42.300048828093,34.60298156737,186
1.64951778670789E+018,24,1.64951778670789E+018,r1000913c5/base_footprint,0,1.64951778670789E+018,v/m1vw10zy74w/map,-7.22979556565,-2.479499035,0,0,0,-0.710128869486,0.704071721292,0,62.4832077026,18.3494300842,43.1949691772,93.9708251953,42.7025032043,42.7025032043,62.4832077026,62.4832077026,34.7842788696,0.710781753063,0,0.00828482117504,0.1974747926,0.0352153927088,0.0435002148151,-5.24170589447,-0.399894416332,1.2261505127,0.0128801418468,-0.402454376221,-0.0095142768696,-0.181297302246,-0.00523935491219,13.10772418973,95.196975708,42.300048828079,34.602981567354,186
1.64951778680799E+018,25,1.64951778680799E+018,r1000913c5/base_footprint,0,1.64951778680799E+018,v/m1vw10zy74w/map,-7.22979556565,-2.479499035,0,0,0,-0.710128869486,0.704071721292,0,62.7616844177,16.593503952,42.8113708496,93.9708251953,42.8441925049,42.8441925049,62.7616844177,62.7616844177,31.3019561768,0.814885377884,0,0.00779461162165,0.193609312177,0.0359951779246,0.0437897890806,-3.48577976227,-0.26593324542,1.2261505127,0.0128801418468,-0.544143676758,-0.0128639014438,3.30102539062,0.0953971371055,13.10772418973,95.196975708,42.300048828142,34.60298156742,186
1.64951778690873E+018,26,1.64951778690873E+018,r1000913c5/base_footprint,0,1.64951778690873E+018,v/m1vw10zy74w/map,-7.228111602,-2.33231106861,0,0,0,-0.71094891151,0.703243659924,0,62.8399276733,17.1122989655,42.434967041,94.3151931763,42.91355896,42.91355896,62.8399276733,62.8399276733,31.8824424744,1.01571214199,0,0.00771409319714,0.190785780549,0.0360958538949,0.0438099466264,-3.54334354401,-0.261136054993,0.877944946289,0.00922277569771,-0.529418945312,-0.0124909682199,2.06045150757,0.060703471303,13.56895542149,95.193138122589,42.384140014688,33.94289398197,227
1.64951778710796E+018,27,1.64951778710796E+018,r1000913c5/base_footprint,0,1.64951778710796E+018,v/m1vw10zy74w/map,-7.228111602,-2.33231106861,0,0,0,-0.71094891151,0.703243659924,0,62.8360786438,19.2273921967,42.299533844,94.3151931763,43.0990715027,43.0990715027,62.8360786438,62.8360786438,33.9552726746,1.09567201138,0,0.00790683273226,0.184436842799,0.035944852978,0.0438516847789,-5.65843677521,-0.417013436556,0.877944946289,0.00922277569771,-0.714931488037,-0.0168679021299,-0.012378692627,-0.00036469171755,13.56895542149,95.193138122589,42.384140014663,33.942893981973,227
1.64951778720819E+018,28,1.64951778720819E+018,r1000913c5/base_footprint,0,1.64951778720819E+018,v/m1vw10zy74w/map,-7.228111602,-2.33231106861,0,0,0,-0.71094891151,0.703243659924,0,62.8911743164,18.3494300842,42.2549667358,94.3151931763,43.2122955322,43.2122955322,62.8911743164,62.8911743164,34.1863365173,0.957926571369,0,0.00772398943081,0.180920735002,0.0356442965567,0.0433682836592,-4.78047466278,-0.352309703827,0.877944946289,0.00922277569771,-0.828155517578,-0.0195392780006,-0.2434425354,-0.00717212073505,13.56895542142,95.193138122589,42.384140014622,33.9428939819,227
1.649517787308E+018,29,1.649517787308E+018,r1000913c5/base_footprint,0,1.649517787308E+018,v/m1vw10zy74w/map,-7.228111602,-2.33231106861,0,0,0,-0.71094891151,0.703243659924,0,62.7765045166,17.2113285065,42.4180107117,94.3151931763,43.2962532043,43.2962532043,62.7765045166,62.7765045166,37.1571121216,1.13123679161,0,0.00778397545218,0.175276815891,0.034375783056,0.0421597585082,-3.64237308502,-0.26843431592,0.877944946289,0.00922277569771,-0.912113189697,-0.021520152688,-3.21421813965,-0.0946948751807,13.56895542148,95.193138122589,42.384140014603,33.94289398195,227
1.64951778741256E+018,30,1.64951778741256E+018,r1000913c5/base_footprint,0,1.64951778741256E+018,v/m1vw10zy74w/map,-7.22736373701,-2.20818118113,0,0,0,-0.710857095081,0.703336470243,0,62.8494567871,10.924369812,42.7881546021,94.4908752441,43.2980575562,43.2980575562,62.8494567871,62.8494567871,36.495929718,1.04554617405,0,0.00706359511241,0.171382695436,0.0333518758416,0.0404154732823,2.80142784119,0.204099461436,0.684135437012,0.00718818325549,-0.905414581299,-0.0213578231633,-1.73727416992,-0.0499810501933,13.72579765319,95.175010681112,42.392642974901,34.75865554808,269
1.64951778760801E+018,31,1.64951778760801E+018,r1000913c5/base_footprint,0,1.64951778760801E+018,v/m1vw10zy74w/map,-7.22754349477,-2.19989697041,0,0,0,-0.712695070248,0.70147397446,0,62.9024200439,13.6157960892,43.3454551697,94.3105010986,43.2955245972,43.2955245972,62.9024200439,62.9024200439,34.865901947,0.896871984005,0,0.00640965625644,0.167875379324,0.0292532518506,0.035662908107,0.110001564026,0.00801421981305,0.86450958252,0.00908336695284,-0.902881622314,-0.0212980732322,-0.107246398926,-0.00308545888402,13.725797653226,95.17501068112,42.392642974886,34.758655548074,269
1.64951778770867E+018,32,1.64951778770867E+018,r1000913c5/base_footprint,0,1.64951778770867E+018,v/m1vw10zy74w/map,-7.22754349477,-2.19989697041,0,0,0,-0.712695070248,0.70147397446,0,62.9844436646,13.3986930847,44.0631866455,94.3105010986,43.2868041992,43.2868041992,62.9844436646,62.9844436646,33.2953414917,0.945687115192,0,0.00550502957776,0.16035617888,0.0193912759423,0.0248963050544,0.327104568481,0.023831371218,0.86450958252,0.00908336695284,-0.894161224365,-0.0210923682898,1.4633140564,0.0420992709696,13.725797653181,95.17501068112,42.392642974835,34.7586555481,269
1.64951778780883E+018,33,1.64951778780883E+018,r1000913c5/base_footprint,0,1.64951778780883E+018,v/m1vw10zy74w/map,-7.22754349477,-2.19989697041,0,0,0,-0.712695070248,0.70147397446,0,62.8634490967,10.9477119446,44.5104522705,94.3105010986,43.3699302673,43.3699302673,62.8634490967,62.8634490967,36.3709945679,1.1115295887,0,0.00512336893007,0.155595928431,0.0152877084911,0.0204110778868,2.77808570862,0.202398851514,0.86450958252,0.00908336695284,-0.97728729248,-0.0230532288551,-1.61233901978,-0.046386692673,13.72579765322,95.17501068112,42.39264297482,34.75865554812,269
1.64951778790815E+018,34,1.64951778790815E+018,r1000913c5/base_footprint,0,1.64951778790815E+018,v/m1vw10zy74w/map,-7.22754349477,-2.19989697041,0,0,0,-0.712695070248,0.70147397446,0,63.1294975281,6.21143579483,45.0941772461,94.3105010986,43.4042663574,43.4042663574,63.1294975281,63.1294975281,31.9529590607,1.07927632332,0,0.00445427978411,0.146026656032,0.0147237470374,0.0191780272871,7.51436185837,0.547462642193,0.86450958252,0.00908336695284,-1.01162338257,-0.0238631833345,2.80569648743,0.0807193592191,13.7257976532,95.17501068112,42.39264297483,34.75865554813,269
1.64951778800824E+018,35,1.64951778800824E+018,r1000913c5/base_footprint,0,1.64951778800824E+018,v/m1vw10zy74w/map,-7.22754349477,-2.19989697041,0,0,0,-0.712695070248,0.70147397446,0,62.9811820984,9.50226211548,45.8143615723,94.3105010986,43.4652366638,43.4652366638,62.9811820984,62.9811820984,35.2811164856,0.769485592842,0,0.00480045611039,0.135625630617,0.0147208804265,0.0195213370025,4.22353553772,0.307707846165,0.86450958252,0.00908336695284,-1.07259368896,-0.0253014117479,-0.5224609375,-0.0150311030447,13.7257976532,95.17501068112,42.39264297484,34.7586555481,269
1.64951778810819E+018,36,1.64951778810819E+018,r1000913c5/base_footprint,0,1.64951778810819E+018,v/m1vw10zy74w/map,-7.22754349477,-2.19989697041,0,0,0,-0.712695070248,0.70147397446,0,63.1286315918,4.88110160828,46.6735038757,94.3105010986,43.3272247314,43.3272247314,63.1286315918,63.1286315918,31.1364536285,0.899733901024,0,0.0048163109459,0.12645688653,0.00969087239355,0.0145071838051,8.84469604492,0.644384860992,0.86450958252,0.00908336695284,-0.934581756592,-0.0220458470285,3.62220191956,0.104210071266,13.7257976532,95.17501068112,42.392642974808,34.75865554806,269
1.64951778820805E+018,37,1.64951778820805E+018,r1000913c5/base_footprint,0,1.64951778820805E+018,v/m1vw10zy74w/map,-7.22102442132,-2.06257668773,0,0,0,-0.712909671918,0.701255873192,0,63.2007331848,4.04672527313,52.7367515564,94.0596466064,43.1746444702,43.1746444702,63.2007331848,63.2007331848,27.2876987457,1.00478112698,0,0.00419325148687,0.123034060001,0.00851587764919,0.0127091296017,9.75940418243,0.706889212132,1.10403442383,0.0116014266387,-0.735385894775,-0.0173279624432,8.73661994934,0.242520064116,13.80612945556,95.16368103023,42.439258575425,36.02431869504,318
1.64951778830806E+018,38,1.64951778830806E+018,r1000913c5/base_footprint,0,1.64951778830806E+018,v/m1vw10zy74w/map,-7.22102442132,-2.06257668773,0,0,0,-0.712909671918,0.701255873192,0,62.9338607788,5.88235282898,71.4615936279,94.0596466064,43.0714645386,43.0714645386,62.9338607788,62.9338607788,30.9770317078,0.88774305582,0,0.00330470246263,0.119943596423,0.00735563691705,0.0106603391469,7.92377662659,0.57393181324,1.10403442383,0.0116014266387,-0.632205963135,-0.0148967253044,5.0472869873,0.140107765794,13.80612945557,95.16368103023,42.439258575465,36.0243186951,318
1.64951778840809E+018,39,1.64951778840809E+018,r1000913c5/base_footprint,0,1.64951778840809E+018,v/m1vw10zy74w/map,-7.22102442132,-2.06257668773,0,0,0,-0.712909671918,0.701255873192,0,62.6993179321,4.04672527313,87.4308624268,94.0596466064,43.0863037109,43.0863037109,62.6993179321,62.6993179321,35.3590927124,0.98988121748,0,0.0021162503399,0.113849520683,0.0063750189729,0.0084912693128,9.75940418243,0.706889212132,1.10403442383,0.0116014266387,-0.647045135498,-0.0152463819832,0.665225982666,0.0184660255909,13.80612945556,95.16368103023,42.439258575402,36.024318695066,318
1.64951778850846E+018,40,1.64951778850846E+018,r1000913c5/base_footprint,0,1.64951778850846E+018,v/m1vw10zy74w/map,-7.22102442132,-2.06257668773,0,0,0,-0.712909671918,0.701255873192,0,62.7321662903,5.88235282898,86.3071899414,94.0596466064,43.0855293274,43.0855293274,62.7321662903,62.7321662903,34.7594223022,0.700888693333,0,0.00118302635383,0.10799343884,0.0054543367587,0.00663736276329,7.92377662659,0.57393181324,1.10403442383,0.0116014266387,-0.646270751953,-0.01522813458,1.26489639282,0.0351122915745,13.80612945557,95.16368103023,42.439258575447,36.02431869502,318
1.64951778860954E+018,41,1.64951778860954E+018,r1000913c5/base_footprint,0,1.64951778860954E+018,v/m1vw10zy74w/map,-7.22016039799,-1.92361582584,0,0,0,-0.71102376055,0.703167982727,0,62.8825149536,7.38423013687,83.3945159912,94.0586090088,43.1287498474,43.1287498474,62.8825149536,62.8825149536,32.5162506104,0.537402331829,0,0.000327623187331,0.09671407938,0.00345415459014,0.00312653137371,6.79089593887,0.479071289301,1.04597473145,0.0109981531277,-0.707630157471,-0.0166810806841,4.43777084351,0.120088979602,14.17512607574,95.10458374025,42.421119689929,36.95402145391,352
1.64951778870857E+018,42,1.64951778870857E+018,r1000913c5/base_footprint,0,1.64951778870857E+018,v/m1vw10zy74w/map,-7.22016039799,-1.92361582584,0,0,0,-0.71102376055,0.703167982727,0,62.5726242065,6.05162906647,80.2157897949,94.0586090088,43.1460914612,43.1460914612,62.5726242065,62.5726242065,38.2815513611,0.259905576706,0,0.00212941505015,0.0773439705372,0.000816200918052,0.0013132141903,8.12349700928,0.57308113575,1.04597473145,0.0109981531277,-0.72497177124,-0.0170898791403,-1.32752990723,-0.0359238274395,14.17512607575,95.10458374025,42.42111968996,36.95402145387,352
1.64951778880819E+018,43,1.64951778880819E+018,r1000913c5/base_footprint,0,1.64951778880819E+018,v/m1vw10zy74w/map,-7.21708273329,-1.79163597431,0,0,0,-0.712978927046,0.701185460195,0,62.5102348328,10.0840339661,77.6212081909,93.6832199097,43.1471977234,43.1471977234,62.5102348328,62.5102348328,38.06508255,0.425656586885,0,0.00278059346601,0.0656112506986,0.00146737915929,0.0013132141903,4.56406593323,0.311580747366,1.43727874756,0.0151100838557,-0.648941040039,-0.0152698270977,-0.404029846191,-0.0107280546799,14.64809989933,95.12049865726,42.498256683361,37.661052703809,344
1.64951778890809E+018,44,1.64951778890809E+018,r1000913c5/base_footprint,0,1.64951778890809E+018,v/m1vw10zy74w/map,-7.21708273329,-1.79163597431,0,0,0,-0.712978927046,0.701185460195,0,62.8216133118,12.1909637451,76.9629211426,93.6832199097,43.1766815186,43.1766815186,62.8216133118,62.8216133118,32.778717041,0.377748578787,0,0.00345562910661,0.0542698912323,0.000890355964657,0.00256527331658,2.45713615417,0.167744353414,1.43727874756,0.0151100838557,-0.678424835205,-0.0159635916352,4.88233566284,0.129638850689,14.64809989927,95.12049865726,42.498256683395,37.66105270384,344
1.64951778900804E+018,45,1.64951778900804E+018,r1000913c5/base_footprint,0,1.64951778900804E+018,v/m1vw10zy74w/map,-7.21676403964,-1.67326481414,0,0,0,-0.712312951203,0.70186199466,0,62.460269928,12.6050424576,73.4917297363,94.1512451172,43.1290130615,43.1290130615,62.460269928,62.460269928,40.4529685974,0.0596374496818,0,0.00363021763042,0.0511692129076,0.000509343924932,0.0031208738219,1.94653320312,0.133767858148,0.940742492676,0.00989297311753,-0.616027832031,-0.014490345493,-2.47550201416,-0.0651834458113,14.55157566072,95.091987609876,42.512985229469,37.97746658324,343
1.64951778910797E+018,46,1.64951778910797E+018,r1000913c5/base_footprint,0,1.64951778910797E+018,v/m1vw10zy74w/map,-7.21676403964,-1.67326481414,0,0,0,-0.712312951203,0.70186199466,0,62.8237190247,8.11507129669,70.8126678467,94.1512451172,43.0650177002,43.0650177002,62.8237190247,62.8237190247,33.2197151184,0.35815307498,0,0.00354360765778,0.0421238876879,0.000422733835876,0.0031208738219,6.43650436401,0.442323535681,0.940742492676,0.00989297311753,-0.552032470703,-0.0129850320518,4.75775146484,0.125278279185,14.5515756607,95.091987609876,42.512985229497,37.97746658324,343
1.64951778920812E+018,47,1.64951778920812E+018,r1000913c5/base_footprint,0,1.64951778920812E+018,v/m1vw10zy74w/map,-7.21077172003,-1.54063405781,0,0,0,-0.711486877161,0.702699383541,0,62.4698677063,15.4684095383,68.9270095825,93.7568054199,43.1599960327,43.1599960327,62.4698677063,62.4698677063,39.1948318481,0.0883269831538,0,0.00349683407694,0.0359988287091,0.000375960342353,0.0031208738219,-1.3252620697,-0.0937034785748,1.38236999512,0.0145299769938,-0.667140960693,-0.0157000739127,-0.612277984619,-0.0158692970872,14.1431474686,95.13917541502,42.492855072007,38.582553863481,349
1.64951778930809E+018,48,1.64951778930809E+018,r1000913c5/base_footprint,0,1.64951778930809E+018,v/m1vw10zy74w/map,-7.21077172003,-1.54063405781,0,0,0,-0.711486877161,0.702699383541,0,62.3015365601,12.4281291962,68.1765365601,93.7568054199,43.1424942017,43.1424942017,62.3015365601,62.3015365601,42.0357437134,0.10817450285,0,0.00330634275451,0.0266993902624,0.000740022340324,0.00256632035598,1.7150182724,0.121261425316,1.38236999512,0.0145299769938,-0.649639129639,-0.0152881965041,-3.45318984985,-0.0895013287663,14.1431474686,95.13917541502,42.492855072061,38.58255386355,349
1.64951778940908E+018,49,1.64951778940908E+018,r1000913c5/base_footprint,0,1.64951778940908E+018,v/m1vw10zy74w/map,-7.21392122143,-1.42333970947,0,0,0,-0.711117122851,0.703073564848,0,62.5239601135,11.3257246017,67.8561019897,93.6974105835,43.0424232483,43.0424232483,62.5239601135,62.5239601135,36.737575531,0.216696619987,0,0.00339606404305,0.0235122274607,0.000829743687063,0.00256632035598,3.0486125946,0.212087184191,1.44290161133,0.0151660386473,-0.516479492188,-0.0121450452134,1.99909210205,0.0516072288156,14.3743371963,95.14031219483,42.525943756112,38.73666763305,349
1.64951778950879E+018,50,1.64951778950879E+018,r1000913c5/base_footprint,0,1.64951778950879E+018,v/m1vw10zy74w/map,-7.21392122143,-1.42333970947,0,0,0,-0.711117122851,0.703073564848,0,62.5548095703,13.3126935959,69.1184387207,93.6974105835,42.9299087524,42.9299087524,62.5548095703,62.5548095703,34.9671211243,0.259186148643,0,0.00328187551349,0.0143015300855,0.000715555041097,0.00256632035598,1.06164360046,0.0738568753004,1.44290161133,0.0151660386473,-0.403964996338,-0.0094992602244,3.76954650879,0.0973121002316,14.37433719636,95.14031219483,42.525943756062,38.73666763309,349
1.64951778960815E+018,51,1.64951778960815E+018,r1000913c5/base_footprint,0,1.64951778960815E+018,v/m1vw10zy74w/map,-7.21180791544,-1.30713148876,0,0,0,-0.71036135491,0.703837158333,0,62.2466850281,10.6590003967,71.7051239014,93.793762207,42.8384208679,42.8384208679,62.2466850281,62.2466850281,39.8721923828,0.00725115975365,0,0.00310402759351,0.00954819750041,0.000537707062904,0.00256632035598,3.62998962402,0.254041016102,1.40599060059,0.0147688472643,-0.344436645508,-0.00810553878546,-0.979515075684,-0.0251850765198,14.28899002072,95.19975280759,42.493984222392,38.892677307116,368
1.64951778970817E+018,52,1.64951778970817E+018,r1000913c5/base_footprint,0,1.64951778970817E+018,v/m1vw10zy74w/map,-7.21180791544,-1.30713148876,0,0,0,-0.71036135491,0.703837158333,0,62.3203964233,13.5472373962,74.5815811157,93.793762207,42.7151870728,42.7151870728,62.3203964233,62.3203964233,37.2144165039,0.247584834695,0,0.00291842943989,0.0307865738869,0.000352109054802,0.00256632035598,0.741752624512,0.0519107803702,1.40599060059,0.0147688472643,-0.221202850342,-0.00520550971851,1.67826080322,0.0431510731578,14.288990020712,95.19975280759,42.493984222458,38.89267730712,368
1.64951778980806E+018,53,1.64951778980806E+018,r1000913c5/base_footprint,0,1.64951778980806E+018,v/m1vw10zy74w/map,-7.21154688018,-1.17270441915,0,0,0,-0.711750191731,0.702432676184,0,62.4493713379,20.677362442,77.6175231934,94.2683563232,42.7035140991,42.7035140991,62.4493713379,62.4493713379,36.4753799438,0.126627594233,0,0.00279435049742,0.104772374034,0.00238197203726,0.00517632253468,-4.92775058746,-0.312880754471,0.574851989746,0.00606107711792,2.3768196106,0.0527240894735,0.31579208374,0.00858336593956,15.74961185454,94.843208312946,45.0803337097,36.79117202754,868
1.64951778990812E+018,54,1.64951778990812E+018,r1000913c5/base_footprint,0,1.64951778990812E+018,v/m1vw10zy74w/map,-7.21154688018,-1.17270441915,0,0,0,-0.711750191731,0.702432676184,0,62.9511756897,12.2036876678,79.3185424805,94.2683563232,42.6854019165,42.6854019165,62.9511756897,62.9511756897,27.2472324371,0.420101225376,0,0.00190008769277,0.137222379446,0.00220219860785,0.00410228641704,3.54592418671,0.22514359653,0.574851989746,0.00606107711792,2.39493179321,0.0531258657575,9.54393959045,0.259408414364,15.74961185451,94.843208312946,45.08033370971,36.79117202755,868
1.64951779000823E+018,55,1.64951779000823E+018,r1000913c5/base_footprint,0,1.64951779000823E+018,v/m1vw10zy74w/map,-7.21079639072,-1.03652154173,0,0,0,-0.709555291308,0.704649763057,0,62.7301712036,18.6851215363,82.0296936035,94.6981811523,42.7690696716,42.7690696716,62.7301712036,62.7301712036,33.6763534546,0.157231628895,0,0.000687946390826,0.153421759605,0.00354246096686,0.0042304075323,-3.14107322693,-0.202075615525,-0.109741210938,-0.00116019684356,2.8950958252,0.0633997321129,2.41664505005,0.0669560655951,15.54404830937,94.588439941362,45.6641654968,36.09299850465,1156
1.64951779010875E+018,56,1.64951779010875E+018,r1000913c5/base_footprint,0,1.64951779010875E+018,v/m1vw10zy74w/map,-7.21079639072,-1.03652154173,0,0,0,-0.709555291308,0.704649763057,0,62.9881591797,22.1583366394,83.7166671753,94.6981811523,42.9425392151,42.9425392151,62.9881591797,62.9881591797,30.9059963226,0.325235873461,0,0.000370720750652,0.157946974039,0.00482595758513,0.00445523718372,-6.61428833008,-0.425519019365,-0.109741210938,-0.00116019684356,2.72162628174,0.0596009194851,5.18700218201,0.14371214807,15.54404830932,94.588439941362,45.66416549684,36.09299850461,1156
1.64951779020907E+018,57,1.64951779020907E+018,r1000913c5/base_footprint,0,1.64951779020907E+018,v/m1vw10zy74w/map,-7.21162065117,-0.898423548456,0,0,0,-0.710824387449,0.703369526073,0,63.0464096069,18.3494300842,84.7441253662,94.9237365723,43.0744018555,43.0744018555,63.0464096069,63.0464096069,32.0936126709,0.0406308621168,0,0.000550741679035,0.155199468136,0.00304629723541,0.00249555567279,-2.50467777252,-0.158076167107,-0.386703491211,-0.00409049727023,2.93148040771,0.063719689846,3.76689147949,0.105042904615,15.84475231168,94.537033081089,46.00588226321,35.86050415039,1275
1.64951779030871E+018,58,1.64951779030871E+018,r1000913c5/base_footprint,0,1.64951779030871E+018,v/m1vw10zy74w/map,-7.21162065117,-0.898423548456,0,0,0,-0.710824387449,0.703369526073,0,63.1958122253,24.8120307922,82.9819793701,94.9237365723,43.1902694702,43.1902694702,63.1958122253,63.1958122253,30.6557216644,0.0940891429782,0,6.60478253849E-05,0.153211161494,0.00341397686861,0.00348002463579,-8.96727848053,-0.565946280956,-0.386703491211,-0.00409049727023,2.81561279297,0.0612011477351,5.20478248596,0.145139694214,15.84475231167,94.537033081089,46.00588226317,35.86050415036,1275
1.64951779040811E+018,59,1.64951779040811E+018,r1000913c5/base_footprint,0,1.64951779040811E+018,v/m1vw10zy74w/map,-7.21162065117,-0.898423548456,0,0,0,-0.710824387449,0.703369526073,0,63.2766456604,24.8120307922,80.9385452271,94.9237365723,43.3193626404,43.3193626404,63.2766456604,63.2766456604,30.5949630737,0.145098298788,0,0.000182352974662,0.153159320354,0.00467429868877,0.00485665164888,-8.96727848053,-0.565946280956,-0.386703491211,-0.00409049727023,2.6865196228,0.0583951324224,5.26554107666,0.146834000945,15.84475231167,94.537033081089,46.0058822632,35.86050415036,1275
1.64951779050815E+018,60,1.64951779050815E+018,r1000913c5/base_footprint,0,1.64951779050815E+018,v/m1vw10zy74w/map,-7.20444525543,-0.773265614076,0,0,0,-0.711296253648,0.702892338517,0,63.6211242676,20.9833183289,79.8233718872,94.95362854,43.3933982849,43.3933982849,63.6211242676,63.6211242676,25.3015174866,0.220678269863,0,0.000430759042501,0.153380692005,0.00442589260638,0.00485665164888,-5.01668834686,-0.314198315144,-0.424301147461,-0.0044885664247,2.77416992188,0.060089148581,10.520904541,0.293696075678,15.96662998204,94.529327392539,46.16756820678,35.8224220276,1256
1.6495177906081E+018,61,1.6495177906081E+018,r1000913c5/base_footprint,0,1.6495177906081E+018,v/m1vw10zy74w/map,-7.20444525543,-0.773265614076,0,0,0,-0.711296253648,0.702892338517,0,63.5672912598,18.8948307037,79.5942230225,94.95362854,43.5184516907,43.5184516907,63.5672912598,63.5672912598,27.6210975647,0.134578630328,0,1.74703218363E-05,0.153335660696,0.00154680351261,0.00152933318168,-2.92820072174,-0.183395043015,-0.424301147461,-0.0044885664247,2.64911651611,0.057380463928,8.20132446289,0.228943884373,15.96662998196,94.529327392539,46.16756820681,35.82242202759,1256
1.64951779070875E+018,62,1.64951779070875E+018,r1000913c5/base_footprint,0,1.64951779070875E+018,v/m1vw10zy74w/map,-7.21053583227,-0.629396657868,0,0,0,-0.708420622505,0.705790494133,0,63.5309028625,21.8612823486,79.735244751,95.2566375732,43.6270561218,43.6270561218,63.5309028625,63.5309028625,30.5398597717,0.0691263601184,0,0.000526885967702,0.153195381165,0.000107387611934,0.000634273572359,-5.80368423462,-0.361429154873,-0.763542175293,-0.00808040145785,2.71928024292,0.0586730353534,5.13409042358,0.143917068839,16.05759811398,94.493095397907,46.34633636472,35.67395019528,1187
1.6495177908082E+018,63,1.6495177908082E+018,r1000913c5/base_footprint,0,1.6495177908082E+018,v/m1vw10zy74w/map,-7.21053583227,-0.629396657868,0,0,0,-0.708420622505,0.705790494133,0,63.9859695435,23.0429019928,79.9930877686,95.2566375732,43.802696228,43.802696228,63.9859695435,63.9859695435,24.245552063,0.117813006043,0,0.000423680496169,0.153282597661,0.000210593061638,0.000634273572359,-6.98530387878,-0.435015499592,-0.763542175293,-0.00808040145785,2.54364013672,0.0548833049834,11.4283981323,0.320356965065,16.05759811402,94.493095397907,46.34633636472,35.6739501953,1187
1.64951779090826E+018,64,1.64951779090826E+018,r1000913c5/base_footprint,0,1.64951779090826E+018,v/m1vw10zy74w/map,-7.21146969745,-0.502095936039,0,0,0,-0.709833415237,0.70436959234,0,63.6505241394,21.2737731934,80.578742981,95.0465621948,43.8352088928,43.8352088928,63.6505241394,63.6505241394,29.8784561157,-0.00373416976072,0,0.000233648170251,0.153111621737,0.000400625402108,0.000634273572359,-5.29249095917,-0.331168115139,-0.601707458496,-0.00637099239975,2.48936462402,0.0537374541163,5.65853881836,0.159229531884,15.98128223423,94.444854736304,46.32457351682,35.53699493406,1061
1.6495177918088E+018,65,1.6495177918088E+018,r1000913c5/base_footprint,0,1.6495177918088E+018,v/m1vw10zy74w/map,-7.21196729435,-0.502087333219,0,0,0,-0.710382368269,0.703815949558,0,63.2251777649,18.8948307037,77.854637146,95.17552948,43.7607765198,43.7607765198,63.2251777649,63.2251777649,37.1951217651,0.0611404962838,0,0.00032345490763,0.204998776317,0.0384248197079,0.0387482754886,-2.91354846954,-0.182310059667,-0.730674743652,-0.00773652270436,2.56379699707,0.0553442128003,-1.65812683105,-0.0466591753066,15.98128223416,94.444854736348,46.32457351687,35.53699493405,1061
1.64951779190881E+018,66,1.64951779190881E+018,r1000913c5/base_footprint,0,1.64951779190881E+018,v/m1vw10zy74w/map,-7.21196729435,-0.502087333219,0,0,0,-0.710382368269,0.703815949558,0,63.4755630493,21.8612823486,78.6115722656,95.17552948,43.7451477051,43.7451477051,63.4755630493,63.4755630493,32.5193977356,0.122185334563,0,0.000188563441043,0.203812196851,0.0754803791642,0.0752918198705,-5.88000011444,-0.367930442095,-0.730674743652,-0.00773652270436,2.57942581177,0.0556815862656,3.01759719849,0.0849142447114,15.98128223416,94.444854736348,46.32457351687,35.53699493409,1061
1.64951779200822E+018,67,1.64951779200822E+018,r1000913c5/base_footprint,0,1.64951779200822E+018,v/m1vw10zy74w/map,-7.21196729435,-0.502087333219,0,0,0,-0.710382368269,0.703815949558,0,63.9908638,19.5046443939,78.9319152832,95.17552948,43.7405586243,43.7405586243,63.9908638,63.9908638,23.1943702698,-0.00535211153328,0,0.00154795928393,0.199809297919,0.0975412726402,0.0959933176637,-3.52336215973,-0.220468059182,-0.730674743652,-0.00773652270436,2.58401489258,0.0557806529105,12.3426246643,0.347317636013,15.98128223417,94.444854736348,46.32457351688,35.5369949341,1061
1.649517792108E+018,68,1.649517792108E+018,r1000913c5/base_footprint,0,1.649517792108E+018,v/m1vw10zy74w/map,-7.21304563453,-0.49705561791,0,0,0,-0.672680484289,0.739933082148,0,63.3957901001,20.1053562164,79.3253097534,95.1770858765,43.5388908386,43.5388908386,63.3957901001,63.3957901001,31.7333335876,0.0936075523496,0,0.00333784334362,0.192789614201,0.141957610846,0.145295456052,-4.12407398224,-0.258056521416,-0.732231140137,-0.00775300199166,2.78568267822,0.0601340159774,3.80366134644,0.107033848763,15.98128223416,94.444854736363,46.32457351682,35.53699493404,1061
1.6495177922082E+018,69,1.6495177922082E+018,r1000913c5/base_footprint,0,1.64951779220821E+018,v/m1vw10zy74w/map,-7.20047516355,-0.558761270707,0,0,0,-0.627626623192,0.778514496885,0,63.2576293945,18.419921875,80.2075653076,95.4328765869,43.3864593506,43.3864593506,63.2576293945,63.2576293945,33.4947853088,2.33749487961E-05,0,0.00367901474237,0.185262128711,0.173506364226,0.177185386419,-2.29407119751,-0.142260476947,-0.950584411621,-0.0100609799847,3.01829910278,0.0650428757071,2.07155990601,0.0582449473441,16.12585067749,94.482292175279,46.40475845338,35.56634521481,1120
1.64951779230791E+018,70,1.64951779230791E+018,r1000913c5/base_footprint,0,1.64951779230792E+018,v/m1vw10zy74w/map,-7.18616799829,-0.599555644056,0,0,0,-0.58153510613,0.813521309087,0,62.8727493286,15.7155399323,77.6515884399,95.7107849121,43.2000541687,43.2000541687,62.8727493286,62.8727493286,39.4098930359,-0.0241527389735,0,0.00376995885745,0.180131435394,0.183918014169,0.187687978148,0.329053878784,0.0205087065697,-1.23112487793,-0.0130305811763,3.17088317871,0.0683808326721,-3.77229309082,-0.105851493776,16.044593811084,94.47966003417,46.37093734741,35.63759994508,1157
1.64951779240834E+018,71,1.64951779240834E+018,r1000913c5/base_footprint,0,1.64951779240834E+018,v/m1vw10zy74w/map,-7.1716634163,-0.645006182164,0,0,0,-0.52737219409,0.849634373658,0,63.1041793823,20.38920784,74.9604034424,95.3567504883,43.2003479004,43.2003479004,63.1041793823,63.1041793823,33.9728279114,-0.155196905136,0,0.00405974313617,0.173922732472,0.206371173263,0.210430920124,-4.23407554626,-0.262088567019,-0.86791229248,-0.00918534211814,3.12261581421,0.0674096718431,1.65059280396,0.0463344827294,16.15513229374,94.48883819582,46.32296371461,35.62342071536,1196
1.64951779250854E+018,72,1.64951779250854E+018,r1000913c5/base_footprint,0,1.64951779250854E+018,v/m1vw10zy74w/map,-7.14812067881,-0.673828416086,0,0,0,-0.484354801056,0.874871662985,0,63.0841522217,18.832649231,67.3844528198,95.8265762329,43.337677002,43.337677002,63.0841522217,63.0841522217,37.5078582764,-0.146600738168,0,0.00419513788074,0.169276431203,0.201315879822,0.205511018634,-2.72610473633,-0.169254481792,-1.31951904297,-0.0139621216804,2.93058776855,0.0633390471339,-1.8291015625,-0.0512658432126,16.10654449467,94.50705718993,46.26826477055,35.6787567139,1224
1.64951779260894E+018,73,1.64951779260894E+018,r1000913c5/base_footprint,0,1.64951779260894E+018,v/m1vw10zy74w/map,-7.09289368248,-0.737785319095,0,0,0,-0.357998846851,0.933722028043,0,62.8717002869,13.8490037918,59.7129516602,96.0526199341,43.3527297974,43.3527297974,62.8717002869,62.8717002869,42.3083305359,-0.264160841703,0,0.00537341600284,0.161441728473,0.135479405522,0.140852823853,2.28000736237,0.141360640526,-1.5548324585,-0.0164536386728,2.87567138672,0.0622057281435,-6.5721244812,-0.18390661478,16.12901115417,94.4977874756,46.22840118412,35.7362060547,1241
1.64951779270788E+018,74,1.64951779270788E+018,r1000913c5/base_footprint,0,1.64951779270788E+018,v/m1vw10zy74w/map,-7.01959547267,-0.783890010423,0,0,0,-0.244402819513,0.969673791444,0,63.2549057007,20.5366363525,56.6108322144,96.1068496704,43.3937721252,43.3937721252,63.2549057007,63.2549057007,36.0490913391,0.0247896257788,0,0.00695997988805,0.154549866915,0.0966988801956,0.103658862412,-4.17698860168,-0.255322635174,-1.56526184082,-0.0165563318878,2.87739944458,0.0621855743229,-0.222431182861,-0.00620853807777,16.35964775082,94.54158782958,46.27117156978,35.826660156239,1273
1.64951779280802E+018,75,1.64951779280802E+018,r1000913c5/base_footprint,0,1.64951779280802E+018,v/m1vw10zy74w/map,-6.95546452838,-0.80472512318,0,0,0,-0.181977436233,0.983302706547,0,63.6707382202,20.1295204163,51.2812843323,95.8007354736,43.4076080322,43.4076080322,63.6707382202,63.6707382202,27.6115074158,0.0612237751484,0,0.00676759565249,0.147280439734,0.0542758330703,0.0610434301198,-3.65686225891,-0.221995875239,-1.2771987915,-0.0135119659826,2.90391540527,0.0627039521933,8.25400161743,0.230137586594,16.47265815739,94.5235366821,46.31152343747,35.86550903323,1262
1.64951779290799E+018,76,1.64951779290799E+018,r1000913c5/base_footprint,0,1.64951779290799E+018,v/m1vw10zy74w/map,-6.82091557825,-0.836446363142,0,0,0,-0.06463253067,0.997909132125,0,63.1179771423,14.6277980804,47.3532600403,95.3003845215,43.2287940979,43.2287940979,63.1179771423,63.1179771423,33.8287467957,0.0478834621608,0,0.00929701235145,0.102019220591,0.0462568588555,0.0369598455727,1.91327476501,0.115668118,-0.83145904541,-0.00880140252411,3.19214630127,0.0687652230263,2.35760116577,0.0651516765356,16.54107284541,94.46892547609,46.42094039917,36.18634796147,1217
1.64951779300788E+018,77,1.64951779300788E+018,r1000913c5/base_footprint,0,1.64951779300788E+018,v/m1vw10zy74w/map,-6.70298552842,-0.838347622628,0,0,0,-0.000975676481272,0.999999524028,0,63.382144928,13.0895605087,46.844078064,95.3673858643,43.3212280273,43.3212280273,63.382144928,63.382144928,30.3132343292,0.0483709834516,0,0.0111728422344,0.0576051138341,0.0710178986192,0.0598450563848,3.727435112,0.221646904945,-1.0286026001,-0.010903284885,3.88018798828,0.0822049081326,6.50685310364,0.176720201969,16.8169956207,94.3387832642,47.20141601558,36.82008743284,964
1.64951779310815E+018,78,1.64951779310815E+018,r1000913c5/base_footprint,0,1.64951779310815E+018,v/m1vw10zy74w/map,-6.58684693145,-0.828930632459,0,0,0,0.0334701161008,0.999439718707,0,63.3834342957,20.239282608,46.4251403809,95.4655838013,43.5518188477,43.5518188477,63.3834342957,63.3834342957,33.1339263916,0.197936624289,0,0.0126058254391,0.034095838666,0.126704290509,0.114098459482,-3.74775505066,-0.227253362536,-1.24619293213,-0.0132265016437,3.9641494751,0.083427734673,4.17330932617,0.111863270402,16.49152755734,94.21939086917,47.5159683228,37.30723571777,874
1.64951779320788E+018,79,1.64951779320788E+018,r1000913c5/base_footprint,0,1.64951779320788E+018,v/m1vw10zy74w/map,-6.44357873972,-0.8086163966,0,0,0,0.0563855265474,0.99840907067,0,63.6818809509,17.0684661865,46.2624702454,95.5621795654,43.9572906494,43.9572906494,63.6818809509,63.6818809509,32.488735199,0.394169121981,0,0.0141345392913,0.0264986138791,0.146281048656,0.132146507502,-1.1653175354,-0.0732759013772,-1.40098571777,-0.0148785887286,3.71444320679,0.077917098999,5.04880905151,0.13450025022,15.9031486511,94.16119384763,47.67173385619,37.53754425051,834
1.64951779330844E+018,80,1.64951779330844E+018,r1000913c5/base_footprint,0,1.64951779330844E+018,v/m1vw10zy74w/map,-6.32620913758,-0.787739705083,0,0,0,0.0622753342123,0.998059007649,0,64.3544235229,18.6991863251,46.1802101135,95.7110290527,44.7485542297,44.7485542297,64.3544235229,64.3544235229,29.4644432068,0.30712673068,0,0.013991410844,0.0208236221224,0.158166438341,0.144175037742,-3.52501869202,-0.232303917408,-1.61203765869,-0.0171312950552,2.90124511719,0.0608868263662,8.26682662964,0.219097495079,15.17416763308,94.09899139401,47.64979934689,37.73126983644,820
1.64951779350809E+018,81,1.64951779350809E+018,r1000913c5/base_footprint,0,1.64951779350809E+018,v/m1vw10zy74w/map,-6.32620913758,-0.787739705083,0,0,0,0.0622753342123,0.998059007649,0,64.4880905151,17.6470584869,46.030166626,95.7110290527,45.3378639221,45.3378639221,64.4880905151,64.4880905151,33.4229660034,0.19850449264,0,0.0141138657928,0.0153974462301,0.163006693125,0.148892819881,-2.47289085388,-0.162967145443,-1.61203765869,-0.0171312950552,2.3119354248,0.0485193096101,4.30830383301,0.114183910191,15.17416763302,94.09899139401,47.6497993469,37.73126983641,820
1.6495177936081E+018,82,1.6495177936081E+018,r1000913c5/base_footprint,0,1.6495177936081E+018,v/m1vw10zy74w/map,-6.21436467942,-0.775510811861,0,0,0,0.0573567908332,0.998353744194,0,64.6439819336,17.3553714752,46.0245094299,95.4304885864,45.9478797913,45.9478797913,64.6439819336,64.6439819336,36.1951599121,0.151697188616,0,0.014080259949,0.0115227550268,0.164998427033,0.15091817081,-2.76998615265,-0.189915180206,-1.34949493408,-0.0143439695239,1.6926574707,0.0355297736824,1.45073699951,0.0385363921523,14.58538532255,94.08099365232,47.640537262,37.64589691161,814
1.64951779370822E+018,83,1.64951779370822E+018,r1000913c5/base_footprint,0,1.64951779370822E+018,v/m1vw10zy74w/map,-6.21436467942,-0.775510811861,0,0,0,0.0573567908332,0.998353744194,0,65.4505691528,16.1041469574,46.0658111572,95.4304885864,46.4014549255,46.4014549255,65.4505691528,65.4505691528,26.5752182007,0.345823407173,0,0.0136686433107,0.00618947576731,0.164428919554,0.150760278106,-1.51876163483,-0.104129001498,-1.34949493408,-0.0143439695239,1.23908233643,0.0260089915246,11.0706787109,0.294073969126,14.58538532257,94.08099365232,47.64053726193,37.6458969116,814
1.64951779380906E+018,84,1.64951779380906E+018,r1000913c5/base_footprint,0,1.64951779380907E+018,v/m1vw10zy74w/map,-6.09245577821,-0.773483160872,0,0,0,0.0542373364442,0.998528072382,0,65.6885757446,16.5085391998,46.2661819458,95.5043869019,46.7758255005,46.7758255005,65.6885757446,65.6885757446,26.6004066467,0.427386641502,0,0.013332108967,0.00320824794471,0.163468256593,0.150136142969,-2.30546569824,-0.162321612239,-1.42429351807,-0.0151391588151,0.863262176514,0.0181208793074,10.8669090271,0.290037035942,14.20307350156,94.08009338383,47.639087677014,37.4673156738,794
1.64951779390808E+018,85,1.64951779390808E+018,r1000913c5/base_footprint,0,1.64951779390808E+018,v/m1vw10zy74w/map,-5.82769865394,-0.748135756613,0,0,0,0.0326411057954,0.999467137135,0,65.465965271,12.7134723663,46.8190040588,94.6377487183,47.0917892456,47.0917892456,65.465965271,65.465965271,30.8998527527,0.275672972202,0,0.0133590362966,0.0289483778179,0.172397091985,0.159038051963,0.0746955871582,0.00584099208936,-0.603744506836,-0.00642049126327,0.419452667236,0.00882849283516,5.43544769287,0.149591371417,12.7881679534582,94.034004211464,47.511241912836,36.33530044557,753
1.64951779400826E+018,86,1.64951779400826E+018,r1000913c5/base_footprint,0,1.64951779400826E+018,v/m1vw10zy74w/map,-5.8126578577,-0.746581990548,0,0,0,0.0306072771771,0.99953148754,0,65.5171279907,14.7753591537,47.1588439941,94.8752670288,47.2928466797,47.2928466797,65.5171279907,65.5171279907,33.0054473877,0.276287317276,0,0.013471826911,0.0461569949985,0.193329155445,0.179857328534,-1.98719120026,-0.155392959714,-0.841262817383,-0.00894636847079,0.218395233154,0.00459670647979,3.32985305786,0.0916423723102,12.78816795344,94.034004211417,47.511241912854,36.33530044556,753
1.64951779410826E+018,87,1.64951779410826E+018,r1000913c5/base_footprint,0,1.64951779410826E+018,v/m1vw10zy74w/map,-5.65715441727,-0.733687647308,0,0,0,0.0177409095686,0.999842617679,0,65.7436294556,15.5597724915,47.1788864136,94.712562561,47.6837234497,47.6837234497,65.7436294556,65.7436294556,32.5640792847,0.419773250818,0,0.0142774721608,0.0609414540231,0.217564985156,0.203287512064,-2.92792320251,-0.231788963079,-0.653427124023,-0.00694698188454,-0.0708465576172,-0.001487970585,3.29880142212,0.0919837281108,12.63184928899,94.059135436977,47.6128768920828,35.86288070682,765
1.64951779420817E+018,88,1.64951779420817E+018,r1000913c5/base_footprint,0,1.64951779420817E+018,v/m1vw10zy74w/map,-5.35513646928,-0.729710180303,0,0,0,0.00600451781556,0.99998197272,0,65.8934555054,12.6838235855,47.2009086609,94.6179122925,47.6747245789,47.6747245789,65.8934555054,65.8934555054,29.4293060303,0.531109333038,0,0.0124164428562,0.0851214006543,0.249574691057,0.237158253789,-0.640153884888,-0.0531527251005,-0.601211547852,-0.00639473134652,-0.0386695861816,-0.000811771373264,6.72179412842,0.18593609333,12.043669700612,94.016700744648,47.6360549927184,36.15110015872,749
1.64951779430862E+018,89,1.64951779430862E+018,r1000913c5/base_footprint,0,1.64951779430862E+018,v/m1vw10zy74w/map,-5.22620192548,-0.727940751525,0,0,0,0.00439327681719,0.999990349513,0,65.8696060181,17.849899292,48.0097236633,94.3029632568,48.1270828247,48.1270828247,65.8696060181,65.8696060181,33.610294342,0.524634540081,0,0.00984170101583,0.0953214690089,0.270993947983,0.261152237654,-6.40060901642,-0.559039831161,-0.344032287598,-0.00366151775233,-0.585441589355,-0.0123142907396,3.05813980103,0.0833997949958,11.44929027558,93.958930969202,47.541641235345,36.66843414303,734
1.64951779440814E+018,90,1.64951779440814E+018,r1000913c5/base_footprint,0,1.64951779440814E+018,v/m1vw10zy74w/map,-5.07445749143,-0.70579443875,0,0,0,0.00356163489622,0.999993657358,0,66.1611557007,20.5882358551,47.2824325562,94.3199539185,48.391872406,48.391872406,66.1611557007,66.1611557007,31.2832126617,0.626296758652,0,0.00794786307961,0.104324646294,0.295423030853,0.287475168705,-9.8809671402,-0.922827959061,-0.439186096191,-0.00467812642455,-0.903308868408,-0.0190216079354,5.90329170227,0.158748224378,10.7072687149,93.880767822309,47.488563537592,37.18650436397,736
1.64951779450815E+018,91,1.64951779450815E+018,r1000913c5/base_footprint,0,1.64951779450815E+018,v/m1vw10zy74w/map,-4.92533639037,-0.703542640649,0,0,0,0.00331024804968,0.999994521114,0,65.9332733154,22.9567928314,47.1564407349,94.4090652466,48.7535705566,48.7535705566,65.9332733154,65.9332733154,39.6123352051,0.69664978981,0,0.00774231879041,0.119291678071,0.339721053839,0.331978738308,-12.8405437469,-1.26929891109,-0.475959777832,-0.00506700761616,-1.96627044678,-0.0420257300138,-2.83317947388,-0.0770322084427,10.1162490845,93.933105468768,46.78730010982,36.77915573122,799
1.64951779460804E+018,92,1.64951779460804E+018,r1000913c5/base_footprint,0,1.64951779460804E+018,v/m1vw10zy74w/map,-4.66982743162,-0.719068026616,0,0,0,-0.00241814539584,0.999997076282,0,66.2314071655,15.6689224243,46.9545974731,94.853187561,48.7799835205,48.7799835205,66.2314071655,66.2314071655,36.1300163269,0.301985323429,0,0.00704621570185,0.136198982596,0.360642105341,0.353595882654,-6.05523204803,-0.62985509634,-0.85245513916,-0.00906860083342,-4.72229766846,-0.107184424996,-2.74946975708,-0.0823674276471,9.61369037627,94.00073242184,44.05768585204,33.38054656982,1250
1.64951779470799E+018,93,1.64951779470799E+018,r1000913c5/base_footprint,0,1.64951779470799E+018,v/m1vw10zy74w/map,-4.51477025515,-0.719366268429,0,0,0,-0.00679256481229,0.999976930266,0,66.6292877197,22.8868026733,46.7685508728,95.0732803345,48.9448432922,48.9448432922,66.6292877197,66.6292877197,31.5409317017,0.589031398296,0,0.0052740466781,0.155649378896,0.305500656366,0.30022662878,-13.3188304901,-1.39202225208,-1.06694793701,-0.0113497450948,-5.15564727783,-0.117737881839,1.31033325195,0.0398868434131,9.5679721832,94.00633239749,43.78919601437,32.85126495365,1362
1.64951779480815E+018,94,1.64951779480815E+018,r1000913c5/base_footprint,0,1.64951779480816E+018,v/m1vw10zy74w/map,-4.35366612613,-0.719107337532,0,0,0,-0.0116897922655,0.999931672044,0,66.5369949341,9.80392169952,46.5533027649,95.2902526855,48.9195251465,48.9195251465,66.5369949341,66.5369949341,33.7098960876,0.668288350105,0,0.00534196291119,0.162870615721,0.281626403332,0.276284456253,-0.308559417725,-0.032495804131,-1.29747772217,-0.0138040157035,-5.37085342407,-0.123329900205,-1.29206085205,-0.0398564822972,9.495362281795,93.99277496333,43.54867172243,32.41783523555,1390
1.64951779530827E+018,95,1.64951779530827E+018,r1000913c5/base_footprint,0,1.64951779530827E+018,v/m1vw10zy74w/map,-3.21241051158,-0.798402045893,0,0,0,-0.101314266224,0.994854471498,0,65.7461929321,4.80466985703,46.774055481,95.1032791138,48.5004806519,48.5004806519,65.7461929321,65.7461929321,42.7455863953,1.06756556034,0,0.000524317089003,0.246083989739,0.103902816772,0.10442712903,3.08120393753,0.390724480152,-1.27069091797,-0.0135421063751,-2.61435699463,-0.0569748915732,-7.53244400024,-0.213910013437,7.88587379456,93.83258819583,45.88612365727,35.21314239506,779
1.64951779540797E+018,96,1.64951779540797E+018,r1000913c5/base_footprint,0,1.64951779540797E+018,v/m1vw10zy74w/map,-2.89350115635,-0.881194337066,0,0,0,-0.134382947699,0.990929474467,0,65.9972763062,6.6293182373,49.9917945862,94.856590271,48.215511322,48.215511322,65.9972763062,65.9972763062,34.2602920532,1.04408705235,0,0.00523559423164,0.270767331123,0.00995010603219,0.0151856997982,2.35830974579,0.262395113707,-1.04451751709,-0.0111341485754,-2.1040802002,-0.0456303395331,0.265201568604,0.00768132600933,8.98762798309,93.81207275391,46.1114311218,34.525493621804,769
1.64951779550795E+018,97,1.64951779550795E+018,r1000913c5/base_footprint,0,1.64951779550797E+018,v/m1vw10zy74w/map,-2.69326932111,-0.94134204361,0,0,0,-0.145016943783,0.989429171804,0,66.1100006104,8.82352924347,58.7087287903,95.4915237427,48.0081253052,48.0081253052,66.1100006104,66.1100006104,32.2771530151,1.73194551468,0,0.0082517741248,0.289548039436,0.016440808773,0.00818903464824,0.854875564575,0.0883281454444,-1.72441101074,-0.0183903612196,-1.83378219604,-0.0397143103182,1.35424041748,0.0402671508491,9.678404808045,93.76711273196,46.17434310916,33.63139343258,745
1.64951779560814E+018,98,1.64951779560814E+018,r1000913c5/base_footprint,0,1.64951779560814E+018,v/m1vw10zy74w/map,-2.50427831674,-0.996661240574,0,0,0,-0.145366171051,0.989377923907,0,66.5495986938,26.4705886841,64.5120315552,95.4203948975,48.1796340942,48.1796340942,66.5495986938,66.5495986938,25.9607124329,2.20194506645,0,0.00841988902539,0.303696602583,0.0244597550482,0.0160398669541,-16.2075443268,-1.57921409607,-1.66628265381,-0.0177729018033,-1.8403968811,-0.0397157371044,7.02205657959,0.21290075779,10.2630443573,93.75411224369,46.3392372131,32.98276901249,726
1.64951779570847E+018,99,1.64951779570847E+018,r1000913c5/base_footprint,0,1.64951779570847E+018,v/m1vw10zy74w/map,-2.36286840521,-1.03759714935,0,0,0,-0.14544122229,0.989366893957,0,66.396697998,21.5686283112,69.2473449707,95.4847259521,48.3616714478,48.3616714478,66.396697998,66.396697998,30.9105548859,2.29475498199,0,0.00818013772368,0.313080877066,0.0252512004226,0.017071062699,-11.0904455185,-1.0584321022,-1.66513824463,-0.0177482999861,-1.8595199585,-0.0399878248572,1.93323326111,0.0588614568114,10.4781827927,93.81958770747,46.5021514893,32.84378814701,738
1.64951779580937E+018,100,1.64951779580937E+018,r1000913c5/base_footprint,0,1.64951779580937E+018,v/m1vw10zy74w/map,-2.01026241166,-1.14469805029,0,0,0,-0.148276500775,0.988945943577,0,66.169631958,18.8640975952,73.109703064,95.10105896,48.5711936951,48.5711936951,66.169631958,66.169631958,35.8793029785,2.43655920029,0,0.00659241480753,0.324703812599,0.0235276855528,0.0169352721423,-8.09445571899,-0.751599311829,-1.54193115234,-0.0164808202535,-1.9923210144,-0.0427730605006,-3.26457595825,-0.100095145404,10.76964187621,93.55912780766,46.5788726807,32.61472702025,751
1.64951779590899E+018,101,1.64951779590899E+018,r1000913c5/base_footprint,0,1.64951779590899E+018,v/m1vw10zy74w/map,-1.8714547906,-1.18537147833,0,0,0,-0.150036976407,0.988680386025,0,66.6147232056,18.5520362854,75.61302948,94.4517669678,48.9474067688,48.9474067688,66.6147232056,66.6147232056,29.5933685303,2.39294719696,0,0.00621452741325,0.338833510876,0.0193229839206,0.013108455576,-8.16985225677,-0.786910772324,-0.923583984375,-0.00987492688,-2.25998687744,-0.0484067648649,3.66172027588,0.110110074282,10.38218402863,93.528182983425,46.68741989136,33.25508880618,724
