%time,field.header.seq,field.header.stamp,field.header.frame_id,field.pose.header.seq,field.pose.header.stamp,field.pose.header.frame_id,field.pose.pose.position.x,field.pose.pose.position.y,field.pose.pose.position.z,field.pose.pose.orientation.x,field.pose.pose.orientation.y,field.pose.pose.orientation.z,field.pose.pose.orientation.w,field.label,field.main_output,field.scan_score,field.pose_score,field.cov_score,field.lhood_map_score,field.lhood_robot_score,field.lhood_map_score_all,field.lhood_robot_score_all,field.point_angle_diff,field.average_orientation,field.map_average_orientation,field.sensor_div,field.odom_div_x,field.odom_div_w,field.imu_div_w,field.kdtree_div,field.kdtree_div_p,field.cov_div,field.cov_div_p,field.likelihood_div,field.likelihood_div_p,field.normal_diff_div,field.normal_diff_div_p,field.kdtree_average,field.cov_average,field.likelihood_average,field.normal_diff_average,field.map_update_count
1.64950387639433E+018,0,1.64950387639433E+018,r1000913c5/base_footprint,0,1.64950387639433E+018,v/m1vw10zy74w/map,-8.69221591666,-0.866573141967,0,0,0,-0.699374895145,0.71475503219,0,63.1999969482,16.0966720581,100,96.5126037598,43.0310058594,43.0310058594,63.1999969482,63.1999969482,34.5802574158,-0.0450434051454,0,0.00217770389281,0.115900345147,0.188627690077,0.186449989676,2.04134941101,0.112545318902,-1.92684936523,-0.0203714538366,3.32723999023,0.0717723444104,0.0731811523438,0.00211180071346,18.13802146911,94.58575439457,46.35824584963,34.6534385681438,1181
1.64950387649412E+018,1,1.64950387649412E+018,r1000913c5/base_footprint,0,1.64950387649412E+018,v/m1vw10zy74w/map,-8.69264096995,-0.984803417166,0,0,0,-0.696689684362,0.717372625421,0,62.5760765076,17.3060531616,44.1812400818,96.8602981567,42.9612388611,42.9612388611,62.5760765076,62.5760765076,46.3091049194,0.0551774352789,0,0.00316207762808,0.10936883837,0.179441645741,0.176279559731,0.607103347778,0.0338914766908,-2.26350402832,-0.0239279139787,3.16774749756,0.0686715170741,-11.5455093384,-0.332114934921,17.913156509378,94.59679412838,46.12898635866,34.763595581,1131
1.64950387659455E+018,2,1.64950387659455E+018,r1000913c5/base_footprint,0,1.64950387659456E+018,v/m1vw10zy74w/map,-8.69264096995,-0.984803417166,0,0,0,-0.696689684362,0.717372625421,0,62.9864387512,19.5501728058,45.6506462097,96.8602981567,42.8908500671,42.8908500671,62.9864387512,62.9864387512,38.1623344421,0.0967082083225,0,0.0032469087746,0.101765327156,0.165630251169,0.16238334775,-1.63701629639,-0.0913862586021,-2.26350402832,-0.0239279139787,3.2381362915,0.0701974332333,-3.39873886108,-0.0977671816945,17.91315650941,94.59679412838,46.1289863586,34.76359558102,1131
1.64950387669487E+018,3,1.64950387669487E+018,r1000913c5/base_footprint,0,1.64950387669487E+018,v/m1vw10zy74w/map,-8.69630439898,-1.09513475344,0,0,0,-0.702565706686,0.711618878184,0,63.4955024719,17.4714660645,46.382850647,97.230140686,42.8652000427,42.8652000427,63.4955024719,63.4955024719,30.0536212921,0.215878948569,0,0.00361346197315,0.0957662314177,0.153030097485,0.149416640401,0.515842437744,0.0286781340837,-2.53329467773,-0.0267516262829,2.9789276123,0.0649794787169,4.63955497742,0.133731052279,17.987308502244,94.69684600827,45.844127655,34.69317626952,1014
1.64950387679489E+018,4,1.64950387679489E+018,r1000913c5/base_footprint,0,1.64950387679489E+018,v/m1vw10zy74w/map,-8.69630439898,-1.09513475344,0,0,0,-0.702565706686,0.711618878184,0,63.4204521179,21.5686283112,45.8221244812,97.230140686,42.6764564514,42.6764564514,63.4204521179,63.4204521179,29.3661136627,0.289032369852,0,0.00376808317378,0.0928099229932,0.144844859838,0.141076773405,-3.58131980896,-0.199102595448,-2.53329467773,-0.0267516262829,3.16767120361,0.0690965503454,5.32706260681,0.153547853231,17.98730850224,94.69684600827,45.84412765501,34.69317626951,1014
1.64950387689476E+018,5,1.64950387689476E+018,r1000913c5/base_footprint,0,1.64950387689477E+018,v/m1vw10zy74w/map,-8.69728527828,-1.20651145494,0,0,0,-0.713777957563,0.700372063476,0,63.4336471558,16.3398685455,45.2733688354,96.7827911377,42.6621437073,42.6621437073,63.4336471558,63.4336471558,27.3635692596,0.516895711422,0,0.00413216371089,0.0853042379022,0.118013203144,0.113881036639,1.66264724731,0.0923563838005,-1.90623474121,-0.0200917366892,2.54072952271,0.0562072582543,7.23447227478,0.20910063386,18.00251579281,94.87655639649,45.20287323001,34.59804153438,763
1.64950387699417E+018,6,1.64950387699417E+018,r1000913c5/base_footprint,0,1.64950387699418E+018,v/m1vw10zy74w/map,-8.69772784579,-1.21870690534,0,0,0,-0.715977558011,0.698123296005,0,63.03099823,17.6470584869,45.1505050659,96.8446731567,42.5487861633,42.5487861633,63.03099823,63.03099823,33.609703064,0.585406839848,0,0.00364980078302,0.0793881267309,0.0898048058152,0.0861550047994,-1.05388069153,-0.063512891531,-1.7325668335,-0.0182160492986,-0.103500366211,-0.00243844208308,1.72960281372,0.0489427484572,16.59317779537,95.1121063232,42.445285797089,35.33930587772,392
1.6495038770939E+018,7,1.6495038770939E+018,r1000913c5/base_footprint,0,1.6495038770939E+018,v/m1vw10zy74w/map,-8.69318099046,-1.33609512938,0,0,0,-0.721463520786,0.692452444703,0,62.7317199707,20.7516345978,44.0943489075,97.2884979248,42.5119628906,42.5119628906,62.7317199707,62.7317199707,40.1968460083,0.0894673541188,0,0.00257993047126,0.0707657709718,0.0632364526391,0.0606565214694,-4.75675678253,-0.297392517328,-2.13268280029,-0.0224125329405,-1.17823791504,-0.0285054855049,-3.85074996948,-0.105946727097,15.99487781527,95.15581512451,41.33372497556,36.34609603882,315
1.64950387719411E+018,8,1.64950387719411E+018,r1000913c5/base_footprint,0,1.64950387719411E+018,v/m1vw10zy74w/map,-8.69318099046,-1.33609512938,0,0,0,-0.721463520786,0.692452444703,0,62.7306747437,18.3494300842,43.2776527405,97.2884979248,42.4249458313,42.4249458313,62.7306747437,62.7306747437,39.2758979797,0.305993586779,0,0.00210477015935,0.06477727741,0.0547651574016,0.0526603870094,-2.35455226898,-0.147206649184,-2.13268280029,-0.0224125329405,-1.09122085571,-0.0264002550393,-2.92980194092,-0.0806084349751,15.99487781522,95.15581512451,41.33372497559,36.34609603878,315
1.64950387729435E+018,9,1.64950387729435E+018,r1000913c5/base_footprint,0,1.64950387729435E+018,v/m1vw10zy74w/map,-8.69737722596,-1.45889090903,0,0,0,-0.719095142715,0.694911631594,0,62.5728187561,17.4714660645,42.8894119263,97.1245498657,42.3108100891,42.3108100891,62.5728187561,62.5728187561,40.2944145203,0.124904885888,0,0.00190540985204,0.0413485914469,0.0336954779923,0.0317900665104,-1.7761297226,-0.113162897527,-1.93925476074,-0.0203734692186,-1.08514022827,-0.0263219550252,-4.05490112305,-0.111891709268,15.6953363419,95.18529510496,41.22566986083,36.23951339725,315
1.64950388129463E+018,10,1.64950388129463E+018,r1000913c5/base_footprint,0,1.64950388129463E+018,v/m1vw10zy74w/map,-8.66479243863,-2.26421554845,0,0,0,-0.700549527665,0.713603783124,0,62.3308334351,14.7485084534,42.2291221619,95.896736145,42.1934967041,42.1934967041,62.3308334351,62.3308334351,38.9630012512,0.37466815114,0,0.000524330651388,0.0288373995572,0.0243995431811,0.0238752122968,-2.92117023468,-0.24698458612,-0.495704650879,-0.00519600929692,-1.76367950439,-0.043623238802,-10.8361358643,-0.385259270668,11.82733821872,95.401031494121,40.42981719971,28.1268653869,194
1.64950388359406E+018,11,1.64950388359406E+018,r1000913c5/base_footprint,0,1.64950388359406E+018,v/m1vw10zy74w/map,-8.70521869044,-2.35382551185,0,0,0,-0.705725942541,0.70848492858,0,62.8471565247,15.8297462463,41.223941803,95.8629608154,42.1814651489,42.1814651489,62.8471565247,62.8471565247,29.4176445007,1.54037904739,0,0.000683800608385,0.103522248566,0.037516079843,0.0381998792291,-4.23707294464,-0.36549577117,-0.451332092285,-0.00473036756739,-1.80060195923,-0.0445904769003,-1.88274383545,-0.0683766379952,11.59267330166,95.411628723115,40.38086318967,27.53490066525,181
1.64950388369454E+018,12,1.64950388369454E+018,r1000913c5/base_footprint,0,1.64950388369454E+018,v/m1vw10zy74w/map,-8.70521869044,-2.35382551185,0,0,0,-0.705725942541,0.70848492858,0,62.9247627258,13.78536129,40.8497085571,95.8629608154,41.9930877686,41.9930877686,62.9247627258,62.9247627258,25.9862861633,1.45234978199,0,0.00103726366069,0.146931156516,0.0400774739683,0.0411147363484,-2.19268798828,-0.189144298434,-0.451332092285,-0.00473036756739,-1.61222457886,-0.0399254597723,1.54861450195,0.056241877377,11.59267330172,95.411628723115,40.38086318974,27.53490066525,181
1.64950388379427E+018,13,1.64950388379427E+018,r1000913c5/base_footprint,0,1.64950388379427E+018,v/m1vw10zy74w/map,-8.70521869044,-2.35382551185,0,0,0,-0.705725942541,0.70848492858,0,63.0624732971,12.6559715271,40.6681289673,95.8629608154,41.779384613,41.779384613,63.0624732971,63.0624732971,21.1994743347,1.41881597042,0,0.0012332421029,0.184711962938,0.0433554723859,0.044588714838,-1.0632982254,-0.0917215719819,-0.451332092285,-0.00473036756739,-1.39852142334,-0.0346332713962,6.33542633057,0.230087131262,11.5926733017,95.411628723115,40.38086318966,27.53490066527,181
1.64950388389443E+018,14,1.64950388389443E+018,r1000913c5/base_footprint,0,1.64950388389443E+018,v/m1vw10zy74w/map,-8.70521869044,-2.35382551185,0,0,0,-0.705725942541,0.70848492858,0,62.6232872009,13.165266037,40.6146965027,95.8629608154,41.6339874268,41.6339874268,62.6232872009,62.6232872009,27.534576416,1.53400146961,0,0.00232781167142,0.198936015368,0.0628268420696,0.0651546493173,-1.57259273529,-0.135654017329,-0.451332092285,-0.00473036756739,-1.25312423706,-0.0310326255858,0.000324249267578,1.17759373097E-05,11.59267330171,95.411628723115,40.38086318974,27.5349006652676,181
1.6495038839941E+018,15,1.6495038839941E+018,r1000913c5/base_footprint,0,1.6495038839941E+018,v/m1vw10zy74w/map,-8.70521869044,-2.35382551185,0,0,0,-0.705725942541,0.70848492858,0,62.5682792664,13.4948101044,40.6471061707,95.8629608154,41.6860313416,41.6860313416,62.5682792664,62.5682792664,29.0867767334,1.44050014019,0,0.00189729686826,0.192098513246,0.0753710567951,0.0772683545947,-1.90213680267,-0.164080947638,-0.451332092285,-0.00473036756739,-1.30516815186,-0.0323214530945,-1.55187606812,-0.0563603304327,11.59267330173,95.411628723115,40.38086318974,27.53490066528,181
1.64950388409421E+018,16,1.64950388409421E+018,r1000913c5/base_footprint,0,1.64950388409421E+018,v/m1vw10zy74w/map,-8.68126880924,-2.24560026271,0,0,0,-0.715393171741,0.698722126332,0,62.5084037781,13.7254905701,40.7370681763,95.7231750488,41.5152053833,41.5152053833,62.5084037781,62.5084037781,27.8163509369,1.4824398756,0,0.00185643939767,0.178918004036,0.0777646750212,0.0796211138368,-1.62090396881,-0.133908241987,-0.309204101562,-0.0032406586688,-1.0669593811,-0.02637838386,0.887706756592,0.0309261772782,12.10458660129,95.413970947238,40.4482460022,28.704057693492,206
1.64950388419436E+018,17,1.64950388419436E+018,r1000913c5/base_footprint,0,1.64950388419436E+018,v/m1vw10zy74w/map,-8.68136848977,-2.23199579948,0,0,0,-0.717769323281,0.69628097673,0,62.3569488525,10.6912841797,40.8653259277,95.846786499,41.3410568237,41.3410568237,62.3569488525,62.3569488525,29.1067752838,1.34379935265,0,0.00173545535654,0.16826736927,0.0732708796859,0.0750063359737,1.41330242157,0.116757594049,-0.432815551758,-0.00453618634492,-0.892810821533,-0.0220729187131,-0.402717590332,-0.0140299880877,12.10458660127,95.413970947242,40.448246002167,28.704057693468,206
1.64950388429413E+018,18,1.64950388429413E+018,r1000913c5/base_footprint,0,1.64950388429413E+018,v/m1vw10zy74w/map,-8.68136848977,-2.23199579948,0,0,0,-0.717769323281,0.69628097673,0,62.2361030579,8.30449867249,41.0186080933,95.846786499,41.2856254578,41.2856254578,62.2361030579,62.2361030579,30.683303833,1.34769511223,0,0.0014351134887,0.161499932408,0.0666145607829,0.0680496767163,3.80008792877,0.313937842846,-0.432815551758,-0.00453618634492,-0.837379455566,-0.0207024905831,-1.97924613953,-0.0689535290003,12.10458660126,95.413970947242,40.448246002234,28.70405769347,206
1.64950388439396E+018,19,1.64950388439396E+018,r1000913c5/base_footprint,0,1.64950388439396E+018,v/m1vw10zy74w/map,-8.68306843618,-2.11933631252,0,0,0,-0.718398336062,0.69563196501,0,62.4190139771,5.1799826622,41.1209220886,95.8445358276,41.384677887,41.384677887,62.4190139771,62.4190139771,28.4526081085,1.33441781998,0,0.00176009396091,0.128374651074,0.0540204234421,0.0557805188,7.36719655991,0.587159574032,-0.495384216309,-0.00519547564909,-0.870906829834,-0.0214965622872,1.46678924561,0.0490246936679,12.54717922211,95.349151611291,40.513771057166,29.91939735411,242
1.64950388449434E+018,20,1.64950388449434E+018,r1000913c5/base_footprint,0,1.64950388449434E+018,v/m1vw10zy74w/map,-8.68268455094,-1.99013456212,0,0,0,-0.718687689561,0.695333017247,0,62.5665435791,4.63458108902,41.8132171631,95.9164428711,41.4795417786,41.4795417786,62.5665435791,62.5665435791,27.0804367065,1.56351804733,0,0.0018530957168,0.108212985098,0.0477257594466,0.0495788566768,8.23912239075,0.639996290207,-0.582992553711,-0.00611529918388,-0.835182189941,-0.0205485392362,4.0310459137,0.129567787051,12.87370347977,95.333450317389,40.644359588659,31.1114826202,290
1.64950388459488E+018,21,1.64950388459488E+018,r1000913c5/base_footprint,0,1.64950388459488E+018,v/m1vw10zy74w/map,-8.68268455094,-1.99013456212,0,0,0,-0.718687689561,0.695333017247,0,62.815322876,10.1435852051,43.501285553,95.9164428711,41.8567848206,41.8567848206,62.815322876,62.815322876,26.676656723,1.17000365257,0,0.00217551412061,0.0976504981518,0.042942084372,0.045117598027,2.73011875153,0.212069407105,-0.582992553711,-0.00611529918388,-1.21242523193,-0.0298300981522,4.43482589722,0.142546266317,12.87370395663,95.333450317389,40.64435958867,31.11148262022,290
1.64950388469458E+018,22,1.64950388469458E+018,r1000913c5/base_footprint,0,1.64950388469458E+018,v/m1vw10zy74w/map,-8.68268455094,-1.99013456212,0,0,0,-0.718687689561,0.695333017247,0,62.7048149109,10.6247148514,44.8582801819,95.9164428711,42.2191696167,42.2191696167,62.7048149109,62.7048149109,32.5795631409,1.17575788498,0,0.00199073809199,0.0936840623617,0.0406808778644,0.0426716133952,2.24898910522,0.174696356058,-0.582992553711,-0.00611529918388,-1.57481002808,-0.0387460887432,-1.46808052063,-0.0471877381206,12.87370395662,95.333450317389,40.64435958862,31.11148262027,290
1.64950388479435E+018,23,1.64950388479435E+018,r1000913c5/base_footprint,0,1.64950388479435E+018,v/m1vw10zy74w/map,-8.68164675541,-1.87536065558,0,0,0,-0.719598600725,0.69439027487,0,62.8576545715,9.29501533508,46.0250587463,95.7010650635,42.5354194641,42.5354194641,62.8576545715,62.8576545715,32.4686012268,1.07837843895,0,0.00184389506467,0.0890647619963,0.0385838449001,0.0404277406633,4.2098197937,0.311726868153,-0.428024291992,-0.00449260650203,-1.82094573975,-0.0447247773409,-0.564479827881,-0.0176930073649,13.50483512878,95.273040771508,40.71447372435,31.904121398919,302
1.64950388489399E+018,24,1.64950388489399E+018,r1000913c5/base_footprint,0,1.64950388489399E+018,v/m1vw10zy74w/map,-8.68233421212,-1.88395436204,0,0,0,-0.719920978509,0.69405603859,0,62.8252563477,14.6834306717,46.5886497498,95.7987060547,42.8223342896,42.8223342896,62.8252563477,62.8252563477,36.5019416809,1.14582335949,0,0.00157191371545,0.0822185650468,0.0356559678912,0.0372278802097,-1.17859554291,-0.0872721150517,-0.525665283203,-0.00551746087149,-2.10786056519,-0.051771774888,-4.59782028198,-0.14411367476,13.50483512879,95.273040771497,40.71447372441,31.90412139892,302
1.64950388499446E+018,25,1.64950388499446E+018,r1000913c5/base_footprint,0,1.64950388499446E+018,v/m1vw10zy74w/map,-8.67979652653,-1.76076718175,0,0,0,-0.720478885499,0.693476874561,0,62.9077148438,18.8948307037,47.1400146484,96.014175415,43.0711631775,43.0711631775,62.9077148438,62.9077148438,38.4806861877,0.788030028343,0,0.0014979345724,0.0713939890265,0.0314534269273,0.032951362431,-4.87072372437,-0.347310781479,-0.740852355957,-0.0077760736458,-2.25497436523,-0.0552470572293,-5.06266021729,-0.151494890451,14.02410697933,95.273323059043,40.81618881227,33.41802597041,305
1.64950388509413E+018,26,1.64950388509413E+018,r1000913c5/base_footprint,0,1.64950388509413E+018,v/m1vw10zy74w/map,-8.67979652653,-1.76076718175,0,0,0,-0.720478885499,0.693476874561,0,62.9289550781,20.1373977661,47.600933075,96.014175415,43.1881332397,43.1881332397,62.9289550781,62.9289550781,39.3616638184,0.652752518654,0,0.00133891869336,0.0621806941926,0.0294330455363,0.030771965161,-6.11329078674,-0.435913026333,-0.740852355957,-0.0077760736458,-2.37194442749,-0.0581128336489,-5.9436378479,-0.177857235074,14.02410697936,95.273323059043,40.81618881221,33.4180259705,305
1.64950388519402E+018,27,1.64950388519402E+018,r1000913c5/base_footprint,0,1.64950388519403E+018,v/m1vw10zy74w/map,-8.67086060473,-1.6427899539,0,0,0,-0.722184469749,0.691700507194,0,62.6349411011,15.966386795,47.6142349243,95.8442993164,43.0521774292,43.0521774292,62.6349411011,62.6349411011,42.5740623474,0.776263594627,0,0.00128749886062,0.0513324588537,0.0294844657183,0.030771965161,-0.999087333679,-0.0667513459921,-0.602294921875,-0.00632383720949,-2.04884719849,-0.0499678254128,-7.58373260498,-0.216737955809,14.967299461321,95.242004394525,41.00333023071,34.99032974242,316
1.64950388529418E+018,28,1.64950388529418E+018,r1000913c5/base_footprint,0,1.64950388529418E+018,v/m1vw10zy74w/map,-8.67086060473,-1.6427899539,0,0,0,-0.722184469749,0.691700507194,0,62.7657966614,10.7505073547,47.431678772,95.8442993164,42.8766136169,42.8766136169,62.7657966614,62.7657966614,38.3225517273,0.776638329029,0,0.0012787146261,0.0431568287313,0.0294932499528,0.030771965161,4.21679210663,0.28173366189,-0.602294921875,-0.00632383720949,-1.87328338623,-0.0456861294806,-3.33222198486,-0.0952326580882,14.96729946133,95.242004394525,41.00333023067,34.99032974244,316
1.64950388539475E+018,29,1.64950388539475E+018,r1000913c5/base_footprint,0,1.64950388539475E+018,v/m1vw10zy74w/map,-8.67237527646,-1.5309243511,0,0,0,-0.720219135041,0.693746637844,0,62.4832420349,15.6186609268,47.2491264343,95.9130096436,42.7089538574,42.7089538574,62.4832420349,62.4832420349,41.8451805115,0.54415756464,0,0.00127613963559,0.0355422869325,0.0294958241284,0.030771965161,-0.168167114258,-0.0108842551708,-0.717674255371,-0.00753896450624,-1.58294677734,-0.038490165025,-5.9228477478,-0.164879262447,15.450493812542,95.195335388229,41.12600708006,35.9223327637,314
1.64950388549567E+018,30,1.64950388549567E+018,r1000913c5/base_footprint,0,1.64950388549567E+018,v/m1vw10zy74w/map,-8.67284378955,-1.51890952966,0,0,0,-0.720664167067,0.693284327174,0,62.2085151672,14.5850124359,46.9974212646,95.9139556885,42.5955924988,42.5955924988,62.2085151672,62.2085151672,45.5693817139,0.713535904884,0,0.00125559431035,0.0297509785742,0.029516370967,0.030771965161,0.865481376648,0.0560164228082,-0.718620300293,-0.00754890264943,-1.4695854187,-0.0357337258756,-9.6470489502,-0.268552958965,15.450493812548,95.195335388207,41.1260070801,35.9223327637,314
1.64950388559419E+018,31,1.64950388559419E+018,r1000913c5/base_footprint,0,1.64950388559419E+018,v/m1vw10zy74w/map,-8.67284378955,-1.51890952966,0,0,0,-0.720664167067,0.693284327174,0,62.3324737549,15.6186609268,46.9920883179,95.9139556885,42.3822402954,42.3822402954,62.3324737549,62.3324737549,41.0338897705,0.565372943878,0,0.00123716169037,0.0268167555332,0.0295348037034,0.030771965161,-0.168167114258,-0.0108842551708,-0.718620300293,-0.00754890264943,-1.25623321533,-0.0305459555238,-5.11155700684,-0.142294690013,15.450493812542,95.195335388207,41.12600708007,35.92233276366,314
1.64950388569409E+018,32,1.64950388569409E+018,r1000913c5/base_footprint,0,1.64950388569409E+018,v/m1vw10zy74w/map,-8.66879268937,-1.40762951892,0,0,0,-0.720596859784,0.693354285824,0,62.4256019592,15.966386795,46.9370651245,96.4479293823,42.2011604309,42.2011604309,62.4256019592,62.4256019592,39.3242378235,0.489046603441,0,0.00121830054559,0.0191819723696,0.0295536629856,0.030771965161,-0.212089538574,-0.0134623292834,-1.28242492676,-0.0134757328779,-0.971946716309,-0.0235742237419,-3.04534912109,-0.083942733705,15.754297256426,95.16550445554,41.229213714591,36.27888870241,324
1.64950388579395E+018,33,1.64950388579395E+018,r1000913c5/base_footprint,0,1.64950388579395E+018,v/m1vw10zy74w/map,-8.66879268937,-1.40762951892,0,0,0,-0.720596859784,0.693354285824,0,62.5761909485,17.9784584045,47.0400848389,96.4479293823,42.1493530273,42.1493530273,62.5761909485,62.5761909485,36.0541267395,0.404791921377,0,0.00119729724247,0.0130620831624,0.0295746680349,0.030771965161,-2.22416114807,-0.141178056598,-1.28242492676,-0.0134757328779,-0.920139312744,-0.0223176535219,0.224761962891,0.00619539292529,15.75429725643,95.16550445554,41.229213714556,36.278888702391,324
1.64950388599387E+018,34,1.64950388599387E+018,r1000913c5/base_footprint,0,1.64950388599387E+018,v/m1vw10zy74w/map,-8.66506437741,-1.27484266491,0,0,0,-0.719933387203,0.694043167238,0,62.3855400085,18.2311229706,47.1204986572,96.4516601562,42.0159797668,42.0159797668,62.3855400085,62.3855400085,38.0588378906,0.357910215855,0,0.00117142125964,0.00872434303164,0.0296005439013,0.030771965161,-1.99362754822,-0.122779250145,-1.29832458496,-0.0136445518583,-0.573272705078,-0.0138328969479,-1.97958755493,-0.0548677556217,16.23749542238,95.15333557124,41.442707061722,36.07925033567,321
1.64950388609439E+018,35,1.64950388609439E+018,r1000913c5/base_footprint,0,1.64950388609439E+018,v/m1vw10zy74w/map,-8.66506437741,-1.27484266491,0,0,0,-0.719933387203,0.694043167238,0,62.3168792725,18.3006534576,47.2330780029,96.4516601562,41.9747962952,41.9747962952,62.3168792725,62.3168792725,38.8499755859,0.395693600178,0,0.00117317924742,0.00725771253929,0.0295987855643,0.030771965161,-2.06315803528,-0.127061352134,-1.29832458496,-0.0136445518583,-0.532089233398,-0.0128391524777,-2.77072525024,-0.0767955332994,16.23749542232,95.15333557124,41.442707061802,36.07925033566,321
1.64950388619529E+018,36,1.64950388619529E+018,r1000913c5/base_footprint,0,1.64950388619529E+018,v/m1vw10zy74w/map,-8.66506437741,-1.27484266491,0,0,0,-0.719933387203,0.694043167238,0,62.1791648865,19.3747425079,47.4057121277,96.4516601562,41.9066886902,41.9066886902,62.1791648865,62.1791648865,40.5932502747,0.443420797586,0,0.00117266667075,0.00436664605513,0.0295992977917,0.030771965161,-3.13724708557,-0.193210035563,-1.29832458496,-0.0136445518583,-0.463981628418,-0.0111957369372,-4.51399993896,-0.125113457441,16.23749542233,95.15333557124,41.442707061782,36.07925033574,321
1.64950388629495E+018,37,1.64950388629495E+018,r1000913c5/base_footprint,0,1.64950388629495E+018,v/m1vw10zy74w/map,-8.66506437741,-1.27484266491,0,0,0,-0.719933387203,0.694043167238,0,62.000793457,21.0084037781,47.6473808289,96.4516601562,41.96459198,41.96459198,62.000793457,62.000793457,44.4293289185,0.471369326115,0,0.00117312313523,0.00339229428209,0.0295988414437,0.030771965161,-4.77090835571,-0.293820470572,-1.29832458496,-0.0136445518583,-0.521884918213,-0.0125929256901,-8.35007858276,-0.231437146664,16.23749542239,95.15333557124,41.442707061787,36.07925033574,321
1.64950388639439E+018,38,1.64950388639439E+018,r1000913c5/base_footprint,0,1.64950388639439E+018,v/m1vw10zy74w/map,-8.65819191739,-1.16036502702,0,0,0,-0.720848405242,0.693092761945,0,62.5816230774,17.6470584869,47.9580841064,96.6211090088,41.906703949,41.906703949,62.5816230774,62.5816230774,33.9592132568,0.30849853158,0,0.00115939462557,0.0584144033492,0.029344221577,0.030503615737,0.380588531494,0.0211113821715,-1.71449279785,-0.0180650502443,3.28772735596,0.0727462917566,0.74271774292,0.0214027781039,18.027647018394,94.90661621095,45.19443130496,34.70193099972,787
1.64950388649397E+018,39,1.64950388649397E+018,r1000913c5/base_footprint,0,1.64950388649397E+018,v/m1vw10zy74w/map,-8.65591603844,-1.17095613983,0,0,0,-0.721169946349,0.69275818904,0,62.3195877075,16.806722641,51.3326377869,96.795791626,41.8017463684,41.8017463684,62.3195877075,62.3195877075,38.1711463928,0.40697067976,0,0.000705715501681,0.104828119278,0.0276485830545,0.0283542983234,1.22092437744,0.0677251070738,-1.88917541504,-0.0199056230485,3.39268493652,0.0750686526299,-3.46921539307,-0.0999718233943,18.02764701844,94.90661621096,45.19443130492,34.70193099973,787
1.6495038865943E+018,40,1.6495038865943E+018,r1000913c5/base_footprint,0,1.6495038865943E+018,v/m1vw10zy74w/map,-8.66002186538,-1.04293986907,0,0,0,-0.721425993564,0.69249154205,0,62.6695594788,20.9961357117,58.5725822449,96.7524108887,41.8792381287,41.8792381287,62.6695594788,62.6695594788,32.55235672,0.487885206938,0,0.000263858761173,0.133974924684,0.0223474800587,0.0220836214721,-2.90262413025,-0.160423487425,-2.1243057251,-0.0224489942193,4.1212272644,0.0895909890532,2.23348236084,0.0642066523433,18.09351158145,94.6281051636,46.0004653931,34.78583908084,1080
1.64950388669447E+018,41,1.64950388669447E+018,r1000913c5/base_footprint,0,1.64950388669447E+018,v/m1vw10zy74w/map,-8.66002186538,-1.04293986907,0,0,0,-0.721425993564,0.69249154205,0,62.727432251,20.7161121368,61.2444038391,96.7524108887,41.9855155945,41.9855155945,62.727432251,62.727432251,32.6584777832,0.3035364151,0,0.000503636198118,0.150034382939,0.0069780391641,0.00647440273315,-2.62260055542,-0.1449470222,-2.1243057251,-0.0224489942193,4.01494979858,0.0872806310654,2.12736129761,0.0611559562385,18.09351158138,94.6281051636,46.00046539308,34.78583908081,1080
1.64950388679406E+018,42,1.64950388679406E+018,r1000913c5/base_footprint,0,1.64950388679406E+018,v/m1vw10zy74w/map,-8.65448168151,-0.92574684537,0,0,0,-0.720375293175,0.693584484387,0,62.8697013855,19.5937366486,64.9531707764,96.5933532715,42.1596260071,42.1596260071,62.8697013855,62.8697013855,31.4054088593,0.101077057421,0,7.71790873841E-05,0.152961298823,0.000754654989578,0.000831834040582,-1.44690895081,-0.0797334387898,-1.98913574219,-0.0210258681327,4.04507064819,0.0875467434525,3.32815361023,0.0958195328712,18.14682769779,94.60421752931,46.20469665529,34.73356246953,1170
1.64950388689483E+018,43,1.64950388689483E+018,r1000913c5/base_footprint,0,1.64950388689483E+018,v/m1vw10zy74w/map,-8.65641991728,-0.930720649935,0,0,0,-0.7209155948,0.693022874929,0,62.9910430908,19.2786598206,66.8359985352,96.7257614136,42.2889175415,42.2889175415,62.9910430908,62.9910430908,31.0942821503,0.339537203312,0,0.000106553648948,0.151917725801,0.00194630015176,0.00205285381526,-1.1318321228,-0.0623707994819,-2.12154388428,-0.0224254690111,3.91577911377,0.084748506546,3.63928031921,0.104777052999,18.1468276978,94.60421752932,46.20469665527,34.73356246951,1170
1.64950388699449E+018,44,1.64950388699449E+018,r1000913c5/base_footprint,0,1.6495038869945E+018,v/m1vw10zy74w/map,-8.65641991728,-0.930720649935,0,0,0,-0.7209155948,0.693022874929,0,63.4044837952,21.0084037781,68.3276519775,96.7257614136,42.3671684265,42.3671684265,63.4044837952,63.4044837952,24.497467041,0.355196624994,0,0.000306368339807,0.148607239127,0.00143339822534,0.00173976656515,-2.86157608032,-0.157690152526,-2.12154388428,-0.0224254690111,3.83752822876,0.0830549374223,10.2360954285,0.294703304768,18.14682769778,94.60421752932,46.20469665526,34.7335624695,1170
1.64950388709468E+018,45,1.64950388709468E+018,r1000913c5/base_footprint,0,1.64950388709468E+018,v/m1vw10zy74w/map,-8.65013082728,-0.798279341706,0,0,0,-0.719655994965,0.694330792138,0,63.2676124573,25.8312015533,70.2467651367,96.7334213257,42.61668396,42.61668396,63.2676124573,63.2676124573,29.6834793091,0.127367302775,0,0.000145714759128,0.148288711905,0.000581685337238,0.000435970549006,-7.58392333984,-0.415619432926,-2.1714553833,-0.0229633059353,3.934009552,0.0845102220774,4.99282073975,0.143983662128,18.24727821346,94.5619659424,46.550693512,34.67630004885,1182
1.64950388719457E+018,46,1.64950388719457E+018,r1000913c5/base_footprint,0,1.64950388719457E+018,v/m1vw10zy74w/map,-8.65013082728,-0.798279341706,0,0,0,-0.719655994965,0.694330792138,0,63.4615097046,23.0103797913,71.4561157227,96.7334213257,42.8895759583,42.8895759583,63.4615097046,63.4615097046,29.1405563354,0.205163940787,0,0.000148587743752,0.148812785745,0.000584558292758,0.000435970549006,-4.76310157776,-0.26103079319,-2.1714553833,-0.0229633059353,3.66111755371,0.0786479711533,5.53574371338,0.159640550613,18.24727821354,94.5619659424,46.55069351201,34.67630004878,1182
1.64950388729464E+018,47,1.64950388729464E+018,r1000913c5/base_footprint,0,1.64950388729464E+018,v/m1vw10zy74w/map,-8.64838489745,-0.6849806246,0,0,0,-0.72158867524,0.692322023169,0,63.6543083191,25.0544662476,72.9882965088,96.9752960205,43.173210144,43.173210144,63.6543083191,63.6543083191,29.6041793823,0.185585126281,0,0.00015583250206,0.148620158434,0.000591803051066,0.000435970549006,-6.83223724365,-0.374939709902,-2.44110107422,-0.0258224140853,3.53956985474,0.0757730528712,5.03852844238,0.145442679524,18.22222900395,94.53419494628,46.71277999874,34.64270782468,1145
1.64950388739445E+018,48,1.64950388739445E+018,r1000913c5/base_footprint,0,1.64950388739445E+018,v/m1vw10zy74w/map,-8.64838489745,-0.6849806246,0,0,0,-0.72158867524,0.692322023169,0,63.6522521973,29.9307956696,72.074836731,96.9752960205,43.6022109985,43.6022109985,63.6522521973,63.6522521973,34.2744483948,0.0168007630855,0,0.000147362719872,0.148387640715,0.000276128383121,0.000128765663248,-11.7085666656,-0.642543077469,-2.44110107422,-0.0258224140853,3.11056900024,0.0665892511606,0.368259429932,0.0106302145869,18.222229004,94.53419494628,46.71277999874,34.642707824732,1145
1.64950388749418E+018,49,1.64950388749418E+018,r1000913c5/base_footprint,0,1.64950388749418E+018,v/m1vw10zy74w/map,-8.64838489745,-0.6849806246,0,0,0,-0.72158867524,0.692322023169,0,64.2061538696,26.5811595917,70.5481796265,96.9752960205,43.8923683167,43.8923683167,64.2061538696,64.2061538696,27.4378910065,0.188781246543,0,0.000189463331481,0.148475006223,2.28830649576E-05,0.000166580270161,-8.35893058777,-0.458721637726,-2.44110107422,-0.0258224140853,2.82041168213,0.0603777319193,7.20481681824,0.207974985242,18.22222900393,94.53419494628,46.71277999883,34.64270782474,1145
1.64950388759406E+018,50,1.64950388759406E+018,r1000913c5/base_footprint,0,1.64950388759406E+018,v/m1vw10zy74w/map,-8.64416793532,-0.556387258712,0,0,0,-0.720082408749,0.693888553451,0,64.3779525757,32.773109436,72.0085220337,96.9760665894,44.2347106934,44.2347106934,64.3779525757,64.3779525757,28.0455303192,0.040736515075,0,0.000124420781503,0.14873342216,4.21594886575E-05,0.000166580270161,-14.5405063629,-0.797500312328,-2.45858001709,-0.0260119065642,2.55435562134,0.0545930042863,6.56343269348,0.189645454288,18.2326030731,94.51748657231,46.78906631474,34.60896301268,1050
1.64950388849434E+018,51,1.64950388849434E+018,r1000913c5/base_footprint,0,1.64950388849434E+018,v/m1vw10zy74w/map,-8.63793683043,-0.447963305117,0,0,0,-0.71965925747,0.694327410619,0,64.1219100952,27.4657230377,73.2534790039,96.8747558594,44.433795929,44.433795929,64.1219100952,64.1219100952,34.4398040771,-0.0104007171467,0,3.30985167238E-05,0.206109851599,0.0388926789165,0.0389257781208,-9.46030807495,-0.525414586067,-2.38382720947,-0.0252281073481,2.2820892334,0.0488503910601,0.0528678894043,0.00153272820171,18.00541496275,94.49092864993,46.7158851624,34.4926719665043,943
1.6495038885953E+018,52,1.6495038885953E+018,r1000913c5/base_footprint,0,1.6495038885953E+018,v/m1vw10zy74w/map,-8.63793683043,-0.447963305117,0,0,0,-0.71965925747,0.694327410619,0,64.470916748,21.2802772522,75.6805419922,96.8747558594,44.591884613,44.591884613,64.470916748,64.470916748,29.8650054932,0.15811419487,0,0.00163139111828,0.203819960356,0.0604563765228,0.0588249862194,-3.27486228943,-0.181882083416,-2.38382720947,-0.0252281073481,2.12400054932,0.0454663448036,4.62766647339,0.134163752198,18.00541496277,94.49092864993,46.71588516232,34.49267196659,943
1.64950388869617E+018,53,1.64950388869617E+018,r1000913c5/base_footprint,0,1.64950388869617E+018,v/m1vw10zy74w/map,-8.63793683043,-0.447963305117,0,0,0,-0.71965925747,0.694327410619,0,64.4554290771,19.7860965729,74.5527572632,96.8747558594,44.5258789062,44.5258789062,64.4554290771,64.4554290771,29.4308433533,0.0686607509851,0,0.0018744909903,0.203060120344,0.0618313625455,0.0599568709731,-1.78068161011,-0.0988970026374,-2.38382720947,-0.0252281073481,2.1900062561,0.0468792617321,5.06182861328,0.146750837564,18.00541496279,94.49092864993,46.7158851623,34.49267196658,943
1.64950388879432E+018,54,1.64950388879432E+018,r1000913c5/base_footprint,0,1.64950388879432E+018,v/m1vw10zy74w/map,-8.63223246194,-0.487280709248,0,0,0,-0.686208172757,0.727405212823,0,64.3759918213,16.4795684814,73.5326461792,96.8879241943,44.4351234436,44.4351234436,64.3759918213,64.3759918213,29.9280548096,-0.144203796983,0,0.00231961463578,0.201333776116,0.0661234259605,0.0638038143516,1.79204368591,0.0980780273676,-2.35695648193,-0.0249331686646,2.32403945923,0.0497023314238,4.67058181763,0.134993240237,18.27161216731,94.53096771237,46.75916290283,34.59863662723,1007
1.64950388889412E+018,55,1.64950388889412E+018,r1000913c5/base_footprint,0,1.64950388889412E+018,v/m1vw10zy74w/map,-8.63023449273,-0.494595452333,0,0,0,-0.681063591601,0.732224271788,0,64.0939788818,12.4281291962,72.535736084,97.069152832,44.2480010986,44.2480010986,64.0939788818,64.0939788818,33.6357765198,-0.0291247647256,0,0.00263390084729,0.199030920863,0.0724660232663,0.069832123816,5.84348297119,0.319812119007,-2.53818511963,-0.026850303635,2.5111618042,0.0537041649222,0.962860107422,0.0278294235468,18.27161216739,94.53096771237,46.7591629028,34.598636627222,1007
1.64950388899403E+018,56,1.64950388899403E+018,r1000913c5/base_footprint,0,1.64950388899403E+018,v/m1vw10zy74w/map,-8.62149521264,-0.556218225996,0,0,0,-0.635835926762,0.771824250875,0,64.2439651489,15.966386795,71.6764373779,97.0324707031,44.1254577637,44.1254577637,64.2439651489,64.2439651489,29.4804115295,-0.181181624532,0,0.00340481707826,0.192670479417,0.106323570013,0.102918751538,2.26655769348,0.124311119318,-2.50964355469,-0.0265506617725,2.63132476807,0.0562768578529,5.15110778809,0.148740455508,18.23294448848,94.52282714841,46.75678253177,34.63151931759,1045
1.64950388909403E+018,57,1.64950388909403E+018,r1000913c5/base_footprint,0,1.64950388909403E+018,v/m1vw10zy74w/map,-8.6087442511,-0.606852884504,0,0,0,-0.585926551118,0.810364163013,0,63.8549919128,15.966386795,70.9599227905,96.9788970947,43.9369735718,43.9369735718,63.8549919128,63.8549919128,34.2534828186,0.0844725295901,0,0.0044257552363,0.187587246299,0.126070156693,0.121644407511,2.26325416565,0.124152429402,-2.45508575439,-0.0259731989354,2.81460189819,0.060203358531,0.464839935303,0.013388893567,18.22964096065,94.52381134031,46.75157546999,34.718322753903,1095
1.64950388919415E+018,58,1.64950388919415E+018,r1000913c5/base_footprint,0,1.64950388919415E+018,v/m1vw10zy74w/map,-8.59196987315,-0.658177689258,0,0,0,-0.528565505201,0.848892517762,0,63.557598114,21.5686283112,64.7018661499,96.8081130981,44.0853385925,44.0853385925,63.557598114,63.557598114,40.5940895081,-0.28679651022,0,0.00560468854383,0.141212373972,0.0765218734741,0.0709171816707,-3.36313056946,-0.184731587768,-2.27387237549,-0.0240534264594,2.68473815918,0.0574029013515,-5.83768463135,-0.167959973216,18.20549774174,94.53424072261,46.77007675168,34.75640487675,1120
1.64950388929453E+018,59,1.64950388929453E+018,r1000913c5/base_footprint,0,1.64950388929453E+018,v/m1vw10zy74w/map,-8.56898973163,-0.691585671169,0,0,0,-0.464872099363,0.885377846591,0,63.3120574951,12.4486999512,57.2630310059,96.5718688965,43.949672699,43.949672699,63.3120574951,63.3120574951,42.6981658936,-0.182177975774,0,0.00517676817253,0.0813230797648,0.00667930534109,0.0118560735136,5.71601486206,0.314676821232,-2.03044891357,-0.0214768182486,2.74951553345,0.05887715891,-7.84287261963,-0.225012376904,18.16471481326,94.54141998293,46.69918823245,34.85529327397,1144
1.64950388939481E+018,60,1.64950388939481E+018,r1000913c5/base_footprint,0,1.64950388939481E+018,v/m1vw10zy74w/map,-8.56261808738,-0.697277711322,0,0,0,-0.408865274088,0.912594755434,0,63.6692390442,16.2210330963,49.4502716064,96.6732177734,44.0645523071,44.0645523071,63.6692390442,63.6692390442,37.8744316101,-0.15070950985,0,0.00369240646251,0.0692295879126,0.0115570360795,0.0152494432405,1.94368171692,0.10700315237,-2.13179779053,-0.0225488226861,2.63463592529,0.0564171671867,-3.01913833618,-0.086619220674,18.16471481322,94.54141998287,46.69918823239,34.85529327392,1144
1.64950388949486E+018,61,1.64950388949486E+018,r1000913c5/base_footprint,0,1.64950388949486E+018,v/m1vw10zy74w/map,-8.56261808738,-0.697277711322,0,0,0,-0.408865274088,0.912594755434,0,63.7392578125,15.1846780777,47.8904037476,96.6732177734,44.2526702881,44.2526702881,63.7392578125,63.7392578125,38.6457595825,-0.221301242709,0,0.00335407536477,0.0623873211443,0.00496622594073,0.00161215034313,2.98003673553,0.16405634582,-2.13179779053,-0.0225488226861,2.44651794434,0.0523888766766,-3.79046630859,-0.108748659492,18.16471481323,94.54141998287,46.69918823244,34.85529327391,1144
1.64950388959398E+018,62,1.64950388959398E+018,r1000913c5/base_footprint,0,1.64950388959398E+018,v/m1vw10zy74w/map,-8.55837151759,-0.70425844444,0,0,0,-0.357979581978,0.93372941417,0,63.5697593689,9.43043899536,47.6047935486,96.7800064087,44.3385162354,44.3385162354,63.5697593689,63.5697593689,43.0083465576,-0.189911097288,0,0.00405843462795,0.0607126615942,0.00300869555213,0.00104973930866,8.73427581787,0.480837494135,-2.23858642578,-0.0236783660948,2.36067199707,0.0505505986512,-8.15305328369,-0.23391148448,18.16471481323,94.54141998292,46.69918823247,34.85529327391,1144
1.64950388989392E+018,63,1.64950388989392E+018,r1000913c5/base_footprint,0,1.64950388989392E+018,v/m1vw10zy74w/map,-8.55640036815,-0.700459971292,0,0,0,-0.239291340821,0.970947812299,0,64.2411727905,16.7862262726,47.4570083618,96.7466659546,44.6282424927,44.6282424927,64.2411727905,64.2411727905,33.9319076538,-0.0483858957887,0,0.00228438223712,0.0282771363854,0.082863971591,0.0851483568549,1.37848854065,0.0758882537484,-2.20524597168,-0.0233257114887,2.07094573975,0.0443465039134,0.923385620117,0.0264919772744,18.16471481325,94.54141998292,46.69918823245,34.855293273917,1144
1.64950388999394E+018,64,1.64950388999394E+018,r1000913c5/base_footprint,0,1.64950388999394E+018,v/m1vw10zy74w/map,-8.52732632722,-0.710824329757,0,0,0,-0.188196111752,0.982131469571,0,64.7000045776,27.1708679199,47.2419815063,96.8329467773,45.2876396179,45.2876396179,64.7000045776,64.7000045776,33.1050109863,-0.0947498977184,0,0.00281548430212,0.0227431952953,0.0854877978563,0.0883032828569,-8.88746833801,-0.48609495163,-2.26821899414,-0.023985888809,1.38204956055,0.0296134296805,1.87077331543,0.0534876734018,18.28339958189,94.56472778316,46.66968917845,34.97578430173,1174
1.64950389009444E+018,65,1.64950389009444E+018,r1000913c5/base_footprint,0,1.64950389009444E+018,v/m1vw10zy74w/map,-8.52732632722,-0.710824329757,0,0,0,-0.188196111752,0.982131469571,0,64.3484802246,19.6556663513,47.0672836304,96.8329467773,45.7824516296,45.7824516296,64.3484802246,64.3484802246,44.7763900757,-0.164822652936,0,0.00326043437235,0.017100084573,0.0926669687033,0.0959274023771,-1.37226676941,-0.0750553384423,-2.26821899414,-0.023985888809,0.887237548828,0.0190110020339,-9.80060577393,-0.280211180449,18.28339958189,94.56472778316,46.669689178428,34.97578430177,1174
1.64950389019503E+018,66,1.64950389019503E+018,r1000913c5/base_footprint,0,1.64950389019503E+018,v/m1vw10zy74w/map,-8.45746248436,-0.73204179431,0,0,0,-0.134147518705,0.990961373226,0,65.379737854,22.5741577148,46.9448013306,96.7359771729,46.3965148926,46.3965148926,65.379737854,65.379737854,32.4965591431,0.0467812530696,0,0.00353589234874,0.0147418482229,0.0974842533469,0.101020149887,-4.39463043213,-0.241735130548,-2.19918060303,-0.023262694478,0.274715423584,0.00588618358597,2.70427703857,0.0768242254853,18.17952728267,94.53679656987,46.671230316184,35.20083618167,1190
1.64950389029454E+018,67,1.64950389029454E+018,r1000913c5/base_footprint,0,1.64950389029454E+018,v/m1vw10zy74w/map,-8.45746248436,-0.73204179431,0,0,0,-0.134147518705,0.990961373226,0,65.4309768677,23.9350910187,46.8534202576,96.7359771729,47.0310020447,47.0310020447,65.4309768677,65.4309768677,38.4266967773,-0.161498516798,0,0.00404900638387,0.0152942212299,0.112264156342,0.116313166916,-5.75556373596,-0.316595882177,-2.19918060303,-0.023262694478,-0.359771728516,-0.00770864030346,-3.2258605957,-0.0916415899992,18.17952728274,94.53679656987,46.671230316184,35.2008361816,1190
1.64950389039413E+018,68,1.64950389039413E+018,r1000913c5/base_footprint,0,1.64950389039413E+018,v/m1vw10zy74w/map,-8.37823963907,-0.745169329624,0,0,0,-0.0760172885073,0.997106499752,0,66.0409393311,24.2273178101,46.8954391479,96.6865768433,47.4821395874,47.4821395874,66.0409393311,66.0409393311,32.1419372559,-0.0556017234921,0,0.00401948206127,0.0254397504032,0.151099711657,0.15511919558,-6.03637313843,-0.331833958626,-2.17743682861,-0.0230394303799,-0.760776519775,-0.016283268109,3.14556121826,0.0891409516335,18.19094467167,94.50914001469,46.721363067625,35.28749847416,1180
1.64950389049394E+018,69,1.64950389049394E+018,r1000913c5/base_footprint,0,1.64950389049394E+018,v/m1vw10zy74w/map,-8.37823963907,-0.745169329624,0,0,0,-0.0760172885073,0.997106499752,0,66.7491989136,30.6184005737,47.0322532654,96.6865768433,48.1860618591,48.1860618591,66.7491989136,66.7491989136,26.9955348969,0.110550232232,0,0.00373408640735,0.0331877209246,0.188187152147,0.191921234131,-12.4274559021,-0.683167159557,-2.17743682861,-0.0230394303799,-1.4646987915,-0.0313496589661,8.29196357727,0.234983041883,18.1909446716,94.50914001469,46.7213630676,35.28749847417,1180
1.64950389059384E+018,70,1.64950389059384E+018,r1000913c5/base_footprint,0,1.64950389059384E+018,v/m1vw10zy74w/map,-8.26838387594,-0.753327951289,0,0,0,-0.030934088048,0.999521426582,0,67.0125656128,30.7958469391,47.2640075684,96.4461135864,48.8632545471,48.8632545471,67.0125656128,67.0125656128,28.7029800415,0.225343644619,0,0.00249002617784,0.0377512611449,0.225450649858,0.227940663695,-12.7194595337,-0.703650534153,-1.97250366211,-0.0208788849413,-1.81196212769,-0.0385103598237,7.0227355957,0.19657368958,18.0763874054,94.47360992429,47.05129241941,35.7257156372,1103
1.64950389069412E+018,71,1.64950389069412E+018,r1000913c5/base_footprint,0,1.64950389069412E+018,v/m1vw10zy74w/map,-8.1372113439,-0.754152614471,0,0,0,-0.00440498652662,0.999990298,0,67.2567367554,25.1336898804,47.3478507996,96.4598312378,49.3008956909,49.3008956909,67.2567367554,67.2567367554,29.0838317871,0.0939334481955,0,0.000210996295209,0.0419326089323,0.25103059411,0.251241564751,-6.67957878113,-0.36195614934,-2.07524108887,-0.0219870749861,-1.47602462769,-0.0308631174266,7.47187423706,0.204396933317,18.45411109927,94.38459014893,47.82487106321,36.55570602416,929
1.64950389079409E+018,72,1.64950389079409E+018,r1000913c5/base_footprint,0,1.64950389079409E+018,v/m1vw10zy74w/map,-8.1372113439,-0.754152614471,0,0,0,-0.00440498652662,0.999990298,0,67.3500595093,29.8072166443,47.6549530029,96.4598312378,49.6161842346,49.6161842346,67.3500595093,67.3500595093,30.8091163635,0.212943658233,0,0.000503961869981,0.0455770492554,0.27313709259,0.272633135319,-11.353105545,-0.615207374096,-2.07524108887,-0.0219870749861,-1.79131317139,-0.0374556817114,5.74658966064,0.157200887799,18.4541110993,94.38459014893,47.82487106321,36.55570602414,929
1.64950389089441E+018,73,1.64950389089441E+018,r1000913c5/base_footprint,0,1.64950389089441E+018,v/m1vw10zy74w/map,-8.0206748323,-0.751751493775,0,0,0,0.00413624345212,0.999991445708,0,67.4604568481,21.5686283112,47.9910545349,96.3881454468,49.9312324524,49.9312324524,67.4604568481,67.4604568481,31.9663848877,0.119795255363,0,0.00108744273894,0.0487798675895,0.295018732548,0.293931275606,-3.82602882385,-0.215640828013,-2.1156463623,-0.0224418193102,-1.74951553345,-0.0363107770681,5.44598770142,0.145566493273,17.74259948735,94.2724990845,48.18171691895,37.41237258912,824
1.64950389099525E+018,74,1.64950389099525E+018,r1000913c5/base_footprint,0,1.64950389099525E+018,v/m1vw10zy74w/map,-7.88945249173,-0.747964700855,0,0,0,0.00885758704057,0.999960770806,0,67.660774231,28.4313716888,48.2053756714,96.4430618286,50.2489433289,50.2489433289,67.660774231,67.660774231,31.9897270203,0.0910639539361,0,0.00180371652823,0.0514623858035,0.312197983265,0.310394257307,-11.5111465454,-0.680318772793,-2.2211151123,-0.0235732253641,-2.05139160156,-0.0425621531904,5.5129737854,0.14700204134,16.9202251434,94.2219467163,48.19755172734,37.5027008057,803
1.64950389109627E+018,75,1.64950389109627E+018,r1000913c5/base_footprint,0,1.64950389109628E+018,v/m1vw10zy74w/map,-7.88945249173,-0.747964700855,0,0,0,0.00885758704057,0.999960770806,0,67.6719360352,27.2183456421,52.7308540344,96.4430618286,50.6189651489,50.6189651489,67.6719360352,67.6719360352,35.7849578857,-0.0155468611047,0,0.0024973214604,0.04701218009,0.311952352524,0.309455037117,-10.2981204987,-0.608627855778,-2.2211151123,-0.0235732253641,-2.42141342163,-0.0502393431962,1.71774291992,0.0458031781018,16.9202251434,94.2219467163,48.19755172727,37.50270080562,803
1.64950389119411E+018,76,1.64950389119411E+018,r1000913c5/base_footprint,0,1.64950389119411E+018,v/m1vw10zy74w/map,-7.88945249173,-0.747964700855,0,0,0,0.00885758704057,0.999960770806,0,67.8812255859,28.8185863495,58.4631195068,96.4430618286,50.9831161499,50.9831161499,67.8812255859,67.8812255859,35.9505691528,0.216443479061,0,0.0028028730303,0.0363827310503,0.299267590046,0.296464711428,-11.8983612061,-0.703203499317,-2.2211151123,-0.0235732253641,-2.78556442261,-0.057794727385,1.55213165283,0.0413871966302,16.9202251434,94.2219467163,48.19755172729,37.50270080563,803
1.64950389129476E+018,77,1.64950389129476E+018,r1000913c5/base_footprint,0,1.64950389129476E+018,v/m1vw10zy74w/map,-7.88945249173,-0.747964700855,0,0,0,0.00885758704057,0.999960770806,0,67.5424804688,22.8543872833,66.0135879517,96.4430618286,51.1151351929,51.1151351929,67.5424804688,67.5424804688,43.4738578796,0.0931613445282,0,0.00357926310971,0.0154209490865,0.269231975079,0.26565271616,-5.93416213989,-0.350714147091,-2.2211151123,-0.0235732253641,-2.91758346558,-0.0605338513851,-5.97115707397,-0.159219384193,16.92022514341,94.2219467163,48.19755172732,37.50270080563,803
1.64950389139409E+018,78,1.64950389139409E+018,r1000913c5/base_footprint,0,1.64950389139409E+018,v/m1vw10zy74w/map,-7.88945249173,-0.747964700855,0,0,0,0.00885758704057,0.999960770806,0,67.778175354,24.509803772,66.6129837036,96.4430618286,51.3044548035,51.3044548035,67.778175354,67.778175354,41.2759513855,0.0894769877195,0,0.00410415697843,0.00412642210722,0.237254425883,0.23315025866,-7.58957862854,-0.448550701141,-2.2211151123,-0.0235732253641,-3.10690307617,-0.0644618421793,-3.77325057983,-0.100612767041,16.92022514346,94.2219467163,48.19755172733,37.50270080567,803
1.64950389149473E+018,79,1.64950389149473E+018,r1000913c5/base_footprint,0,1.64950389149473E+018,v/m1vw10zy74w/map,-7.76372822903,-0.742105807006,0,0,0,0.012556514132,0.999921163869,0,67.6231384277,15.966386795,68.6453323364,96.4223251343,51.445438385,51.445438385,67.6231384277,67.6231384277,45.5145797729,0.0152161614969,0,0.004514307715,0.0124102318659,0.221012979746,0.216498672962,0.213617324829,0.013202550821,-2.17781066895,-0.0231080893427,-3.3589553833,-0.0698523819447,-7.97437286377,-0.212422192097,16.180004119829,94.24451446535,48.0864830017,37.54020690913,808
1.64950389159893E+018,80,1.64950389159893E+018,r1000913c5/base_footprint,0,1.64950389159893E+018,v/m1vw10zy74w/map,-7.76372822903,-0.742105807006,0,0,0,0.012556514132,0.999921163869,0,68.2114257812,16.3830814362,70.8726501465,96.4223251343,51.5190734863,51.5190734863,68.2114257812,68.2114257812,35.720741272,0.0801108404994,0,0.00382399861701,0.0255193188787,0.195579007268,0.191755011678,-0.203077316284,-0.0125511288643,-2.17781066895,-0.0231080893427,-3.43259048462,-0.0713836848736,1.81946563721,0.048467118293,16.180004119916,94.24451446535,48.08648300168,37.54020690921,808
1.64950389169445E+018,81,1.64950389169445E+018,r1000913c5/base_footprint,0,1.64950389169447E+018,v/m1vw10zy74w/map,-7.64629064147,-0.740430732332,0,0,0,0.0119492593215,0.999928605052,0,68.2622756958,17.3553714752,73.9178314209,96.3977508545,51.7274971008,51.7274971008,68.2622756958,68.2622756958,36.9679145813,0.0013359222794,0,0.00167158653494,0.0349009782076,0.189490422606,0.187818840146,-1.5259141922,-0.0963971242309,-1.9916305542,-0.0210964139551,-4.63931655884,-0.0985240116715,-0.400131225586,-0.0109421787784,15.829457283,94.4061203003,47.08818054196,36.567783355714,1036
1.64950389179473E+018,82,1.64950389179473E+018,r1000913c5/base_footprint,0,1.64950389179473E+018,v/m1vw10zy74w/map,-7.50549612491,-0.739066621023,0,0,0,0.00952121553117,0.9999546722,0,68.3623886108,21.5686283112,75.7927856445,96.2090759277,52.0014152527,52.0014152527,68.3623886108,68.3623886108,37.4450263977,0.143150523305,0,0.00150988704991,0.0286634024233,0.202631399035,0.201121509075,-5.75844287872,-0.364223599434,-1.74001312256,-0.018418867141,-5.46185302734,-0.117359355092,-1.23854446411,-0.0342078097165,15.81018543248,94.46906280514,46.53956222536,36.20648193359,1179
1.64950389189458E+018,83,1.64950389189458E+018,r1000913c5/base_footprint,0,1.64950389189458E+018,v/m1vw10zy74w/map,-7.37210611925,-0.739436037677,0,0,0,0.00595173182879,0.999982288287,0,68.3367614746,19.607843399,72.6020965576,96.4684677124,52.2987747192,52.2987747192,68.3367614746,68.3367614746,42.051574707,0.0503242909908,0,0.00257670949213,0.0204190015793,0.192972019315,0.190395310521,-3.6546754837,-0.229087755084,-1.9437713623,-0.0205636359751,-5.87552261353,-0.126564219594,-6.08394622803,-0.169150605798,15.9531679153,94.5246963501,46.42325210567,35.96762847897,1230
1.64950389199404E+018,84,1.64950389199404E+018,r1000913c5/base_footprint,0,1.64950389199404E+018,v/m1vw10zy74w/map,-7.28575076156,-0.703655764242,0,0,0,0.00708907557008,0.999974872188,0,68.6836929321,29.0228481293,71.9894104004,96.3378677368,52.7722015381,52.7722015381,68.6836929321,68.6836929321,40.4496574402,0.439589947462,0,0.00240818271413,0.0116774328053,0.164009705186,0.161601513624,-13.0995635986,-0.822667181492,-1.82521820068,-0.0193118937314,-6.40766143799,-0.138201773167,-4.57493209839,-0.127525210381,15.9232845307,94.51264953612,46.36454010011,35.87472534181,1217
1.64950389209395E+018,85,1.64950389209395E+018,r1000913c5/base_footprint,0,1.64950389209395E+018,v/m1vw10zy74w/map,-7.13078351788,-0.697117001313,0,0,0,0.00517208059679,0.999986624702,0,68.9594192505,21.8981704712,71.8355102539,96.5458908081,53.1630477905,53.1630477905,68.9594192505,68.9594192505,40.4565582275,0.364870458841,0,0.00164757890161,0.00424879975617,0.113568946719,0.111921370029,-5.7656955719,-0.357396841049,-2.05374908447,-0.0217346027493,-6.90731048584,-0.14932872355,-4.75479507446,-0.133180961013,16.1324748993,94.49214172363,46.25573730466,35.70176315304,1228
1.64950389219403E+018,86,1.64950389219403E+018,r1000913c5/base_footprint,0,1.64950389219403E+018,v/m1vw10zy74w/map,-6.97801391126,-0.72454204658,0,0,0,0.00384861843278,0.999992594041,0,69.095451355,21.2276210785,73.3276748657,96.5135650635,53.5102233887,53.5102233887,69.095451355,69.095451355,41.6410865784,0.59736764431,0,0.000706533144694,0.0118003385141,0.110446825624,0.111153356731,-4.74248313904,-0.28768235445,-2.003074646,-0.0211942046881,-7.17018508911,-0.154729798436,-5.77387237549,-0.160979107022,16.48513793946,94.5104904175,46.34003829959,35.86721420291,1257
1.6495038922939E+018,87,1.6495038922939E+018,r1000913c5/base_footprint,0,1.6495038922939E+018,v/m1vw10zy74w/map,-6.83680377233,-0.723842326215,0,0,0,-0.00208048139554,0.999997835796,0,69.5166854858,19.8782958984,71.1836166382,96.3400802612,53.5919570923,53.5919570923,69.5166854858,69.5166854858,34.3171386719,0.247094318271,0,0.000600364175625,0.0357919000089,0.111636988819,0.111036621034,-3.25999832153,-0.196169212461,-1.85804748535,-0.0196656174958,-7.13693237305,-0.153631016612,1.63982391357,0.045605186373,16.61829757687,94.48203277585,46.45502471925,35.95696258547,1257
1.64950389239395E+018,88,1.64950389239395E+018,r1000913c5/base_footprint,0,1.64950389239395E+018,v/m1vw10zy74w/map,-6.69134933907,-0.719213688608,0,0,0,-0.00632293929962,0.99998001002,0,69.2589645386,27.4509811401,68.7914581299,96.3207092285,53.776927948,53.776927948,69.2589645386,69.2589645386,40.8839759827,0.0854491740465,0,0.000625248940196,0.0452903099358,0.103153564036,0.102528311312,-10.6608753204,-0.634949862957,-1.97560119629,-0.0209401547909,-6.56444549561,-0.139040470123,-4.10677337646,-0.111666277051,16.7901058197,94.34510803221,47.21248245239,36.77720260624,984
1.64950389249393E+018,89,1.64950389249393E+018,r1000913c5/base_footprint,0,1.64950389249393E+018,v/m1vw10zy74w/map,-6.58017615112,-0.720503278086,0,0,0,-0.00830894877874,0.999965480089,0,69.5035934448,18.2452640533,65.5047454834,96.3641281128,53.9509315491,53.9509315491,69.5035934448,69.5035934448,38.516166687,0.0165750887245,0,0.000115122493298,0.06012686342,0.0991275385022,0.0990124121308,-1.73979568481,-0.105407230556,-2.14122009277,-0.0227250475436,-6.36740493774,-0.133815318346,-1.25666427612,-0.0337273515761,16.50546836849,94.22290802003,47.58352661136,37.25950241088,883
1.64950389259417E+018,90,1.64950389259417E+018,r1000913c5/base_footprint,0,1.64950389259417E+018,v/m1vw10zy74w/map,-6.43182890166,-0.715312192489,0,0,0,-0.00763545713831,0.999970849472,0,68.8351669312,18.5520362854,62.4386558533,96.0124664307,53.9669494629,53.9669494629,68.8351669312,68.8351669312,49.4549636841,-0.120786435902,0,0.000485893018777,0.0754499807954,0.0984214618802,0.0979355722666,-3.00310611725,-0.193139076233,-1.91007995605,-0.020297890529,-6.4349861145,-0.135382294655,-11.9570198059,-0.318871349096,15.54893016815,94.10238647465,47.5319633484,37.4979438782,839
1.64950389269477E+018,91,1.64950389269477E+018,r1000913c5/base_footprint,0,1.64950389269477E+018,v/m1vw10zy74w/map,-6.28884128625,-0.717004580102,0,0,0,-0.00714760100995,0.999974455574,0,69.4916000366,19.1815853119,53.5466537476,96.0114440918,54.0806884766,54.0806884766,69.4916000366,69.4916000366,38.8638267517,0.000743704091292,0,0.00118357955944,0.0923680141568,0.0857641100883,0.0845805257559,-3.94492340088,-0.25890994072,-1.90641784668,-0.0202584061772,-6.42242050171,-0.134759843349,-1.11976242065,-0.0296672452241,15.23666191102,94.10502624512,47.65826797489,37.74406433105,826
1.64950389279406E+018,92,1.64950389279406E+018,r1000913c5/base_footprint,0,1.64950389279406E+018,v/m1vw10zy74w/map,-6.12529136049,-0.722823011932,0,0,0,-0.00847701839838,0.999964069434,0,69.8943252563,13.7931032181,48.2989196777,95.9202804565,54.0079650879,54.0079650879,69.8943252563,69.8943252563,30.5012435913,0.273807287216,0,0.00123441987671,0.102731712162,0.0722220018506,0.0709875822067,0.402707099915,0.0283680241555,-1.83689880371,-0.0195241570473,-6.35698318481,-0.133407175541,6.95668411255,0.185719937086,14.195810318015,94.08338165279,47.65098190309,37.45792770385,796
1.64950389289408E+018,93,1.64950389289408E+018,r1000913c5/base_footprint,0,1.64950389289408E+018,v/m1vw10zy74w/map,-5.99759290358,-0.723157150841,0,0,0,-0.00844146022229,0.99996437024,0,69.5820388794,15.254237175,48.1833229065,95.8748703003,54.0029296875,54.0029296875,69.5820388794,69.5820388794,35.9044265747,0.338657647371,0,0.00120972108562,0.113094776869,0.0563145242631,0.0551048032939,-1.74313831329,-0.129015281796,-1.82752227783,-0.0194319393486,-6.44552993774,-0.135531589389,1.23357772827,0.033216048032,13.51109886171,94.04734802247,47.55739974976,37.13800430297,782
1.64950389299405E+018,94,1.64950389299405E+018,r1000913c5/base_footprint,0,1.64950389299405E+018,v/m1vw10zy74w/map,-5.87044659052,-0.700843275739,0,0,0,-0.00984191320372,0.999951567199,0,69.7984390259,12.5188541412,48.1093254089,95.8743438721,53.7214431763,53.7214431763,69.7984390259,69.7984390259,28.9673156738,0.237394317985,0,0.000860118423589,0.128717824817,0.0379450917244,0.0370849743485,0.445930480957,0.034395519644,-1.83268737793,-0.0194880384952,-6.17785644531,-0.129940897226,7.51025009155,0.205886825919,12.964784622157,94.04165649417,47.54358673099,36.47756576535,757
1.64950389309391E+018,95,1.64950389309391E+018,r1000913c5/base_footprint,0,1.64950389309391E+018,v/m1vw10zy74w/map,-5.60762502067,-0.706405540662,0,0,0,-0.00802026390156,0.999967837166,0,69.4834594727,8.49673175812,48.1118240356,95.7521972656,53.4655380249,53.4655380249,69.4834594727,69.4834594727,31.4334907532,0.0950168892741,0,0.000554960104637,0.14834202826,0.0300821829587,0.0295272227377,4.1592092514,0.328636914492,-1.70252990723,-0.0181024558842,-5.87936019897,-0.123551845551,4.30385971069,0.12043029815,12.65594100952,94.04966735837,47.58617782593,35.73735046389,753
1.64950389319414E+018,96,1.64950389319414E+018,r1000913c5/base_footprint,0,1.64950389319414E+018,v/m1vw10zy74w/map,-5.47781789181,-0.708985766403,0,0,0,-0.00837942950979,0.999964891964,0,69.2499237061,4.02476787567,48.0706748962,96.0397415161,52.9865264893,52.9865264893,69.2499237061,69.2499237061,31.4989719391,0.29914689064,0,0.000245410919888,0.158782020211,0.0276883002371,0.0274428892881,8.04820537567,0.666629910469,-2.06526184082,-0.0219768378884,-5.48152542114,-0.115388385952,4.43432426453,0.123404331505,12.07297325134,93.97447967528,47.50500106816,35.93329620363,755
1.64950389329439E+018,97,1.64950389329439E+018,r1000913c5/base_footprint,0,1.64950389329439E+018,v/m1vw10zy74w/map,-5.33894116404,-0.713591761337,0,0,0,-0.00874122669081,0.999961794748,0,69.2418212891,12.5742044449,48.1278991699,95.8600616455,53.1319122314,53.1319122314,69.2418212891,69.2418212891,32.568107605,0.596760809422,0,0.000187426630873,0.173354789615,0.0195600539446,0.0197474807501,-0.530534744263,-0.0440509207547,-1.84336090088,-0.0196067392826,-5.49585723877,-0.115371793509,3.58299255371,0.0991115793586,12.043669700637,94.01670074462,47.63605499263,36.15110015871,749
1.6495038933944E+018,98,1.6495038933944E+018,r1000913c5/base_footprint,0,1.6495038933944E+018,v/m1vw10zy74w/map,-5.06192243213,-0.728756648258,0,0,0,-0.00891964986183,0.999960219132,0,68.6319656372,15.966386795,48.2178001404,95.9271774292,53.2963981628,53.2963981628,68.6319656372,68.6319656372,45.5635871887,-0.133331045508,0,0.000505796168,0.184847772121,0.0136743197218,0.0141801154241,-5.22657966614,-0.486654877663,-2.03868865967,-0.0217139367014,-5.78708267212,-0.12180943042,-8.38377380371,-0.225492626429,10.73980712886,93.88848876953,47.50931549068,37.17981338499,741
1.64950389349499E+018,99,1.64950389349499E+018,r1000913c5/base_footprint,0,1.64950389349499E+018,v/m1vw10zy74w/map,-4.92032713782,-0.724753455484,0,0,0,-0.00912280499084,0.999958386349,0,68.7521591187,7.56302499771,48.3509368896,95.9593658447,53.2614021301,53.2614021301,68.7521591187,68.7521591187,43.1379852295,0.0978566855192,0,0.000677679374348,0.196762278676,0.00731421587989,0.00799189507961,2.52037858963,0.24995316565,-2.00157928467,-0.0213029626757,-6.62780761719,-0.142125174403,-6.471534729,-0.17649744451,10.08340358734,93.95778656003,46.63359451291,36.6664505005,819
1.64950389359401E+018,100,1.64950389359401E+018,r1000913c5/base_footprint,0,1.64950389359401E+018,v/m1vw10zy74w/map,-4.77549723496,-0.727694824232,0,0,0,-0.00907320410488,0.999958837636,0,69.0186920166,14.1494436264,50.8116569519,95.8662948608,53.2821083069,53.2821083069,69.0186920166,69.0186920166,38.2290077209,0.415951430798,0,0.000304223765852,0.209162771702,0.0051431581378,0.00544738210738,-4.29740524292,-0.43619453907,-1.80863189697,-0.0192289687693,-8.67573547363,-0.194495424628,-4.27243804932,-0.125820666552,9.85203838348,94.05766296383,44.60637283327,33.95656967158,1165
