%time,field.header.seq,field.header.stamp,field.header.frame_id,field.pose.header.seq,field.pose.header.stamp,field.pose.header.frame_id,field.pose.pose.position.x,field.pose.pose.position.y,field.pose.pose.position.z,field.pose.pose.orientation.x,field.pose.pose.orientation.y,field.pose.pose.orientation.z,field.pose.pose.orientation.w,field.label,field.main_output,field.scan_score,field.pose_score,field.cov_score,field.lhood_map_score,field.lhood_robot_score,field.lhood_map_score_all,field.lhood_robot_score_all,field.point_angle_diff,field.average_orientation,field.map_average_orientation,field.sensor_div,field.odom_div_x,field.odom_div_w,field.imu_div_w,field.kdtree_div,field.kdtree_div_p,field.cov_div,field.cov_div_p,field.likelihood_div,field.likelihood_div_p,field.normal_diff_div,field.normal_diff_div_p,field.kdtree_average,field.cov_average,field.likelihood_average,field.normal_diff_average,field.map_update_count
1.64952232847602E+018,0,1.64952232847602E+018,r1000913c5/base_footprint,0,1.64952232847602E+018,v/m1vw10zy74w/map,-8.71548230849,-0.796461073723,0,0,0,-0.742852995816,0.669454573969,0,64.2572174072,14.1972579956,100,96.0292205811,44.8120307922,44.8120307922,64.2572174072,64.2572174072,33.0452728271,0.354535788298,0,1.93838650973E-18,0.00203080615029,0.0100162727758,0.0100162727758,4.01430511475,0.220426172018,-1.47508239746,-0.0156004000455,1.73292541504,0.0372312180698,1.5491065979,0.0447791405022,18.21156311035,94.55413818364,46.54495620724,34.594379425,1176
1.64952232857482E+018,1,1.64952232857482E+018,r1000913c5/base_footprint,0,1.64952232857482E+018,v/m1vw10zy74w/map,-8.71548230849,-0.796461073723,0,0,0,-0.742852995816,0.669454573969,0,63.7604598999,16.1966152191,42.5986671448,96.0292205811,44.273979187,44.273979187,63.7604598999,63.7604598999,36.1758880615,0.202116340399,0,0.000775312713813,0.016404280439,0.089102357626,0.0898776724935,2.01494789124,0.110641129315,-1.47508239746,-0.0156004000455,2.27097702026,0.0487910434604,-1.58150863647,-0.0457157678902,18.21156311034,94.55413818364,46.54495620726,34.59437942503,1176
1.64952232867521E+018,2,1.64952232867521E+018,r1000913c5/base_footprint,0,1.64952232867521E+018,v/m1vw10zy74w/map,-8.71548230849,-0.796461073723,0,0,0,-0.742852995816,0.669454573969,0,63.290435791,15.3908138275,45.5749435425,96.0292205811,43.6602783203,43.6602783203,63.290435791,63.290435791,38.0083732605,0.375393003225,0,0.00164554547518,0.0236707367003,0.140192940831,0.138547390699,2.82074928284,0.154887825251,-1.47508239746,-0.0156004000455,2.88467788696,0.0619761645794,-3.41399383545,-0.0986863747239,18.21156311034,94.55413818364,46.54495620726,34.59437942505,1176
1.64952232877567E+018,3,1.64952232877567E+018,r1000913c5/base_footprint,0,1.64952232877567E+018,v/m1vw10zy74w/map,-8.71548230849,-0.796461073723,0,0,0,-0.742852995816,0.669454573969,0,62.5935897827,15.966386795,54.0788574219,96.0292205811,43.180644989,43.180644989,62.5935897827,62.5935897827,45.3715248108,0.145425647497,0,0.00166257866658,0.026127256453,0.150565162301,0.15222774446,2.24517631531,0.123283006251,-1.47508239746,-0.0156004000455,3.36431121826,0.0722808986902,-10.7771453857,-0.311528801918,18.21156311031,94.55413818364,46.54495620726,34.5943794251,1176
1.64952232887453E+018,4,1.64952232887453E+018,r1000913c5/base_footprint,0,1.64952232887453E+018,v/m1vw10zy74w/map,-8.71548230849,-0.796461073723,0,0,0,-0.742852995816,0.669454573969,0,62.77186203,13.4948101044,60.8139572144,96.0292205811,42.82654953,42.82654953,62.77186203,62.77186203,38.3384170532,0.111753374338,0,0.00144455768168,0.0310527607799,0.145617485046,0.147062048316,4.71675300598,0.258997708559,-1.47508239746,-0.0156004000455,3.71840667725,0.0798885002732,-3.74403762817,-0.108226761222,18.21156311038,94.55413818364,46.54495620725,34.59437942503,1176
1.64952232897443E+018,5,1.64952232897443E+018,r1000913c5/base_footprint,0,1.64952232897443E+018,v/m1vw10zy74w/map,-8.72650117209,-0.870228927403,0,0,0,-0.785046699958,0.619436581811,0,62.3977737427,14.5154466629,65.984336853,95.7760696411,42.4036102295,42.4036102295,62.3977737427,62.3977737427,39.5929298401,-0.0230965018272,0,0.00096955319168,0.0412732288241,0.133102431893,0.134071990848,3.62257480621,0.199722707272,-1.19031524658,-0.0125845083967,3.95463562012,0.085305981338,-4.93949127197,-0.142539709806,18.13802146911,94.58575439452,46.35824584962,34.65343856813,1181
1.64952232907435E+018,6,1.64952232907435E+018,r1000913c5/base_footprint,0,1.64952232907435E+018,v/m1vw10zy74w/map,-8.74227560921,-0.917172252494,0,0,0,-0.819208836048,0.573495320766,0,62.0539245605,13.4948101044,70.0106811523,95.9552536011,41.9860420227,41.9860420227,62.0539245605,62.0539245605,41.9175033569,-0.0349153466523,0,0.00228086533025,0.0489507243037,0.117761306465,0.115480437875,4.47820091248,0.249162524939,-1.35161590576,-0.014287144877,4.33261489868,0.0935393050313,-7.32116699219,-0.211616829038,17.97301101688,94.60363769534,46.31865692138,34.59633636471,1146
1.64952232917498E+018,7,1.64952232917498E+018,r1000913c5/base_footprint,0,1.64952232917498E+018,v/m1vw10zy74w/map,-8.76973298742,-0.975565842658,0,0,0,-0.853994540947,0.520281965892,0,61.9564476013,16.0966720581,73.2126693726,95.8726959229,41.7044906616,41.7044906616,61.9564476013,61.9564476013,40.3341712952,0.0734742954373,0,0.00641960417852,0.0512383170426,0.0618476979434,0.0554280914366,1.75913047791,0.0985186994076,-1.25643920898,-0.0132793160155,4.44346618652,0.0962873846292,-5.65533447266,-0.163077399135,17.85580253601,94.61625671392,46.14795684812,34.67883682254,1116
1.6495223292748E+018,8,1.6495223292748E+018,r1000913c5/base_footprint,0,1.6495223292748E+018,v/m1vw10zy74w/map,-8.76973298742,-0.975565842658,0,0,0,-0.853994540947,0.520281965892,0,62.0997543335,17.0086631775,75.8124313354,95.8726959229,41.4797782898,41.4797782898,62.0997543335,62.0997543335,35.3277664185,0.35165938735,0,0.00717516010627,0.0443718135357,0.039618935436,0.0324437767267,0.847139358521,0.0474433638155,-1.25643920898,-0.0132793160155,4.66817855835,0.101156778634,-0.648929595947,-0.018712554127,17.855802536021,94.61625671392,46.14795684815,34.678836822553,1116
1.64952232937482E+018,9,1.64952232937482E+018,r1000913c5/base_footprint,0,1.64952232937482E+018,v/m1vw10zy74w/map,-8.82714114877,-1.07410404251,0,0,0,-0.880827978274,0.473436450529,0,61.5316314697,18.8948307037,77.9550933838,95.6132125854,41.3014984131,41.3014984131,61.5316314697,61.5316314697,42.6943778992,0.00374245643616,0,0.00724668521434,0.0409569442272,0.0350074395537,0.0277607534081,-1.21554946899,-0.0687555968761,-0.928871154785,-0.00981018785387,4.64063262939,0.101010389626,-8.06211090088,-0.232791885734,17.67928123471,94.684341430615,45.94213104249,34.63226699832,970
1.64952232947438E+018,10,1.64952232947438E+018,r1000913c5/base_footprint,0,1.64952232947438E+018,v/m1vw10zy74w/map,-8.82714114877,-1.07410404251,0,0,0,-0.880827978274,0.473436450529,0,61.3864135742,15.966386795,79.6996231079,95.6132125854,41.087890625,41.087890625,61.3864135742,61.3864135742,43.0013389587,0.309589892626,0,0.0059776622802,0.0325892306864,0.0289735961705,0.0229959338903,1.7128944397,0.0968871116638,-0.928871154785,-0.00981018785387,4.85424041748,0.105659887195,-8.36907196045,-0.24165533483,17.6792812347,94.684341430615,45.94213104248,34.63226699825,970
1.64952232957433E+018,11,1.64952232957433E+018,r1000913c5/base_footprint,0,1.64952232957433E+018,v/m1vw10zy74w/map,-8.89961393105,-1.17676748772,0,0,0,-0.896118999719,0.44381385551,0,61.1828765869,13.6690645218,80.9432754517,95.7422409058,40.8906097412,40.8906097412,61.1828765869,61.1828765869,44.9988555908,-0.253050684929,0,0.000881603627931,0.0150144090876,0.0713661760092,0.0722477808595,3.78729343414,0.216957822442,-0.921852111816,-0.00972208753228,4.2666015625,0.0944832861423,-10.3148994446,-0.297396868467,17.45635795594,94.820388793984,45.1572113037,34.6839561462,652
1.64952232967439E+018,12,1.64952232967439E+018,r1000913c5/base_footprint,0,1.64952232967439E+018,v/m1vw10zy74w/map,-8.89961393105,-1.17676748772,0,0,0,-0.896118999719,0.44381385551,0,60.7743453979,11.1644659042,82.0446472168,95.7422409058,40.6029090881,40.6029090881,60.7743453979,60.7743453979,49.2452545166,-0.124268949032,0,0.00476986635476,0.0656429007649,0.193753585219,0.18898370862,6.2918920517,0.360435545444,-0.921852111816,-0.00972208753228,4.55430221558,0.100854374468,-14.5612983704,-0.419828057289,17.4563579559,94.820388793984,45.15721130368,34.6839561462,652
1.64952232977442E+018,13,1.64952232977442E+018,r1000913c5/base_footprint,0,1.64952232977442E+018,v/m1vw10zy74w/map,-8.89961393105,-1.17676748772,0,0,0,-0.896118999719,0.44381385551,0,61.3233642578,15.966386795,82.9755172729,95.7422409058,40.4916000366,40.4916000366,61.3233642578,61.3233642578,38.1608085632,-0.28439116478,0,0.0069446801208,0.0825449898839,0.21440987289,0.207465201616,1.48997116089,0.0853540673852,-0.921852111816,-0.00972208753228,4.66561126709,0.103319294751,-3.47685241699,-0.10024382174,17.45635795589,94.820388793984,45.15721130369,34.68395614621,652
1.64952232987471E+018,14,1.64952232987471E+018,r1000913c5/base_footprint,0,1.64952232987471E+018,v/m1vw10zy74w/map,-8.89961393105,-1.17676748772,0,0,0,-0.896118999719,0.44381385551,0,61.1847114563,15.966386795,80.3422317505,95.7422409058,40.7642097473,40.7642097473,61.1847114563,61.1847114563,43.6006889343,-0.0680993944407,0,0.00195650523528,0.0876536667347,0.218289673328,0.216333165765,1.48997116089,0.0853540673852,-0.921852111816,-0.00972208753228,4.3930015564,0.0972823947668,-8.91673278809,-0.257085233927,17.45635795589,94.820388793984,45.1572113037,34.68395614621,652
1.64952232997463E+018,15,1.64952232997463E+018,r1000913c5/base_footprint,0,1.64952232997463E+018,v/m1vw10zy74w/map,-8.94955264876,-1.23492990088,0,0,0,-0.868710270263,0.495320569268,0,60.8786125183,15.1660661697,78.1070709229,95.4446182251,40.7490119934,40.7490119934,60.8786125183,60.8786125183,47.8749732971,-0.232139602304,0,0.00414680596441,0.0865703225136,0.212323486805,0.20817668736,1.33059215546,0.0806582868099,-0.290214538574,-0.00304993288592,1.71204376221,0.0403203293681,-12.4467544556,-0.351323187351,16.49665832516,95.154403686526,42.46105575561,35.4282188415,317
1.64952233007574E+018,16,1.64952233007574E+018,r1000913c5/base_footprint,0,1.64952233007574E+018,v/m1vw10zy74w/map,-8.95268768392,-1.23974414494,0,0,0,-0.840690449858,0.541515990085,0,60.9827957153,16.1966152191,76.4544143677,95.2399749756,40.8063011169,40.8063011169,60.9827957153,60.9827957153,45.8816184998,-0.34908619523,0,0.00384318851866,0.0861132666469,0.192629367113,0.188786178827,0.300043106079,0.0181881133467,-0.0855712890625,-0.000899288803339,1.65475463867,0.0389711149037,-10.4533996582,-0.295058578253,16.496658325179,95.1544036865375,42.46105575557,35.4282188416,317
1.64952233017493E+018,17,1.64952233017493E+018,r1000913c5/base_footprint,0,1.64952233017493E+018,v/m1vw10zy74w/map,-8.95268768392,-1.23974414494,0,0,0,-0.840690449858,0.541515990085,0,61.2400970459,15.4929580688,75.2814178467,95.2399749756,40.840461731,40.840461731,61.2400970459,61.2400970459,41.6191596985,-0.100699014962,0,0.00310018053278,0.0850384011865,0.184256315231,0.181156143546,1.00370025635,0.060842640698,-0.0855712890625,-0.000899288803339,1.62059402466,0.0381665974855,-6.19094085693,-0.17474603653,16.49665832515,95.1544036865375,42.46105575566,35.42821884157,317
1.64952233027442E+018,18,1.64952233027442E+018,r1000913c5/base_footprint,0,1.64952233027442E+018,v/m1vw10zy74w/map,-8.95280959258,-1.23893627952,0,0,0,-0.808385517262,0.588653425609,0,61.0928535461,12.973408699,75.9892807007,95.3876800537,40.7481956482,40.7481956482,61.0928535461,61.0928535461,43.8048171997,-0.300860524178,0,0.00350462645292,0.0818532183766,0.168850287795,0.165345653892,3.52324962616,0.213573530316,-0.233276367188,-0.00245155626908,1.71286010742,0.0403395555913,-8.37659835815,-0.236438602209,16.49665832516,95.154403686512,42.46105575562,35.42821884155,317
1.64952233037449E+018,19,1.64952233037449E+018,r1000913c5/base_footprint,0,1.64952233037449E+018,v/m1vw10zy74w/map,-8.95435462096,-1.24413262675,0,0,0,-0.774116448493,0.633043224569,0,61.2957344055,18.2311229706,76.6101303101,95.216178894,40.7223129272,40.7223129272,61.2957344055,61.2957344055,39.2559814453,-0.248896509409,0,0.00395598681644,0.0814677625895,0.165602400899,0.161646410823,-1.73446464539,-0.10514036566,-0.0617752075195,-0.000649210182019,1.73874282837,0.0409491173923,-3.82776260376,-0.108042761683,16.49665832521,95.1544036864805,42.46105575557,35.42821884154,317
1.64952233047437E+018,20,1.64952233047437E+018,r1000913c5/base_footprint,0,1.64952233047437E+018,v/m1vw10zy74w/map,-8.95501161849,-1.24536868575,0,0,0,-0.769431652556,0.638729153902,0,61.1551399231,17.4714660645,83.8236465454,95.4635620117,40.7075424194,40.7075424194,61.1551399231,61.1551399231,42.5177230835,-0.31391659379,0,0.00453288434073,0.0811575204134,0.162001609802,0.157468721271,-0.974807739258,-0.0590912252665,-0.309158325195,-0.00324901752174,1.75351333618,0.0412969775498,-7.08950424194,-0.200108960271,16.496658325242,95.154403686505,42.46105575558,35.42821884156,317
1.64952233057449E+018,21,1.64952233057449E+018,r1000913c5/base_footprint,0,1.64952233057449E+018,v/m1vw10zy74w/map,-8.95501161849,-1.24536868575,0,0,0,-0.769431652556,0.638729153902,0,61.3768959045,16.8509502411,83.7387542725,95.4635620117,40.6864128113,40.6864128113,61.3768959045,61.3768959045,38.2979469299,0.00875304080546,0,0.00903994869441,0.0793991610408,0.14524975419,0.136209800839,-0.354291915894,-0.0214765872806,-0.309158325195,-0.00324901752174,1.77464294434,0.0417946018279,-2.86972808838,-0.0810011923313,16.496658325206,95.154403686505,42.46105575564,35.42821884152,317
1.6495223306742E+018,22,1.6495223306742E+018,r1000913c5/base_footprint,0,1.6495223306742E+018,v/m1vw10zy74w/map,-8.95621496335,-1.25399421037,0,0,0,-0.732535183552,0.680729171447,0,61.2660140991,16.0966720581,83.0294570923,95.6542053223,40.5914154053,40.5914154053,61.2660140991,61.2660140991,39.954158783,0.0326055511832,0,0.00985719822347,0.0787488743663,0.140446260571,0.130589067936,0.39998626709,0.0242465026677,-0.499801635742,-0.00525253312662,1.86964035034,0.0440318845212,-4.52593994141,-0.127749577165,16.49665832519,95.154403686558,42.46105575564,35.42821884159,317
1.64952233077489E+018,23,1.64952233077489E+018,r1000913c5/base_footprint,0,1.64952233077489E+018,v/m1vw10zy74w/map,-8.95482228802,-1.26767298772,0,0,0,-0.689097165048,0.72466895692,0,61.0930557251,18.0035648346,82.3220443726,95.858543396,40.5209121704,40.5209121704,61.0930557251,61.0930557251,43.0415878296,-0.111272379756,0,0.00829738844186,0.0748629942536,0.126616388559,0.118318997324,-1.88648414612,-0.117048747838,-0.720092773438,-0.00756889302284,0.920486450195,0.0222117602825,-6.8631401062,-0.189702451229,16.11708068848,95.138450622562,41.441398620595,36.1784477234,278
1.64952233087487E+018,24,1.64952233087487E+018,r1000913c5/base_footprint,0,1.64952233087487E+018,v/m1vw10zy74w/map,-8.95482228802,-1.26767298772,0,0,0,-0.689097165048,0.72466895692,0,61.0719871521,15.5815000534,80.6823577881,95.858543396,40.5138587952,40.5138587952,61.0719871521,61.0719871521,43.3446807861,-0.0112491725013,0,0.00779172591865,0.0704829543829,0.114251300693,0.106459572911,0.535580635071,0.0332306213677,-0.720092773438,-0.00756889302284,0.927539825439,0.0223819632083,-7.16623306274,-0.198080167174,16.117080688471,95.138450622562,41.441398620639,36.17844772336,278
1.64952233097503E+018,25,1.64952233097503E+018,r1000913c5/base_footprint,0,1.64952233097503E+018,v/m1vw10zy74w/map,-8.95195045062,-1.29690067592,0,0,0,-0.643339165679,0.765581294118,0,61.3056030273,13.5472373962,78.4327545166,96.3524093628,40.4814109802,40.4814109802,61.3056030273,61.3056030273,40.5670623779,-0.029232300818,0,0.00748071074486,0.0669818148017,0.0983658209443,0.0908851101995,2.56984329224,0.159448429942,-1.21395874023,-0.0127599174157,0.959987640381,0.0231649428606,-4.38861465454,-0.121304668486,16.11708068844,95.13845062257,41.441398620581,36.17844772336,278
1.64952233107448E+018,26,1.64952233107448E+018,r1000913c5/base_footprint,0,1.64952233107448E+018,v/m1vw10zy74w/map,-8.94073586298,-1.33538272641,0,0,0,-0.598240596277,0.801316534814,0,61.1234741211,9.77443599701,74.7528457642,96.3267440796,40.197933197,40.197933197,61.1234741211,61.1234741211,40.6914215088,-0.00190957286395,0,0.00679398328066,0.0637285634875,0.085168890655,0.0783749073744,6.21494102478,0.388691872358,-1.19760894775,-0.0125892972574,1.11394500732,0.0269642788917,-4.30553817749,-0.118329904974,15.98937702179,95.12913513185,41.31187820432,36.38588333131,281
1.64952233117469E+018,27,1.64952233117469E+018,r1000913c5/base_footprint,0,1.64952233117469E+018,v/m1vw10zy74w/map,-8.92125481619,-1.38352810682,0,0,0,-0.541813348803,0.840498837036,0,61.1874809265,9.36819171906,68.7015151978,96.1924972534,40.0796203613,40.0796203613,61.1874809265,61.1874809265,37.778263092,0.437636196613,0,0.00642783101648,0.0716770291328,0.143396645784,0.136968806386,6.35122203827,0.404036819935,-1.05088043213,-0.0110454335809,1.15525817871,0.0280165299773,-1.13850784302,-0.0310730207711,15.71941375733,95.14161682127,41.23487854001,36.63975524898,286
1.64952233127517E+018,28,1.64952233127517E+018,r1000913c5/base_footprint,0,1.64952233127517E+018,v/m1vw10zy74w/map,-8.92125481619,-1.38352810682,0,0,0,-0.541813348803,0.840498837036,0,61.4409294128,7.74439287186,63.47448349,96.1924972534,39.8795700073,39.8795700073,61.4409294128,61.4409294128,31.0556354523,0.459058403969,0,0.00530264573172,0.0746924132109,0.174856603146,0.16955396533,7.97502088547,0.507335782051,-1.05088043213,-0.0110454335809,1.35530853271,0.0328680127859,5.58411979675,0.152406036854,15.71941375733,95.14161682127,41.23487854001,36.63975524905,286
1.64952233137484E+018,29,1.64952233137484E+018,r1000913c5/base_footprint,0,1.64952233137484E+018,v/m1vw10zy74w/map,-8.88821796606,-1.43910330688,0,0,0,-0.488250860484,0.87270332716,0,61.2687339783,5.70934247971,60.0041694641,96.0324172974,39.6614685059,39.6614685059,61.2687339783,61.2687339783,31.2233734131,0.681219935417,0,0.00543490378186,0.0833234041929,0.182778045535,0.177343145013,9.9857635498,0.636234223843,-0.860649108887,-0.00904311332852,1.51955032349,0.0368992909789,5.35009002686,0.146283388138,15.69510602951,95.171768188513,41.18101882939,36.57346343996,292
1.64952233147445E+018,30,1.64952233147445E+018,r1000913c5/base_footprint,0,1.64952233147445E+018,v/m1vw10zy74w/map,-8.83858415604,-1.5114005663,0,0,0,-0.435576859176,0.900151542658,0,60.9693832397,2.96264481544,59.1243629456,96.0325317383,39.5048103333,39.5048103333,60.9693832397,60.9693832397,34.9202079773,0.324525296688,0,0.00501121534035,0.0930380895734,0.157013848424,0.152002632618,12.5027513504,0.808433949947,-0.827171325684,-0.00868828501552,1.55975723267,0.0379830412567,1.2068901062,0.0334067828953,15.46539616584,95.205360412616,41.06456756597,36.1270980835,293
1.64952233157487E+018,31,1.64952233157487E+018,r1000913c5/base_footprint,0,1.64952233157487E+018,v/m1vw10zy74w/map,-8.83858415604,-1.5114005663,0,0,0,-0.435576859176,0.900151542658,0,61.4231452942,1.10826945305,57.9642524719,96.0325317383,39.3825912476,39.3825912476,61.4231452942,61.4231452942,25.4324817657,0.702852070332,0,0.00582482758909,0.11018037051,0.128865584731,0.123040758073,14.357126236,0.928338766098,-0.827171325684,-0.00868828501552,1.68197631836,0.0409593097866,10.6946163177,0.296027541161,15.46539568905,95.205360412616,41.06456756596,36.1270980834,293
1.64952233167657E+018,32,1.64952233167657E+018,r1000913c5/base_footprint,0,1.64952233167657E+018,v/m1vw10zy74w/map,-8.75420640449,-1.60510518906,0,0,0,-0.396638260116,0.917974994546,0,61.2647171021,4.6801199913,58.2854766846,95.8012924194,39.3684196472,39.3684196472,61.2647171021,61.2647171021,27.298707962,0.817423164845,0,0.0104584563524,0.13003103435,0.0899846628308,0.0795262083411,10.532201767,0.692346811295,-0.589988708496,-0.0061966245994,1.67108917236,0.0407190360129,8.26735877991,0.23245075345,15.2123217583,95.211303710904,41.03950881956,35.56606674191,307
1.64952233177444E+018,33,1.64952233177444E+018,r1000913c5/base_footprint,0,1.64952233177444E+018,v/m1vw10zy74w/map,-8.75420640449,-1.60510518906,0,0,0,-0.396638260116,0.917974994546,0,60.8768081665,7.30837774277,58.5914840698,95.8012924194,39.6482429504,39.6482429504,60.8768081665,60.8768081665,37.3031082153,1.00982499123,0,0.0115867219865,0.13776306808,0.0328867137432,0.0212999917567,7.90394353867,0.519575119019,-0.589988708496,-0.0061966245994,1.39126586914,0.0339006446302,-1.73704147339,-0.0488398522139,15.21232128144,95.211303710904,41.03950881954,35.56606674191,307
1.64952233187432E+018,34,1.64952233187432E+018,r1000913c5/base_footprint,0,1.64952233187432E+018,v/m1vw10zy74w/map,-8.66932148007,-1.68480585014,0,0,0,-0.383647540433,0.923479596266,0,61.3829956055,11.764705658,61.4297409058,96.0980758667,39.9235687256,39.9235687256,61.3829956055,61.3829956055,32.233669281,0.901443839073,0,0.0127323707566,0.134057879448,0.0127542922273,2.19213034143E-05,2.96437931061,0.201260253787,-0.848602294922,-0.0089092599228,1.03532791138,0.0252772420645,2.43242645264,0.0701673030853,14.72908496861,95.249473571778,40.95889663698,34.66609573364,310
1.64952233207478E+018,35,1.64952233207478E+018,r1000913c5/base_footprint,0,1.64952233207478E+018,v/m1vw10zy74w/map,-8.66932148007,-1.68480585014,0,0,0,-0.383647540433,0.923479596266,0,62.19373703,15.0326795578,65.0114517212,96.0980758667,40.2026405334,40.2026405334,62.19373703,62.19373703,20.6542816162,0.826266288757,0,0.00473689893261,0.0357658565044,0.0120991878211,0.0168360862881,-0.303594589233,-0.0206119101495,-0.848602294922,-0.0089092599228,0.756256103516,0.0184637811035,14.0118141174,0.404193609953,14.729084968567,95.249473571778,40.958896636916,34.6660957336,310
1.64952233217501E+018,36,1.64952233217501E+018,r1000913c5/base_footprint,0,1.64952233217501E+018,v/m1vw10zy74w/map,-8.66932148007,-1.68480585014,0,0,0,-0.383647540433,0.923479596266,0,61.8963508606,17.6470584869,67.4802246094,96.0980758667,40.4898757935,40.4898757935,61.8963508606,61.8963508606,29.1093711853,0.744688808918,0,0.00867384951562,0.0493475571275,0.0599994584918,0.0513256080449,-2.91797351837,-0.19810962677,-0.848602294922,-0.0089092599228,0.469020843506,0.0114510124549,5.55672454834,0.160292774439,14.72908496853,95.249473571778,40.958896637006,34.66609573364,310
1.64952233227439E+018,37,1.64952233227439E+018,r1000913c5/base_footprint,0,1.64952233227439E+018,v/m1vw10zy74w/map,-8.66932148007,-1.68480585014,0,0,0,-0.383647540433,0.923479596266,0,62.1695175171,18.9322795868,69.9431686401,96.0980758667,40.8812255859,40.8812255859,62.1695175171,62.1695175171,28.4189491272,0.889922678471,0,0.0171588528901,0.207003593445,0.218627527356,0.201468676329,-4.20319461823,-0.285366982222,-0.848602294922,-0.0089092599228,0.0776710510254,0.0018963170005,6.24714660645,0.180209115148,14.72908496857,95.249473571778,40.9588966369254,34.66609573365,310
1.64952233237454E+018,38,1.64952233237454E+018,r1000913c5/base_footprint,0,1.64952233237454E+018,v/m1vw10zy74w/map,-8.66932148007,-1.68480585014,0,0,0,-0.383647540433,0.923479596266,0,62.5561065674,16.3830814362,71.2253265381,96.0980758667,41.2542610168,41.2542610168,62.5561065674,62.5561065674,25.4891929626,0.602061986923,0,0.0159059613943,0.256533265114,0.227990821004,0.212084874511,-1.65399646759,-0.112294584513,-0.848602294922,-0.0089092599228,-0.295364379883,-0.00721123861149,9.176902771,0.264722704887,14.72908496861,95.249473571778,40.958896636917,34.6660957336,310
1.64952233247581E+018,39,1.64952233247581E+018,r1000913c5/base_footprint,0,1.64952233247581E+018,v/m1vw10zy74w/map,-8.66932148007,-1.68480585014,0,0,0,-0.383647540433,0.923479596266,0,62.7921218872,18.2452640533,71.0268783569,96.0980758667,41.5542564392,41.5542564392,62.7921218872,62.7921218872,24.4808158875,0.772374987602,0,0.0136092090979,0.308886319399,0.229348540306,0.215739324689,-3.51617908478,-0.238723531365,-0.848602294922,-0.0089092599228,-0.595359802246,-0.0145355425775,10.1852798462,0.293810993433,14.72908496852,95.249473571778,40.958896636954,34.6660957337,310
1.64952233257504E+018,40,1.64952233257504E+018,r1000913c5/base_footprint,0,1.64952233257504E+018,v/m1vw10zy74w/map,-8.66932148007,-1.68480585014,0,0,0,-0.383647540433,0.923479596266,0,62.8823928833,17.248254776,70.8235168457,96.0980758667,41.8437461853,41.8437461853,62.8823928833,62.8823928833,25.9824542999,0.725825548172,0,0.0148222185671,0.357763171196,0.214008137584,0.199185922742,-2.51916980743,-0.17103369534,-0.848602294922,-0.0089092599228,-0.88484954834,-0.0216033533216,8.68364143372,0.25049379468,14.72908496857,95.249473571778,40.95889663696,34.66609573362,310
1.64952233267484E+018,41,1.64952233267484E+018,r1000913c5/base_footprint,0,1.64952233267484E+018,v/m1vw10zy74w/map,-8.66932148007,-1.68480585014,0,0,0,-0.383647540433,0.923479596266,0,62.7256240845,15.6862745285,70.5966491699,96.0980758667,41.9110412598,41.9110412598,62.7256240845,62.7256240845,29.5310440063,1.01665961742,0,0.0141714466736,0.407344967127,0.198334932327,0.184163480997,-0.957189559937,-0.0649863556027,-0.848602294922,-0.0089092599228,-0.952144622803,-0.0232463441789,5.13505172729,0.148128926754,14.729084968563,95.249473571778,40.958896636997,34.66609573359,310
1.6495223327744E+018,42,1.6495223327744E+018,r1000913c5/base_footprint,0,1.6495223327744E+018,v/m1vw10zy74w/map,-8.66932148007,-1.68480585014,0,0,0,-0.383647540433,0.923479596266,0,63.1044540405,17.248254776,69.4281387329,96.0980758667,42.0987472534,42.0987472534,63.1044540405,63.1044540405,24.7393474579,0.85262709856,0,0.0132802631706,0.455771863461,0.186765685678,0.173485413194,-2.51916980743,-0.17103369534,-0.848602294922,-0.0089092599228,-1.13985061646,-0.0278291329741,9.92674827576,0.286353230476,14.72908496857,95.249473571778,40.95889663694,34.66609573366,310
1.64952233287446E+018,43,1.64952233287446E+018,r1000913c5/base_footprint,0,1.64952233287446E+018,v/m1vw10zy74w/map,-8.66932148007,-1.68480585014,0,0,0,-0.383647540433,0.923479596266,0,62.935749054,20.5882358551,68.2741470337,96.0980758667,42.3613739014,42.3613739014,62.935749054,62.935749054,30.6124305725,1.00901114941,0,0.0140671171248,0.503211796284,0.175003230572,0.160936117172,-5.85915088654,-0.397794634104,-0.848602294922,-0.0089092599228,-1.4024772644,-0.03424109146,4.05366516113,0.11693457514,14.72908496856,95.249473571778,40.958896637,34.66609573363,310
1.64952233297493E+018,44,1.64952233297493E+018,r1000913c5/base_footprint,0,1.64952233297493E+018,v/m1vw10zy74w/map,-8.66932148007,-1.68480585014,0,0,0,-0.383647540433,0.923479596266,0,63.2526779175,17.849899292,66.9086227417,96.0980758667,42.5036849976,42.5036849976,63.2526779175,63.2526779175,26.4446487427,0.877865970135,0,0.0171323493123,0.551947832108,0.159013360739,0.141881018877,-3.12081432343,-0.211881071329,-0.848602294922,-0.0089092599228,-1.5447883606,-0.0377155765891,8.22144699097,0.237161025405,14.72908496857,95.249473571778,40.958896637,34.66609573367,310
1.64952233307438E+018,45,1.64952233307438E+018,r1000913c5/base_footprint,0,1.64952233307438E+018,v/m1vw10zy74w/map,-8.66932148007,-1.68480585014,0,0,0,-0.383647540433,0.923479596266,0,63.3460998535,18.8640975952,66.9720687866,96.0980758667,42.7093505859,42.7093505859,63.3460998535,63.3460998535,26.9842300415,0.694448411465,0,0.0196024402976,0.575799703598,0.149465680122,0.129863247275,-4.13501262665,-0.280737906694,-0.848602294922,-0.0089092599228,-1.75045394897,-0.0427368432283,7.68186569214,0.221595928073,14.72908496855,95.249473571778,40.95889663693,34.66609573364,310
1.64952233317666E+018,46,1.64952233317666E+018,r1000913c5/base_footprint,0,1.64952233317666E+018,v/m1vw10zy74w/map,-8.66932148007,-1.68480585014,0,0,0,-0.383647540433,0.923479596266,0,63.5067253113,16.5409755707,69.1479721069,96.0980758667,42.9196128845,42.9196128845,63.5067253113,63.5067253113,26.3638553619,0.629872858524,0,0.0201152972877,0.599557220936,0.139098182321,0.118982881308,-1.81189060211,-0.123014472425,-0.848602294922,-0.0089092599228,-1.96071624756,-0.0478703379631,8.3022403717,0.239491641521,14.72908496859,95.249473571778,40.95889663694,34.6660957336,310
1.64952233327559E+018,47,1.64952233327559E+018,r1000913c5/base_footprint,0,1.64952233327559E+018,v/m1vw10zy74w/map,-8.66932148007,-1.68480585014,0,0,0,-0.383647540433,0.923479596266,0,63.5118560791,15.254237175,73.2619171143,96.0980758667,43.0115509033,43.0115509033,63.5118560791,63.5118560791,27.2643718719,0.633162200451,0,0.0195148494095,0.6110907197,0.135183870792,0.11566901207,-0.525152206421,-0.0356540940702,-0.848602294922,-0.0089092599228,-2.05265426636,-0.0501149781048,7.40172386169,0.213514775038,14.729084968579,95.249473571778,40.95889663694,34.66609573359,310
1.64952233337457E+018,48,1.64952233337457E+018,r1000913c5/base_footprint,0,1.64952233337457E+018,v/m1vw10zy74w/map,-8.66932148007,-1.68480585014,0,0,0,-0.383647540433,0.923479596266,0,63.5535583496,17.5465049744,77.7827377319,96.0980758667,42.9779167175,42.9779167175,63.5535583496,63.5535583496,26.1504917145,0.624782443047,0,0.0187508445233,0.65673404932,0.123573340476,0.10482249409,-2.8174200058,-0.191282764077,-0.848602294922,-0.0089092599228,-2.01902008057,-0.049293808639,8.51560401917,0.245646461844,14.7290849686,95.249473571778,40.95889663693,34.66609573367,310
1.64952233347434E+018,49,1.64952233347434E+018,r1000913c5/base_footprint,0,1.64952233347434E+018,v/m1vw10zy74w/map,-8.66932148007,-1.68480585014,0,0,0,-0.383647540433,0.923479596266,0,63.5283470154,16.5409755707,82.1376037598,96.0980758667,43.0972175598,43.0972175598,63.5283470154,63.5283470154,27.8927593231,0.882505297661,0,0.0184199307114,0.679976463318,0.117999330163,0.0995794013143,-1.81189060211,-0.123014472425,-0.848602294922,-0.0089092599228,-2.13832092285,-0.0522065088153,6.77333641052,0.195387914777,14.72908496859,95.249473571778,40.95889663695,34.66609573362,310
1.64952233357428E+018,50,1.64952233357428E+018,r1000913c5/base_footprint,0,1.64952233357428E+018,v/m1vw10zy74w/map,-8.66932148007,-1.68480585014,0,0,0,-0.383647540433,0.923479596266,0,63.5985221863,17.7511711121,84.4779129028,96.0980758667,43.1166992188,43.1166992188,63.5985221863,63.5985221863,26.8400402069,0.811511456966,0,0.018323816359,0.70364522934,0.112199239433,0.0938754230738,-3.02208614349,-0.205178126693,-0.848602294922,-0.0089092599228,-2.15780258179,-0.05268214643,7.82605552673,0.225755318999,14.72908496861,95.249473571778,40.95889663701,34.66609573363,310
1.64952233367435E+018,51,1.64952233367435E+018,r1000913c5/base_footprint,0,1.64952233367435E+018,v/m1vw10zy74w/map,-8.66932148007,-1.68480585014,0,0,0,-0.383647540433,0.923479596266,0,63.7784004211,19.2422733307,87.1078643799,96.0980758667,43.2668952942,43.2668952942,63.7784004211,63.7784004211,25.2243022919,0.690105080605,0,0.0180836804211,0.739104390144,0.101559467614,0.0834757909179,-4.51318836212,-0.306413352489,-0.848602294922,-0.0089092599228,-2.30799865723,-0.0563491396606,9.44179344177,0.272363901138,14.72908496858,95.249473571778,40.95889663697,34.66609573367,310
1.64952233377447E+018,52,1.64952233377447E+018,r1000913c5/base_footprint,0,1.64952233377447E+018,v/m1vw10zy74w/map,-8.66932148007,-1.68480585014,0,0,0,-0.383647540433,0.923479596266,0,63.8503875732,17.1355495453,89.7047576904,96.0980758667,43.361076355,43.361076355,63.8503875732,63.8503875732,24.945728302,0.694845080376,0,0.0180432014167,0.751060009003,0.0977373123169,0.0796941146255,-2.40646457672,-0.163381814957,-0.848602294922,-0.0089092599228,-2.40217971802,-0.058648545295,9.72036743164,0.280399829149,14.72908496858,95.249473571778,40.95889663698,34.66609573364,310
1.64952233387428E+018,53,1.64952233387428E+018,r1000913c5/base_footprint,0,1.64952233387428E+018,v/m1vw10zy74w/map,-8.66932148007,-1.68480585014,0,0,0,-0.383647540433,0.923479596266,0,63.9082221985,14.807302475,93.6446914673,96.0980758667,43.4128990173,43.4128990173,63.9082221985,63.9082221985,24.464384079,0.614721953869,0,0.0175201091915,0.786007225513,0.0866362303495,0.0691161230206,-0.0782175064087,-0.00531041156501,-0.848602294922,-0.0089092599228,-2.45400238037,-0.0599137805402,10.2017116547,0.294284999371,14.7290849685913,95.249473571778,40.95889663693,34.6660957337,310
1.64952233397486E+018,54,1.64952233397486E+018,r1000913c5/base_footprint,0,1.64952233397486E+018,v/m1vw10zy74w/map,-8.66932148007,-1.68480585014,0,0,0,-0.383647540433,0.923479596266,0,63.6252479553,19.8334197998,98.0818939209,96.0980758667,43.5512542725,43.5512542725,63.6252479553,63.6252479553,31.0521354675,0.572316944599,0,0.0169846005738,0.84213334322,0.0704430118203,0.0534584075212,-5.10433483124,-0.346547991037,-0.848602294922,-0.0089092599228,-2.5923576355,-0.0632916837931,3.61396026611,0.104250572622,14.72908496856,95.249473571778,40.958896637,34.66609573361,310
1.64952233407576E+018,55,1.64952233407576E+018,r1000913c5/base_footprint,0,1.64952233407576E+018,v/m1vw10zy74w/map,-8.66932148007,-1.68480585014,0,0,0,-0.383647540433,0.923479596266,0,63.5337142944,15.3766765594,100,96.0980758667,43.5215682983,43.5215682983,63.5337142944,63.5337142944,32.3791275024,0.668327450752,0,0.0167052876204,0.915617525578,0.0358891002834,0.0191838145256,-0.647591590881,-0.0439668595791,-0.848602294922,-0.0089092599228,-2.56267166138,-0.0625669136643,2.2869682312,0.0659713223577,14.729084968519,95.249473571778,40.95889663692,34.6660957336,310
1.64952233417435E+018,56,1.64952233417435E+018,r1000913c5/base_footprint,0,1.64952233417435E+018,v/m1vw10zy74w/map,-8.66932148007,-1.68480585014,0,0,0,-0.383647540433,0.923479596266,0,63.8119125366,15.6689224243,100,96.0980758667,43.4694099426,43.4694099426,63.8119125366,63.8119125366,26.8082904816,0.935785412788,0,0.0176762398332,1.04287028313,0.0158235915005,0.0334998294711,-0.93983745575,-0.0638082697988,-0.848602294922,-0.0089092599228,-2.51051330566,-0.0612934790552,7.85780525208,0.22667118907,14.72908496855,95.249473571778,40.95889663694,34.66609573368,310
1.64952233427449E+018,57,1.64952233427449E+018,r1000913c5/base_footprint,0,1.64952233427449E+018,v/m1vw10zy74w/map,-8.66932148007,-1.68480585014,0,0,0,-0.383647540433,0.923479596266,0,63.8060646057,16.112531662,100,96.0980758667,43.5563812256,43.5563812256,63.8060646057,63.8060646057,27.8527889252,0.895269930363,0,0.0165323317051,1.14160954952,0.0304687786847,0.0470011122525,-1.38344669342,-0.0939261838794,-0.848602294922,-0.0089092599228,-2.59748458862,-0.0634168609977,6.81330680847,0.196540936828,14.72908496858,95.249473571778,40.95889663698,34.66609573367,310
1.64952233437436E+018,58,1.64952233437436E+018,r1000913c5/base_footprint,0,1.64952233437437E+018,v/m1vw10zy74w/map,-8.66932148007,-1.68480585014,0,0,0,-0.383647540433,0.923479596266,0,63.8614120483,22.268907547,100,96.0980758667,43.6632461548,43.6632461548,63.8614120483,63.8614120483,28.0107192993,0.84763020277,0,0.0155080985278,1.24049055576,0.0356835201383,0.0511916205287,-7.53982257843,-0.511900246143,-0.848602294922,-0.0089092599228,-2.70434951782,-0.0660259351134,6.65537643433,0.191985175014,14.72908496857,95.249473571778,40.95889663698,34.66609573363,310
1.64952233447507E+018,59,1.64952233447507E+018,r1000913c5/base_footprint,0,1.64952233447507E+018,v/m1vw10zy74w/map,-8.66932148007,-1.68480585014,0,0,0,-0.383647540433,0.923479596266,0,63.8683815002,21.9156684875,100,96.0980758667,43.7686004639,43.7686004639,63.8683815002,63.8683815002,29.0230960846,0.639605522156,0,0.000191392668057,1.23636579514,0.0325862132013,0.0323948189616,-7.18658351898,-0.487917840481,-0.848602294922,-0.0089092599228,-2.8097038269,-0.0685981363058,5.64299964905,0.162781521678,14.72908496852,95.249473571778,40.958896637,34.66609573365,310
1.64952233457421E+018,60,1.64952233457421E+018,r1000913c5/base_footprint,0,1.64952233457421E+018,v/m1vw10zy74w/map,-8.66932148007,-1.68480585014,0,0,0,-0.383647540433,0.923479596266,0,63.9444732666,18.4726524353,100,96.0980758667,43.8040237427,43.8040237427,63.9444732666,63.9444732666,28.0360107422,0.890989005566,0,0.000242658803472,1.23767948151,0.032243616879,0.0324862748384,-3.74356746674,-0.254161566496,-0.848602294922,-0.0089092599228,-2.84512710571,-0.0694629848003,6.63008499146,0.19125559926,14.72908496856,95.249473571778,40.95889663699,34.66609573366,310
1.64952233467456E+018,61,1.64952233467456E+018,r1000913c5/base_footprint,0,1.64952233467456E+018,v/m1vw10zy74w/map,-8.66932148007,-1.68480585014,0,0,0,-0.383647540433,0.923479596266,0,64.0740356445,18.7922954559,100,96.0980758667,43.836894989,43.836894989,64.0740356445,64.0740356445,26.0588970184,0.832334458828,0,1.21284683701E-05,1.23767375946,0.0319589562714,0.0319468304515,-4.06321048737,-0.275863051414,-0.848602294922,-0.0089092599228,-2.87799835205,-0.0702655240893,8.60719871521,0.248288661242,14.72908496853,95.249473571778,40.95889663695,34.66609573361,310
1.64952233477481E+018,62,1.64952233477481E+018,r1000913c5/base_footprint,0,1.64952233477481E+018,v/m1vw10zy74w/map,-8.66932148007,-1.68480585014,0,0,0,-0.383647540433,0.923479596266,0,64.0708236694,17.3290939331,100,96.0980758667,43.905456543,43.905456543,64.0708236694,64.0708236694,26.8571891785,0.657999098301,0,2.97890978551E-09,1.23768162727,0.0319477021694,0.0319476984441,-2.60000896454,-0.176522091031,-0.848602294922,-0.0089092599228,-2.94655990601,-0.0719394385815,7.80890655518,0.22526063025,14.72908496856,95.249473571778,40.95889663699,34.66609573368,310
1.64952233487531E+018,63,1.64952233487531E+018,r1000913c5/base_footprint,0,1.64952233487531E+018,v/m1vw10zy74w/map,-8.66932148007,-1.68480585014,0,0,0,-0.383647540433,0.923479596266,0,64.1291809082,20.8745441437,100,96.0980758667,44.0264167786,44.0264167786,64.1291809082,64.1291809082,27.1131153107,0.667682528496,0,7.08256392665E-16,1.23810100555,0.0319585353136,0.0319585353136,-6.14545917511,-0.41723293066,-0.848602294922,-0.0089092599228,-3.0675201416,-0.0748926475644,7.55298042297,0.21787802875,14.72908496859,95.249473571778,40.958896637,34.66609573367,310
1.64952233497406E+018,64,1.64952233497406E+018,r1000913c5/base_footprint,0,1.64952233497406E+018,v/m1vw10zy74w/map,-8.66932148007,-1.68480585014,0,0,0,-0.383647540433,0.923479596266,0,64.1320571899,23.6883945465,100,96.0980758667,44.139087677,44.139087677,64.1320571899,64.1320571899,28.278175354,0.870237052441,0,7.46842068808E-21,1.23758769035,0.0319452807307,0.0319452807307,-8.95930957794,-0.608273327351,-0.848602294922,-0.0089092599228,-3.18019104004,-0.0776434764266,6.38792037964,0.184269964695,14.72908496856,95.249473571778,40.95889663696,34.66609573364,310
1.64952233507432E+018,65,1.64952233507432E+018,r1000913c5/base_footprint,0,1.64952233507432E+018,v/m1vw10zy74w/map,-8.66932148007,-1.68480585014,0,0,0,-0.383647540433,0.923479596266,0,64.2228317261,17.3290939331,100,96.0980758667,44.1900444031,44.1900444031,64.2228317261,64.2228317261,27.194606781,0.896518647671,0,4.09643493612E-29,1.2380412817,0.0319569893181,0.0319569893181,-2.60000896454,-0.176522091031,-0.848602294922,-0.0089092599228,-3.23114776611,-0.0788875669241,7.47148895264,0.215527266264,14.72908496856,95.249473571778,40.95889663699,34.66609573364,310
1.64952233517431E+018,66,1.64952233517431E+018,r1000913c5/base_footprint,0,1.64952233517431E+018,v/m1vw10zy74w/map,-8.66932148007,-1.68480585014,0,0,0,-0.383647540433,0.923479596266,0,64.3101119995,16.4086685181,100,96.0980758667,44.2333221436,44.2333221436,64.3101119995,64.3101119995,26.0909023285,0.827224373817,0,9.49884598538E-36,1.23803961277,0.0319569446146,0.0319569446146,-1.6795835495,-0.114031761885,-0.848602294922,-0.0089092599228,-3.27442550659,-0.0799441859126,8.57519340515,0.247365415096,14.7290849686,95.249473571778,40.95889663701,34.66609573365,310
1.64952233527426E+018,67,1.64952233527426E+018,r1000913c5/base_footprint,0,1.64952233527426E+018,v/m1vw10zy74w/map,-8.66932148007,-1.68480585014,0,0,0,-0.383647540433,0.923479596266,0,64.3441238403,19.8334197998,100,96.0980758667,44.2276878357,44.2276878357,64.3441238403,64.3441238403,25.4178562164,0.840252757072,0,1.00443672624E-40,1.2376563549,0.0319470502436,0.0319470502436,-5.10433483124,-0.346547991037,-0.848602294922,-0.0089092599228,-3.26879119873,-0.079806625843,9.24823951721,0.266780525446,14.72908496856,95.249473571778,40.95889663697,34.66609573361,310
1.64952233537443E+018,68,1.64952233537443E+018,r1000913c5/base_footprint,0,1.64952233537443E+018,v/m1vw10zy74w/map,-8.66932148007,-1.68480585014,0,0,0,-0.383647540433,0.923479596266,0,64.2911605835,19.1815853119,100,96.0980758667,44.266658783,44.266658783,64.2911605835,64.2911605835,26.7920761108,0.500576794147,0,0,1.23800396919,0.0319560244679,0.0319560244679,-4.45250034332,-0.30229306221,-0.848602294922,-0.0089092599228,-3.307762146,-0.080758087337,7.8740196228,0.227138921618,14.72908496858,95.249473571778,40.958896637,34.6660957336,310
1.6495223354744E+018,69,1.6495223354744E+018,r1000913c5/base_footprint,0,1.6495223354744E+018,v/m1vw10zy74w/map,-8.66932148007,-1.68480585014,0,0,0,-0.383647540433,0.923479596266,0,64.3828964233,25.420167923,100,96.0980758667,44.4033851624,44.4033851624,64.3828964233,64.3828964233,26.617515564,0.564738750458,0,0,1.23780667782,0.0319509319961,0.0319509319961,-10.6910829544,-0.725848436356,-0.848602294922,-0.0089092599228,-3.44448852539,-0.0840962231159,8.04858016968,0.232174411416,14.7290849686,95.249473571778,40.95889663701,34.66609573368,310
1.64952233557466E+018,70,1.64952233557466E+018,r1000913c5/base_footprint,0,1.64952233557466E+018,v/m1vw10zy74w/map,-8.66932148007,-1.68480585014,0,0,0,-0.383647540433,0.923479596266,0,64.2220916748,18.7922954559,100,96.0980758667,44.43384552,44.43384552,64.2220916748,64.2220916748,29.8409061432,0.964554071426,0,0,1.23749125004,0.0319427885115,0.0319427885115,-4.06321048737,-0.275863051414,-0.848602294922,-0.0089092599228,-3.47494888306,-0.0848399028182,4.82518959045,0.139190450311,14.72908496853,95.249473571778,40.95889663694,34.66609573365,310
1.64952233567499E+018,71,1.64952233567499E+018,r1000913c5/base_footprint,0,1.64952233567499E+018,v/m1vw10zy74w/map,-8.66932148007,-1.68480585014,0,0,0,-0.383647540433,0.923479596266,0,64.2846984863,21.2276210785,100,96.0980758667,44.507850647,44.507850647,64.2846984863,64.2846984863,29.5133075714,1.00350689888,0,0,1.23747766018,0.0319424383342,0.0319424383342,-6.49853610992,-0.441204339266,-0.848602294922,-0.0089092599228,-3.54895401001,-0.086646720767,5.15278816223,0.148640573025,14.72908496858,95.249473571778,40.95889663699,34.66609573363,310
1.64952233577534E+018,72,1.64952233577534E+018,r1000913c5/base_footprint,0,1.64952233577534E+018,v/m1vw10zy74w/map,-8.66932148007,-1.68480585014,0,0,0,-0.383647540433,0.923479596266,0,64.3252639771,17.248254776,100,96.0980758667,44.4528274536,44.4528274536,64.3252639771,64.3252639771,28.1888103485,0.796863257885,0,0,1.23794817924,0.0319545865059,0.0319545865059,-2.51916980743,-0.17103369534,-0.848602294922,-0.0089092599228,-3.49393081665,-0.0853033438325,6.47728538513,0.18684785068,14.72908496857,95.249473571778,40.95889663695,34.66609573363,310
1.64952233587432E+018,73,1.64952233587432E+018,r1000913c5/base_footprint,0,1.64952233587432E+018,v/m1vw10zy74w/map,-8.66932148007,-1.68480585014,0,0,0,-0.383647540433,0.923479596266,0,64.2440795898,20.5366363525,100,96.0980758667,44.4908790588,44.4908790588,64.2440795898,64.2440795898,30.061132431,0.821247935295,0,0,1.23743987083,0.0319414660335,0.0319414660335,-5.80755138397,-0.394291400909,-0.848602294922,-0.0089092599228,-3.53198242188,-0.0862323641777,4.60496330261,0.132837668061,14.72908496853,95.249473571778,40.95889663692,34.66609573361,310
1.64952233597437E+018,74,1.64952233597437E+018,r1000913c5/base_footprint,0,1.64952233597437E+018,v/m1vw10zy74w/map,-8.66932148007,-1.68480585014,0,0,0,-0.383647540433,0.923479596266,0,64.1924667358,18.1585674286,100,96.0980758667,44.4383125305,44.4383125305,64.1924667358,64.1924667358,30.4224472046,0.512404680252,0,0,1.23795390129,0.0319547317922,0.0319547317922,-3.42948246002,-0.232837438583,-0.848602294922,-0.0089092599228,-3.47941589355,-0.084948964417,4.24364852905,0.122414954007,14.72908496858,95.249473571778,40.95889663695,34.66609573365,310
1.64952233607415E+018,75,1.64952233607415E+018,r1000913c5/base_footprint,0,1.64952233607415E+018,v/m1vw10zy74w/map,-8.66932148007,-1.68480585014,0,0,0,-0.383647540433,0.923479596266,0,64.4667129517,19.8782958984,100,96.0980758667,44.4599990845,44.4599990845,64.4667129517,64.4667129517,25.72016716,0.729037106037,0,0,1.23797154427,0.0319551862776,0.0319551862776,-5.14921092987,-0.349594771862,-0.848602294922,-0.0089092599228,-3.50110244751,-0.0854784399271,8.94592857361,0.258059889078,14.72908496853,95.249473571778,40.95889663699,34.66609573361,310
1.64952233617451E+018,76,1.64952233617451E+018,r1000913c5/base_footprint,0,1.64952233617451E+018,v/m1vw10zy74w/map,-8.66932148007,-1.68480585014,0,0,0,-0.383647540433,0.923479596266,0,64.588432312,16.4086685181,100,96.0980758667,44.3841743469,44.3841743469,64.588432312,64.588432312,22.7103481293,0.658127605915,0,0,1.23800992966,0.0319561772048,0.0319561772048,-1.6795835495,-0.114031761885,-0.848602294922,-0.0089092599228,-3.42527770996,-0.0836271941662,11.9557476044,0.344883024693,14.7290849686,95.249473571778,40.95889663694,34.6660957337,310
1.64952233627436E+018,77,1.64952233627436E+018,r1000913c5/base_footprint,0,1.64952233627437E+018,v/m1vw10zy74w/map,-8.66932148007,-1.68480585014,0,0,0,-0.383647540433,0.923479596266,0,64.427406311,13.260219574,100,96.0980758667,44.2364349365,44.2364349365,64.427406311,64.427406311,24.0131835938,0.686010599136,0,0,1.2375215292,0.0319435745478,0.0319435745478,1.46886539459,0.0997254997492,-0.848602294922,-0.0089092599228,-3.27753829956,-0.0800201818347,10.6529121399,0.307300597429,14.72908496859,95.249473571778,40.95889663694,34.6660957337,310
1.64952233637467E+018,78,1.64952233637467E+018,r1000913c5/base_footprint,0,1.64952233637467E+018,v/m1vw10zy74w/map,-8.66932148007,-1.68480585014,0,0,0,-0.383647540433,0.923479596266,0,64.2070617676,17.4406604767,100,96.0980758667,44.1250724792,44.1250724792,64.2070617676,64.2070617676,26.7766704559,0.654382050037,0,0,1.23801720142,0.0319563671947,0.0319563671947,-2.71157550812,-0.18409666419,-0.848602294922,-0.0089092599228,-3.16617584229,-0.0773012936115,7.88942527771,0.227583318949,14.72908496858,95.249473571778,40.95889663691,34.66609573361,310
1.64952233647514E+018,79,1.64952233647514E+018,r1000913c5/base_footprint,0,1.64952233647514E+018,v/m1vw10zy74w/map,-8.66932148007,-1.68480585014,0,0,0,-0.383647540433,0.923479596266,0,64.1266555786,17.4406604767,100,96.0980758667,43.9643173218,43.9643173218,64.1266555786,64.1266555786,26.4878883362,0.658286273479,0,0,1.237606287,0.0319457575679,0.0319457575679,-2.71157550812,-0.18409666419,-0.848602294922,-0.0089092599228,-3.00542068481,-0.073376506567,8.17820739746,0.235913708806,14.72908496858,95.249473571778,40.95889663699,34.66609573366,310
1.64952233657431E+018,80,1.64952233657431E+018,r1000913c5/base_footprint,0,1.64952233657431E+018,v/m1vw10zy74w/map,-8.66932148007,-1.68480585014,0,0,0,-0.383647540433,0.923479596266,0,63.9784126282,17.849899292,100,96.0980758667,43.8713340759,43.8713340759,63.9784126282,63.9784126282,28.152009964,0.584305882454,0,0,1.2375780344,0.0319450311363,0.0319450311363,-3.12081432343,-0.211881071329,-0.848602294922,-0.0089092599228,-2.91243743896,-0.0711063444614,6.51408576965,0.187909409404,14.72908496857,95.249473571778,40.95889663694,34.66609573365,310
1.64952233667433E+018,81,1.64952233667433E+018,r1000913c5/base_footprint,0,1.64952233667433E+018,v/m1vw10zy74w/map,-8.66932148007,-1.68480585014,0,0,0,-0.383647540433,0.923479596266,0,64.0715637207,14.807302475,100,96.0980758667,43.8005828857,43.8005828857,64.0715637207,64.0715637207,25.7112483978,0.834021866322,0,0,1.23809027672,0.0319582521915,0.0319582521915,-0.0782175064087,-0.00531041156501,-0.848602294922,-0.0089092599228,-2.84168624878,-0.0693789720535,8.95484733582,0.258317172527,14.7290849685913,95.249473571778,40.95889663692,34.66609573362,310
1.64952233677435E+018,82,1.64952233677435E+018,r1000913c5/base_footprint,0,1.64952233677435E+018,v/m1vw10zy74w/map,-8.66932148007,-1.68480585014,0,0,0,-0.383647540433,0.923479596266,0,63.9613952637,17.1355495453,100,96.0980758667,43.7022628784,43.7022628784,63.9613952637,63.9613952637,26.6323928833,0.668405652046,0,0,1.23759186268,0.0319453887641,0.0319453887641,-2.40646457672,-0.163381814957,-0.848602294922,-0.0089092599228,-2.74336624146,-0.0669785216451,8.03370285034,0.231745243073,14.72908496858,95.249473571778,40.95889663694,34.66609573364,310
1.64952233687429E+018,83,1.64952233687429E+018,r1000913c5/base_footprint,0,1.64952233687429E+018,v/m1vw10zy74w/map,-8.66932148007,-1.68480585014,0,0,0,-0.383647540433,0.923479596266,0,63.622833252,17.5465049744,100,96.0980758667,43.5414390564,43.5414390564,63.622833252,63.622833252,30.9896125793,0.78851544857,0,0,1.23751807213,0.0319434814155,0.0319434814155,-2.8174200058,-0.191282764077,-0.848602294922,-0.0089092599228,-2.58254241943,-0.0630520507693,3.6764831543,0.106054142118,14.7290849686,95.249473571778,40.95889663697,34.6660957336,310
1.64952233697443E+018,84,1.64952233697443E+018,r1000913c5/base_footprint,0,1.64952233697444E+018,v/m1vw10zy74w/map,-8.66932148007,-1.68480585014,0,0,0,-0.383647540433,0.923479596266,0,63.8358268738,16.112531662,100,96.0980758667,43.6012077332,43.6012077332,63.8358268738,63.8358268738,27.8012371063,0.640992581844,0,0,1.23792731762,0.0319540463388,0.0319540463388,-1.38344669342,-0.0939261838794,-0.848602294922,-0.0089092599228,-2.64231109619,-0.0645112842321,6.86485862732,0.198028028011,14.72908496858,95.249473571778,40.95889663701,34.66609573362,310
1.64952233707518E+018,85,1.64952233707518E+018,r1000913c5/base_footprint,0,1.64952233707518E+018,v/m1vw10zy74w/map,-8.66932148007,-1.68480585014,0,0,0,-0.383647540433,0.923479596266,0,63.8849487305,16.8356990814,100,96.0980758667,43.6264305115,43.6264305115,63.8849487305,63.8849487305,27.1894607544,0.827013552189,0,0,1.23749554157,0.0319429002702,0.0319429002702,-2.10661411285,-0.143024101853,-0.848602294922,-0.0089092599228,-2.66753387451,-0.0651270896196,7.47663497925,0.215675711632,14.72908496855,95.249473571778,40.95889663699,34.66609573365,310
1.64952233717482E+018,86,1.64952233717482E+018,r1000913c5/base_footprint,0,1.64952233717482E+018,v/m1vw10zy74w/map,-8.66932148007,-1.68480585014,0,0,0,-0.383647540433,0.923479596266,0,63.8021392822,17.1355495453,100,96.0980758667,43.7272644043,43.7272644043,63.8021392822,63.8021392822,29.7689857483,1.05299532413,0,0,1.23807501793,0.0319578610361,0.0319578610361,-2.40646457672,-0.163381814957,-0.848602294922,-0.0089092599228,-2.76836776733,-0.0675889253616,4.89710998535,0.141265109181,14.72908496858,95.249473571778,40.95889663697,34.66609573365,310
1.64952233727463E+018,87,1.64952233727463E+018,r1000913c5/base_footprint,0,1.64952233727463E+018,v/m1vw10zy74w/map,-8.66932148007,-1.68480585014,0,0,0,-0.383647540433,0.923479596266,0,64.123664856,19.8782958984,100,96.0980758667,43.8054008484,43.8054008484,64.123664856,64.123664856,24.8254337311,0.670327603817,0,0,1.23754060268,0.0319440625608,0.0319440625608,-5.14921092987,-0.349594771862,-0.848602294922,-0.0089092599228,-2.84650421143,-0.06949660182,9.84066200256,0.283869922161,14.72908496853,95.249473571778,40.95889663697,34.66609573366,310
1.64952233737481E+018,88,1.64952233737481E+018,r1000913c5/base_footprint,0,1.64952233737481E+018,v/m1vw10zy74w/map,-8.66932148007,-1.68480585014,0,0,0,-0.383647540433,0.923479596266,0,64.0322036743,18.1585674286,100,96.0980758667,43.8639907837,43.8639907837,64.0322036743,64.0322036743,27.1045227051,0.661664605141,0,0,1.23746371269,0.0319420807064,0.0319420807064,-3.42948246002,-0.232837438583,-0.848602294922,-0.0089092599228,-2.90509414673,-0.0709270611405,7.56157302856,0.218125894666,14.72908496858,95.249473571778,40.95889663697,34.66609573366,310
1.64952233747422E+018,89,1.64952233747422E+018,r1000913c5/base_footprint,0,1.64952233747422E+018,v/m1vw10zy74w/map,-8.66932148007,-1.68480585014,0,0,0,-0.383647540433,0.923479596266,0,63.8488426208,18.1585674286,100,96.0980758667,43.8880271912,43.8880271912,63.8488426208,63.8488426208,30.6646194458,0.587486743927,0,0,1.23788511753,0.0319529548287,0.0319529548287,-3.42948246002,-0.232837438583,-0.848602294922,-0.0089092599228,-2.9291305542,-0.0715139061213,4.00147628784,0.115429103374,14.72908496858,95.249473571778,40.958896637,34.66609573364,310
1.64952233757416E+018,90,1.64952233757416E+018,r1000913c5/base_footprint,0,1.64952233757416E+018,v/m1vw10zy74w/map,-8.66932148007,-1.68480585014,0,0,0,-0.383647540433,0.923479596266,0,63.8751907349,17.7511711121,100,96.0980758667,43.9195785522,43.9195785522,63.8751907349,63.8751907349,30.5310573578,0.640239417553,0,0,1.23741686344,0.031940869987,0.031940869987,-3.02208614349,-0.205178126693,-0.848602294922,-0.0089092599228,-2.96068191528,-0.0722842216492,4.13503837585,0.11928191781,14.72908496861,95.249473571778,40.95889663692,34.66609573365,310
1.64952233767437E+018,91,1.64952233767437E+018,r1000913c5/base_footprint,0,1.64952233767437E+018,v/m1vw10zy74w/map,-8.66932148007,-1.68480585014,0,0,0,-0.383647540433,0.923479596266,0,64.1817398071,17.1355495453,100,96.0980758667,44.0502281189,44.0502281189,64.1817398071,64.1817398071,26.4241924286,0.667605042458,0,0,1.23781645298,0.0319511815906,0.0319511815906,-2.40646457672,-0.163381814957,-0.848602294922,-0.0089092599228,-3.09133148193,-0.0754739940166,8.24190330505,0.237751126289,14.72908496858,95.249473571778,40.95889663697,34.66609573365,310
1.64952233777461E+018,92,1.64952233777461E+018,r1000913c5/base_footprint,0,1.64952233777461E+018,v/m1vw10zy74w/map,-8.66932148007,-1.68480585014,0,0,0,-0.383647540433,0.923479596266,0,64.1565246582,18.8640975952,100,96.0980758667,44.0745162964,44.0745162964,64.1565246582,64.1565246582,27.1403484344,0.821303904057,0,0,1.2381311655,0.031959310174,0.031959310174,-4.13501262665,-0.280737906694,-0.848602294922,-0.0089092599228,-3.11561965942,-0.0760669857264,7.52574729919,0.217092439532,14.72908496855,95.249473571778,40.95889663698,34.66609573359,310
1.64952233787563E+018,93,1.64952233787563E+018,r1000913c5/base_footprint,0,1.64952233787563E+018,v/m1vw10zy74w/map,-8.66932148007,-1.68480585014,0,0,0,-0.383647540433,0.923479596266,0,64.200302124,17.248254776,100,96.0980758667,44.1806259155,44.1806259155,64.200302124,64.200302124,27.4983329773,0.616696536541,0,0,1.23767328262,0.0319474898279,0.0319474898279,-2.51916980743,-0.17103369534,-0.848602294922,-0.0089092599228,-3.22172927856,-0.0786576196551,7.16776275635,0.206765785813,14.72908496857,95.249473571778,40.95889663694,34.66609573365,310
1.64952233797524E+018,94,1.64952233797524E+018,r1000913c5/base_footprint,0,1.64952233797525E+018,v/m1vw10zy74w/map,-8.66932148007,-1.68480585014,0,0,0,-0.383647540433,0.923479596266,0,63.9524078369,17.5465049744,100,96.0980758667,44.1693992615,44.1693992615,63.9524078369,63.9524078369,31.8392429352,0.769103586674,0,0,1.23782360554,0.0319513678551,0.0319513678551,-2.8174200058,-0.191282764077,-0.848602294922,-0.0089092599228,-3.21050262451,-0.0783835202456,2.82685279846,0.0815451741219,14.7290849686,95.249473571778,40.95889663699,34.66609573366,310
1.64952233807556E+018,95,1.64952233807556E+018,r1000913c5/base_footprint,0,1.64952233807556E+018,v/m1vw10zy74w/map,-8.66932148007,-1.68480585014,0,0,0,-0.383647540433,0.923479596266,0,64.2009506226,16.9550170898,100,96.0980758667,44.2785110474,44.2785110474,64.2009506226,64.2009506226,28.5438346863,0.896358847618,0,0,1.2377717495,0.0319500304759,0.0319500304759,-2.22593212128,-0.151124939322,-0.848602294922,-0.0089092599228,-3.3196144104,-0.0810474604368,6.12226104736,0.176606595516,14.72908496852,95.249473571778,40.958896637,34.66609573366,310
1.64952233817566E+018,96,1.64952233817566E+018,r1000913c5/base_footprint,0,1.64952233817566E+018,v/m1vw10zy74w/map,-8.66932148007,-1.68480585014,0,0,0,-0.383647540433,0.923479596266,0,64.1888961792,17.5465049744,100,96.0980758667,44.3318557739,44.3318557739,64.1888961792,64.1888961792,29.3369140625,0.761307060719,0,0,1.2373790741,0.0319398976862,0.0319398976862,-2.8174200058,-0.191282764077,-0.848602294922,-0.0089092599228,-3.37295913696,-0.0823498517275,5.32918167114,0.153728932142,14.7290849686,95.249473571778,40.95889663694,34.66609573364,310
1.6495223382745E+018,97,1.6495223382745E+018,r1000913c5/base_footprint,0,1.6495223382745E+018,v/m1vw10zy74w/map,-8.66932148007,-1.68480585014,0,0,0,-0.383647540433,0.923479596266,0,64.2608032227,18.2452640533,100,96.0980758667,44.3537559509,44.3537559509,64.2608032227,64.2608032227,28.2791538239,0.689602911472,0,0,1.23781526089,0.0319511555135,0.0319511555135,-3.51617908478,-0.238723531365,-0.848602294922,-0.0089092599228,-3.39485931396,-0.082884542644,6.38694190979,0.184241741896,14.72908496852,95.249473571778,40.95889663694,34.66609573369,310
1.64952233837433E+018,98,1.64952233837433E+018,r1000913c5/base_footprint,0,1.64952233837433E+018,v/m1vw10zy74w/map,-8.66932148007,-1.68480585014,0,0,0,-0.383647540433,0.923479596266,0,64.4563293457,13.7931032181,100,96.0980758667,44.4054489136,44.4054489136,64.4563293457,64.4563293457,25.317943573,0.806100308895,0,0,1.23778164387,0.0319502875209,0.0319502875209,0.935981750488,0.0635464936495,-0.848602294922,-0.0089092599228,-3.44655227661,-0.0841466113925,9.34815216064,0.269662678242,14.729084968588,95.249473571778,40.95889663699,34.66609573364,310
1.6495223384743E+018,99,1.6495223384743E+018,r1000913c5/base_footprint,0,1.6495223384743E+018,v/m1vw10zy74w/map,-8.66932148007,-1.68480585014,0,0,0,-0.383647540433,0.923479596266,0,64.3363113403,16.4086685181,100,96.0980758667,44.4087638855,44.4087638855,64.3363113403,64.3363113403,27.5141773224,0.853626668453,0,0,1.23778522015,0.0319503806531,0.0319503806531,-1.6795835495,-0.114031761885,-0.848602294922,-0.0089092599228,-3.44986724854,-0.0842275470495,7.15191841125,0.206308737397,14.7290849686,95.249473571778,40.95889663696,34.66609573365,310
1.64952233857453E+018,100,1.64952233857453E+018,r1000913c5/base_footprint,0,1.64952233857453E+018,v/m1vw10zy74w/map,-8.66932148007,-1.68480585014,0,0,0,-0.383647540433,0.923479596266,0,64.5228271484,20.8745441437,100,96.0980758667,44.4439926147,44.4439926147,64.5228271484,64.5228271484,24.5372867584,0.66022759676,0,0,1.23775589466,0.0319496206939,0.0319496206939,-6.14545917511,-0.41723293066,-0.848602294922,-0.0089092599228,-3.48509597778,-0.0850876420736,10.1288089752,0.292181998491,14.72908496859,95.249473571778,40.95889663692,34.6660957336,310
1.64952233867414E+018,101,1.64952233867414E+018,r1000913c5/base_footprint,0,1.64952233867414E+018,v/m1vw10zy74w/map,-8.66932148007,-1.68480585014,0,0,0,-0.383647540433,0.923479596266,0,64.5076599121,16.112531662,100,96.0980758667,44.5474205017,44.5474205017,64.5076599121,64.5076599121,25.9273033142,0.845636129379,0,0,1.23773956299,0.0319491997361,0.0319491997361,-1.38344669342,-0.0939261838794,-0.848602294922,-0.0089092599228,-3.58852386475,-0.0876128077507,8.73879241943,0.252084702253,14.72908496858,95.249473571778,40.95889663695,34.66609573363,310
1.64952233877509E+018,102,1.64952233877509E+018,r1000913c5/base_footprint,0,1.6495223387751E+018,v/m1vw10zy74w/map,-8.66932148007,-1.68480585014,0,0,0,-0.383647540433,0.923479596266,0,64.5273666382,17.849899292,100,96.0980758667,44.6400909424,44.6400909424,64.5273666382,64.5273666382,26.5734081268,0.676665902138,0,0,1.23772132397,0.0319487266243,0.0319487266243,-3.12081432343,-0.211881071329,-0.848602294922,-0.0089092599228,-3.68119430542,-0.0898753255606,8.09268760681,0.233446761966,14.72908496857,95.249473571778,40.95889663698,34.66609573361,310
1.64952233887485E+018,103,1.64952233887485E+018,r1000913c5/base_footprint,0,1.64952233887486E+018,v/m1vw10zy74w/map,-8.66932148007,-1.68480585014,0,0,0,-0.383647540433,0.923479596266,0,64.5488128662,18.5520362854,100,96.0980758667,44.686340332,44.686340332,64.5488128662,64.5488128662,26.6869754791,0.568838715553,0,0,1.23776614666,0.0319498851895,0.0319498851895,-3.82295131683,-0.259551167488,-0.848602294922,-0.0089092599228,-3.72744369507,-0.0910044983029,7.97912025452,0.230170726776,14.72908496857,95.249473571778,40.95889663693,34.66609573362,310
