%time,field.header.seq,field.header.stamp,field.header.frame_id,field.pose.header.seq,field.pose.header.stamp,field.pose.header.frame_id,field.pose.pose.position.x,field.pose.pose.position.y,field.pose.pose.position.z,field.pose.pose.orientation.x,field.pose.pose.orientation.y,field.pose.pose.orientation.z,field.pose.pose.orientation.w,field.label,field.main_output,field.scan_score,field.pose_score,field.cov_score,field.lhood_map_score,field.lhood_robot_score,field.lhood_map_score_all,field.lhood_robot_score_all,field.point_angle_diff,field.average_orientation,field.map_average_orientation,field.sensor_div,field.odom_div_x,field.odom_div_w,field.imu_div_w,field.kdtree_div,field.kdtree_div_p,field.cov_div,field.cov_div_p,field.likelihood_div,field.likelihood_div_p,field.normal_diff_div,field.normal_diff_div_p,field.kdtree_average,field.cov_average,field.likelihood_average,field.normal_diff_average,field.map_update_count
1.6495052553394E+018,0,1.6495052553394E+018,r1000913c5/base_footprint,0,1.6495052553394E+018,v/m1vw10zy74w/map,-4.34031369516,-1.28636101615,0,0,0,-0.702442939648,0.711740062479,0,57.9953346252,10.8035373688,100,97.378288269,34.235294342,34.235294342,57.9953346252,57.9953346252,36.3869819641,0.0450231656432,0,0.00515514845029,0.0866618901491,0.113567262888,0.108412116766,4.05815696716,0.273061513901,-2.83835601807,-0.0300228260458,5.45899581909,0.137525975704,-7.07892990112,-0.241535320878,14.86169433596,94.53993225093,39.69429016109,29.30805206298,520
1.64950525543944E+018,1,1.64950525543944E+018,r1000913c5/base_footprint,0,1.64950525543944E+018,v/m1vw10zy74w/map,-4.34031369516,-1.28636101615,0,0,0,-0.702442939648,0.711740062479,0,57.8146400452,8.00530719757,46.4406661987,97.378288269,34.4095077515,34.4095077515,57.8146400452,57.8146400452,41.5210037231,-0.0718096494675,0,0.00387441553175,0.0795389711857,0.093177691102,0.0893032699823,6.85638713837,0.461346268654,-2.83835601807,-0.0300228260458,5.28478240967,0.133137091994,-12.2129516602,-0.416709780693,14.86169433594,94.53993225093,39.69429016117,29.3080520629,520
1.64950525553936E+018,2,1.64950525553936E+018,r1000913c5/base_footprint,0,1.64950525553937E+018,v/m1vw10zy74w/map,-4.33674575732,-1.39144168167,0,0,0,-0.714975171304,0.699149844039,0,58.2260093689,10.0346021652,47.1516036987,97.5989151001,34.6942939758,34.6942939758,58.2260093689,58.2260093689,37.9863052368,-0.102328822017,0,0.00367490691133,0.0735102146864,0.0773604139686,0.0736855044961,8.7067193985,0.464573383331,-3.02849578857,-0.0320237092674,6.35884857178,0.154893100262,-9.28113174438,-0.32332611084,18.7413215637,94.57041931153,41.05314254758,28.70517349242,679
1.64950525563915E+018,3,1.64950525563915E+018,r1000913c5/base_footprint,0,1.64950525563915E+018,v/m1vw10zy74w/map,-4.33674575732,-1.39144168167,0,0,0,-0.714975171304,0.699149844039,0,58.7085342407,15.7279930115,46.9599113464,97.5989151001,35.2511062622,35.2511062622,58.7085342407,58.7085342407,35.3144226074,-0.159689575434,0,0.00304675404914,0.0657120719552,0.0551527179778,0.0521059632301,3.01332855225,0.160785272717,-3.02849578857,-0.0320237092674,5.8020362854,0.14132989943,-6.60924911499,-0.230245918036,18.74132156375,94.57041931153,41.0531425476,28.70517349241,679
1.64950525573919E+018,4,1.64950525573919E+018,r1000913c5/base_footprint,0,1.64950525573919E+018,v/m1vw10zy74w/map,-4.34146504948,-1.50298686232,0,0,0,-0.720736259659,0.693209379635,0,59.0237312317,17.3967456818,47.1341094971,97.3039474487,35.6990432739,35.6990432739,59.0237312317,59.0237312317,33.4167366028,-0.0294843595475,0,0.00256824004464,0.0534265935421,0.0259602945298,0.023392053321,2.10509300232,0.107943311334,-2.74533081055,-0.0290331114084,5.45991516113,0.132654353976,-4.57552528381,-0.158645391464,19.50183868412,94.55861663815,41.15895843503,28.84121131899,669
1.64950525803913E+018,5,1.64950525803913E+018,r1000913c5/base_footprint,0,1.64950525803913E+018,v/m1vw10zy74w/map,-4.35250058367,-1.8341006176,0,0,0,-0.704404578949,0.70979869622,0,59.3615837097,20.4401187897,46.966884613,96.3431243896,36.2456855774,36.2456855774,59.3615837097,59.3615837097,29.7801685333,-0.010726028122,0,0.00142217881512,0.085837341845,0.0491137504578,0.0476915724576,0.328622817993,0.0158229526132,-1.84395599365,-0.0195129327476,5.08437728882,0.123018860817,-0.528038024902,-0.0180512666702,20.768741607693,94.49916839595,41.33006286622,29.252130508398,652
1.64950525823907E+018,6,1.64950525823907E+018,r1000913c5/base_footprint,0,1.64950525823908E+018,v/m1vw10zy74w/map,-4.35211049545,-1.94415253366,0,0,0,-0.704273117354,0.709929134613,0,60.4419708252,19.0110836029,46.7321548462,96.2644119263,37.232711792,37.232711792,60.4419708252,60.4419708252,20.7096691132,0.0574466176331,0,0.00148419826292,0.0813217535615,0.049640674144,0.0481564775109,1.68911170959,0.0815988332033,-1.77188873291,-0.0187516286969,4.12052154541,0.0996420681477,8.58251190186,0.292996674776,20.70019531249,94.49252319339,41.35323333741,29.29218101506,646
1.64950525833918E+018,7,1.64950525833918E+018,r1000913c5/base_footprint,0,1.64950525833918E+018,v/m1vw10zy74w/map,-4.35133063114,-2.05819703023,0,0,0,-0.711672201775,0.702511691875,0,60.4370155334,12.793088913,45.8488311768,95.7748641968,37.87657547,37.87657547,60.4370155334,60.4370155334,25.9902553558,0.0560778006911,0,0.00247635762207,0.079524628818,0.0446365475655,0.0421601906419,7.32166671753,0.363994807005,-1.27743530273,-0.0135182021186,3.43939208984,0.0832460746169,3.14799308777,0.108036458492,20.11475563053,94.49742889407,41.31596755984,29.13824844357,646
1.64950525903919E+018,8,1.64950525903919E+018,r1000913c5/base_footprint,0,1.64950525903919E+018,v/m1vw10zy74w/map,-4.31434414331,-2.37276956999,0,0,0,-0.704901928529,0.709304780159,0,60.4976387024,15.0326795578,45.3436203003,96.3404769897,38.5757217407,38.5757217407,60.4976387024,60.4976387024,34.486000061,0.0400841347873,0,0.000207071512705,0.0279846340418,0.00375547865406,0.00396255031228,1.47124958038,0.0891454145312,-1.89855194092,-0.0201028510928,1.33435058594,0.0334339290857,-3.675365448,-0.119288861752,16.50392913818,94.44192504878,39.91007232664,30.810634613,254
1.64950526233921E+018,9,1.64950526233921E+018,r1000913c5/base_footprint,0,1.64950526233921E+018,v/m1vw10zy74w/map,-4.31292737755,-2.48125910923,0,0,0,-0.710788973688,0.703405313375,0,60.8159561157,5.88235282898,44.8822631836,95.9986190796,38.8167228699,38.8167228699,60.8159561157,60.8159561157,30.1284141541,0.616729438305,0,0.00265147141181,0.143393337727,0.0358171537519,0.0384686216712,9.35919761658,0.61405813694,-1.56512451172,-0.0165738277137,0.956268310547,0.0240431576967,0.530027389526,0.0172881390899,15.24155044556,94.43349456788,39.772991180447,30.658441543626,224
1.6495052624393E+018,10,1.6495052624393E+018,r1000913c5/base_footprint,0,1.6495052624393E+018,v/m1vw10zy74w/map,-4.31292737755,-2.48125910923,0,0,0,-0.710788973688,0.703405313375,0,60.7823219299,6.04575157166,44.8069038391,95.9986190796,38.8857421875,38.8857421875,60.7823219299,60.7823219299,31.4792499542,0.961009144783,0,0.00244192732498,0.181800097227,0.0407115891576,0.0431535132229,9.1957988739,0.603337466717,-1.56512451172,-0.0165738277137,0.88724899292,0.0223078262061,-0.820808410645,-0.0267726723105,15.24155044556,94.43349456788,39.77299118042,30.658441543555,224
1.64950526253947E+018,11,1.64950526253947E+018,r1000913c5/base_footprint,0,1.64950526253947E+018,v/m1vw10zy74w/map,-4.31292737755,-2.48125910923,0,0,0,-0.710788973688,0.703405313375,0,60.9983558655,9.16954994202,44.7593460083,95.9986190796,38.9449615479,38.9449615479,60.9983558655,60.9983558655,28.2302322388,0.560480356216,0,0.0024324816186,0.209735900164,0.0346229113638,0.0370553955436,6.07200050354,0.398384690285,-1.56512451172,-0.0165738277137,0.828029632568,0.0208188928664,2.42820930481,0.0792019814253,15.24155044556,94.43349456788,39.772991180468,30.65844154361,224
1.64950526263952E+018,12,1.64950526263952E+018,r1000913c5/base_footprint,0,1.64950526263952E+018,v/m1vw10zy74w/map,-4.31292737755,-2.48125910923,0,0,0,-0.710788973688,0.703405313375,0,61.1455383301,10.7217359543,44.7754096985,95.9986190796,39.2752914429,39.2752914429,61.1455383301,61.1455383301,29.1485214233,0.453889787197,0,0.00135954411235,0.20428802073,0.0299157202244,0.0312752649188,4.51981449127,0.296545594931,-1.56512451172,-0.0165738277137,0.497699737549,0.0125135099515,1.50992012024,0.0492497347295,15.24155044557,94.43349456788,39.772991180449,30.65844154354,224
1.64950526273926E+018,13,1.64950526273926E+018,r1000913c5/base_footprint,0,1.64950526273926E+018,v/m1vw10zy74w/map,-4.31854244454,-2.35083966399,0,0,0,-0.710222191011,0.703977584441,0,61.4354667664,18.1585674286,44.8405265808,96.2325897217,39.621673584,39.621673584,61.4354667664,61.4354667664,28.5129642487,0.478932380676,0,0.00189233652782,0.187607377768,0.0294345729053,0.0313269086182,-1.07782745361,-0.0631019175053,-1.78240203857,-0.0188713446259,0.356788635254,0.00892452150583,2.15542984009,0.0702817961574,17.08073997499,94.45018768313,39.978462219254,30.66839408879,273
1.64950526283934E+018,14,1.64950526283934E+018,r1000913c5/base_footprint,0,1.64950526283934E+018,v/m1vw10zy74w/map,-4.31854244454,-2.35083966399,0,0,0,-0.710222191011,0.703977584441,0,61.9116439819,15.1660661697,44.935295105,96.2325897217,39.9118881226,39.9118881226,61.9116439819,61.9116439819,23.0761241913,0.66466152668,0,0.00205185892992,0.179848402739,0.0310622211546,0.033114079386,1.91467380524,0.112095482647,-1.78240203857,-0.0188713446259,0.0665740966797,0.00166524911765,7.59226989746,0.247560068965,17.08073997494,94.45018768313,39.9784622192797,30.66839408876,273
1.64950526293929E+018,15,1.64950526293929E+018,r1000913c5/base_footprint,0,1.64950526293929E+018,v/m1vw10zy74w/map,-4.31371798472,-2.23284716437,0,0,0,-0.706064821933,0.708147207315,0,62.2802391052,16.5341815948,45.0474205017,96.4699783325,40.1342124939,40.1342124939,62.2802391052,62.2802391052,19.6970691681,0.508603870869,0,0.000515975989401,0.166570186615,0.0172812379897,0.0167652629316,3.56055259705,0.177188336849,-1.97064971924,-0.0208535846323,1.45601272583,0.0350085310638,9.22738265991,0.319016695023,20.09473419185,94.49932861326,41.59022521973,28.92445182801,528
1.64950526303923E+018,16,1.64950526303923E+018,r1000913c5/base_footprint,0,1.64950526303923E+018,v/m1vw10zy74w/map,-4.31371798472,-2.23284716437,0,0,0,-0.706064821933,0.708147207315,0,61.751914978,15.7392683029,45.197052002,96.4699783325,40.3883590698,40.3883590698,61.751914978,61.751914978,31.9517097473,0.394323050976,0,0.000732680724468,0.137707665563,8.35548053146E-05,0.000816235551611,4.35546588898,0.216746628284,-1.97064971924,-0.0208535846323,1.2018661499,0.0288978032768,-3.02725791931,-0.104660853744,20.09473419188,94.49932861326,41.5902252197,28.92445182799,528
1.64950526313929E+018,17,1.64950526313929E+018,r1000913c5/base_footprint,0,1.64950526313929E+018,v/m1vw10zy74w/map,-4.31405728359,-2.12473201665,0,0,0,-0.705043926869,0.709163634985,0,61.994556427,16.5341815948,45.3449287415,96.3210525513,40.5312805176,40.5312805176,61.994556427,61.994556427,28.5916252136,0.41662684083,0,0.00082755764015,0.125915378332,0.00283446465619,0.00200690701604,3.67421531677,0.181816264987,-1.82036590576,-0.0192629918456,0.916236877441,0.0221059527248,0.43567276001,0.0150090707466,20.20839691157,94.50068664554,41.447517395041,29.02729797361,590
1.64950526323931E+018,18,1.64950526323931E+018,r1000913c5/base_footprint,0,1.64950526323931E+018,v/m1vw10zy74w/map,-4.31405728359,-2.12473201665,0,0,0,-0.705043926869,0.709163634985,0,62.6798744202,12.7651062012,45.3949661255,96.3210525513,40.7182884216,40.7182884216,62.6798744202,62.6798744202,18.2755451202,0.348417639732,0,0.000558753090445,0.109491787851,0.0085746916011,0.00801593903452,7.44329071045,0.368326634169,-1.82036590576,-0.0192629918456,0.729228973389,0.0175940319896,10.7517528534,0.370401442051,20.20839691165,94.50068664554,41.447517394989,29.0272979736,590
1.64950526333916E+018,19,1.64950526333916E+018,r1000913c5/base_footprint,0,1.64950526333916E+018,v/m1vw10zy74w/map,-4.31411720815,-2.00769741467,0,0,0,-0.705987583858,0.708224209865,0,62.4279251099,15.6186609268,45.4585227966,96.16355896,40.8733558655,40.8733558655,62.4279251099,62.4279251099,23.9184303284,0.308971971273,0,6.82746540406E-05,0.100961536169,0.0124382963404,0.0123700210825,4.60972118378,0.227883830667,-1.68039703369,-0.0177851486951,0.390251159668,0.00945751462132,5.27401161194,0.180663600564,20.22838211058,94.48316192631,41.263607025168,29.19244194034,657
1.64950526343939E+018,20,1.64950526343939E+018,r1000913c5/base_footprint,0,1.64950526343939E+018,v/m1vw10zy74w/map,-4.31411720815,-2.00769741467,0,0,0,-0.705987583858,0.708224209865,0,62.2465057373,17.9784584045,45.7114143372,96.16355896,40.8613700867,40.8613700867,62.2465057373,62.2465057373,27.0545310974,0.234863817692,0,3.78156664738E-06,0.0881676524878,0.0178900659084,0.0178938470781,2.24992370605,0.111226081848,-1.68039703369,-0.0177851486951,0.402236938477,0.00974798295647,2.1379108429,0.0732350796461,20.22838211055,94.48316192631,41.263607025177,29.1924419403,657
1.6495052635391E+018,21,1.6495052635391E+018,r1000913c5/base_footprint,0,1.6495052635391E+018,v/m1vw10zy74w/map,-4.3158643111,-1.89388554611,0,0,0,-0.706043499129,0.708168466777,0,62.7217330933,17.9784584045,46.5319709778,95.7466049194,40.8935432434,40.8935432434,62.7217330933,62.7217330933,17.3468475342,0.435360431671,0,0.000177601512405,0.0752536207438,0.0192323736846,0.019409975037,2.81669998169,0.135449796915,-1.23707580566,-0.0130894295871,0.47681427002,0.0115255052224,11.9233932495,0.407355487347,20.79515838619,94.50952911374,41.37035751342,29.2702407837,654
1.64950526363943E+018,22,1.64950526363943E+018,r1000913c5/base_footprint,0,1.64950526363943E+018,v/m1vw10zy74w/map,-4.322346227,-1.77646376786,0,0,0,-0.70498969437,0.709217548311,0,62.8267211914,16.906621933,47.3135375977,95.7367477417,40.8727226257,40.8727226257,62.8267211914,62.8267211914,15.1967477798,0.440340399742,0,0.000738991249818,0.0675978660583,0.0201099384576,0.020848929882,3.88443183899,0.186831891537,-1.23607635498,-0.0130800800398,0.48416519165,0.011707002297,14.0693922043,0.480739593506,20.79105377199,94.50067138672,41.35688781735,29.2661399841,669
1.64950526373918E+018,23,1.64950526373918E+018,r1000913c5/base_footprint,0,1.64950526373918E+018,v/m1vw10zy74w/map,-4.322346227,-1.77646376786,0,0,0,-0.70498969437,0.709217548311,0,62.5684738159,17.3967456818,47.7231674194,95.7367477417,40.8726844788,40.8726844788,62.5684738159,62.5684738159,19.8447875977,0.553676187992,0,0.000760671682656,0.0601280704141,0.0196074452251,0.0203681159765,3.39430809021,0.163258105516,-1.23607635498,-0.0130800800398,0.484203338623,0.0117079252377,9.42135238647,0.321919888258,20.79105377201,94.50067138672,41.356887817423,29.26613998417,669
1.64950526383916E+018,24,1.64950526383916E+018,r1000913c5/base_footprint,0,1.64950526383916E+018,v/m1vw10zy74w/map,-4.31737988138,-1.68486276193,0,0,0,-0.705935437057,0.708276188155,0,62.0622253418,13.0074567795,48.0730667114,95.5902633667,40.7847099304,40.7847099304,62.0622253418,62.0622253418,27.4797534943,0.583593726158,0,0.000722245313227,0.055309034884,0.0199554413557,0.0206776876003,7.46941661835,0.36477330327,-1.07475280762,-0.0113711794838,0.5198097229,0.0125848148018,1.63491439819,0.0561543218791,20.47687339785,94.51551055908,41.3045196533,29.11466789249,672
1.64950526393911E+018,25,1.64950526393911E+018,r1000913c5/base_footprint,0,1.64950526393911E+018,v/m1vw10zy74w/map,-4.32271298574,-1.67179017557,0,0,0,-0.704626508464,0.709578384373,0,62.1518325806,15.7279930115,48.2153892517,95.8618011475,40.663684845,40.663684845,62.1518325806,62.1518325806,25.5372486115,0.553070247173,0,0.0004905766109,0.0501168742776,0.0201871115714,0.0206776876003,4.74888038635,0.231914326549,-1.34629058838,-0.014244123362,0.64083480835,0.0155148832127,3.57741928101,0.122873432934,20.47687339785,94.51551055912,41.30451965335,29.11466789251,672
1.64950526403916E+018,26,1.64950526403916E+018,r1000913c5/base_footprint,0,1.64950526403916E+018,v/m1vw10zy74w/map,-4.31736084719,-1.56479112226,0,0,0,-0.705384920919,0.708824458762,0,62.1295928955,12.6050424576,48.2709350586,95.8361358643,40.4094619751,40.4094619751,62.1295928955,62.1295928955,23.0996341705,0.608141064644,0,0.000591949326918,0.0418742224574,0.0206197407097,0.0212116893381,7.32481479645,0.367529720068,-1.2903137207,-0.013647495769,0.801273345947,0.0194433163851,5.90997314453,0.203724682331,19.92985725405,94.5458221436,41.210735321047,29.00960731503,683
1.64950526413908E+018,27,1.64950526413908E+018,r1000913c5/base_footprint,0,1.64950526413908E+018,v/m1vw10zy74w/map,-4.31753288567,-1.57479044963,0,0,0,-0.705066556635,0.709141135963,0,61.7744026184,11.1299200058,48.2653694153,96.1238708496,40.0519676208,40.0519676208,61.7744026184,61.7744026184,26.6679039001,0.51607465744,0,0.000588204071391,0.0372340753675,0.0206234864891,0.0212116893381,8.79993724823,0.441545426846,-1.57804870605,-0.0166908353567,1.1587677002,0.0281181037426,2.34170341492,0.0807216539979,19.92985725403,94.54582214355,41.210735321,29.00960731502,683
1.64950526423949E+018,28,1.64950526423949E+018,r1000913c5/base_footprint,0,1.64950526423949E+018,v/m1vw10zy74w/map,-4.31753288567,-1.57479044963,0,0,0,-0.705066556635,0.709141135963,0,61.274936676,13.4948101044,48.2817420959,96.1238708496,39.7394180298,39.7394180298,61.274936676,61.274936676,32.2828025818,0.731674730778,0,0.000542394991498,0.0314215347171,0.0206692945212,0.0212116893381,6.43504714966,0.322884768248,-1.57804870605,-0.0166908353567,1.47131729126,0.0357022807002,-3.27319526672,-0.112831421196,19.92985725406,94.54582214355,41.21073532106,29.00960731508,683
1.64950526433972E+018,29,1.64950526433972E+018,r1000913c5/base_footprint,0,1.64950526433972E+018,v/m1vw10zy74w/map,-4.31965683735,-1.47631520392,0,0,0,-0.706677002044,0.707536299268,0,61.4569625854,12.4087591171,48.4021263123,96.4776687622,39.4793434143,39.4793434143,61.4569625854,61.4569625854,27.4711971283,0.61483579874,0,0.00045870942995,0.0253753568977,0.0201219413429,0.0205806512386,7.16858577728,0.366167426109,-1.91737365723,-0.0202767308801,1.67765426636,0.040762308985,1.41717910767,0.0490570701659,19.57734489438,94.56029510497,41.15699768066,28.88837623597,671
1.64950526443923E+018,30,1.64950526443923E+018,r1000913c5/base_footprint,0,1.64950526443923E+018,v/m1vw10zy74w/map,-4.31965683735,-1.47631520392,0,0,0,-0.706677002044,0.707536299268,0,61.1798782349,9.43715572357,48.4784584045,96.4776687622,39.178894043,39.178894043,61.1798782349,61.1798782349,29.2138595581,0.554760038853,0,0.000338004989317,0.0208432488143,0.0199191868305,0.0202571917325,10.1401891708,0.517955303192,-1.91737365723,-0.0202767308801,1.9781036377,0.0480623878539,-0.325483322144,-0.0112669300288,19.57734489437,94.56029510497,41.1569976807,28.888376235956,671
1.6495052645392E+018,31,1.6495052645392E+018,r1000913c5/base_footprint,0,1.6495052645392E+018,v/m1vw10zy74w/map,-4.31935097751,-1.37627665416,0,0,0,-0.706491028856,0.707721997783,0,61.2546691895,9.88735961914,48.5681304932,96.5155715942,38.9042663574,38.9042663574,61.2546691895,61.2546691895,25.0381145477,0.603854775429,0,0.000394420669181,0.0130280219018,0.0195535458624,0.0199479665607,8.85517501831,0.472464114428,-1.94766235352,-0.020595382899,2.14742279053,0.0523102171719,3.64350318909,0.127032697201,18.74253463745,94.56790924068,41.05168914793,28.68161773679,682
1.64950526463926E+018,32,1.64950526463926E+018,r1000913c5/base_footprint,0,1.64950526463926E+018,v/m1vw10zy74w/map,-4.31935097751,-1.37627665416,0,0,0,-0.706491028856,0.707721997783,0,60.7881164551,10.5219554901,48.4853248596,96.5155715942,38.7039794922,38.7039794922,60.7881164551,60.7881164551,31.27293396,0.463399022818,0,0.000440307892859,0.0099590215832,0.0195076595992,0.0199479665607,8.22057914734,0.438605517149,-1.94766235352,-0.020595382899,2.34770965576,0.0571891106665,-2.59131622314,-0.0903476327658,18.74253463744,94.56790924068,41.05168914796,28.68161773686,682
1.64950526473903E+018,33,1.64950526473903E+018,r1000913c5/base_footprint,0,1.64950526473903E+018,v/m1vw10zy74w/map,-4.32230346448,-1.27356056957,0,0,0,-0.706890656449,0.707322839886,0,61.0168457031,8.78090381622,48.4464073181,96.6851501465,38.417640686,38.417640686,61.0168457031,61.0168457031,24.673866272,0.510057389736,0,0.000444971752586,0.0239615198225,0.0195029955357,0.0199479665607,6.43063354492,0.42274710536,-2.13330078125,-0.0225622318685,1.26803588867,0.0319519788027,4.59843635559,0.157091721892,15.21153736114,94.55184936525,39.68567657467,29.27230262759,494
1.64950526493935E+018,34,1.64950526493935E+018,r1000913c5/base_footprint,0,1.64950526493935E+018,v/m1vw10zy74w/map,-4.32230346448,-1.27356056957,0,0,0,-0.706890656449,0.707322839886,0,60.8872070312,8.97380828857,48.4935035706,96.6851501465,38.2255096436,38.2255096436,60.8872070312,60.8872070312,24.9322834015,0.432067245245,0,0.000396892486606,0.0646552368999,0.0199111457914,0.0203080382198,6.23772907257,0.41006565094,-2.13330078125,-0.0225622318685,1.46016693115,0.0367932990193,4.34001922607,0.148263677955,15.21153736114,94.55184936525,39.68567657475,29.27230262757,494
1.64950526503929E+018,35,1.64950526503929E+018,r1000913c5/base_footprint,0,1.64950526503929E+018,v/m1vw10zy74w/map,-4.32230346448,-1.27356056957,0,0,0,-0.706890656449,0.707322839886,0,60.9943885803,6.57439422607,48.5789718628,96.6851501465,37.9514884949,37.9514884949,60.9943885803,60.9943885803,20.0436210632,0.285967826843,0,0.000762094045058,0.109044805169,0.0204400736839,0.0212021674961,8.63714313507,0.567802131176,-2.13330078125,-0.0225622318685,1.73418807983,0.0436980836093,9.22868156433,0.315270096064,15.21153736114,94.55184936525,39.68567657473,29.27230262753,494
1.64950526513956E+018,36,1.64950526513956E+018,r1000913c5/base_footprint,0,1.64950526513956E+018,v/m1vw10zy74w/map,-4.32688809123,-1.16169072222,0,0,0,-0.704716044341,0.709489462113,0,60.4766197205,11.764705658,48.6820602417,96.601524353,37.8497238159,37.8497238159,60.4766197205,60.4766197205,27.9633579254,0.470972329378,0,7.42612828617E-05,0.13798224926,0.0142466574907,0.0141723966226,-0.276061058044,-0.0240290369838,-2.41050720215,-0.0255916882306,4.13315200806,0.0984485223889,2.96413803101,0.095841512084,11.488644599956,94.19101715085,41.98287582396,30.92749595641,1042
1.6495052652391E+018,37,1.6495052652391E+018,r1000913c5/base_footprint,0,1.6495052652391E+018,v/m1vw10zy74w/map,-4.32468276751,-1.048307261,0,0,0,-0.704560012582,0.709644410019,0,60.307220459,7.25633335114,48.7713508606,96.621383667,37.7472305298,37.7472305298,60.307220459,60.307220459,29.9771347046,0.274870336056,0,0.000128451254568,0.151694834232,0.0115612056106,0.0116896564141,2.9154624939,0.286622196436,-2.56683349609,-0.0272909011692,5.15365982056,0.120129436255,1.91069602966,0.0599192865193,10.17179584504,94.05455017091,42.90089035036,31.88783073426,1374
1.64950526533925E+018,38,1.64950526533925E+018,r1000913c5/base_footprint,0,1.64950526533925E+018,v/m1vw10zy74w/map,-4.32468276751,-1.048307261,0,0,0,-0.704560012582,0.709644410019,0,60.3498001099,6.39759540558,48.8160018921,96.621383667,37.5710487366,37.5710487366,60.3498001099,60.3498001099,27.3079051971,0.713398694992,0,0.000133757435833,0.153961360455,0.00693666562438,0.00707042310387,3.77420043945,0.371045619249,-2.56683349609,-0.0272909011692,5.32984161377,0.124236151576,4.57992553711,0.143626123667,10.17179584503,94.05455017091,42.90089035037,31.88783073421,1374
1.6495052654393E+018,39,1.6495052654393E+018,r1000913c5/base_footprint,0,1.6495052654393E+018,v/m1vw10zy74w/map,-4.32803124951,-0.935994289794,0,0,0,-0.704927917047,0.709278952012,0,61.0239524841,7.92838859558,48.9678535461,96.5534057617,37.5436553955,37.5436553955,61.0239524841,61.0239524841,14.6325674057,0.422188729048,0,0.000274657533737,0.150306671858,0.00765286153182,0.00792751926929,1.94803333282,0.197240799665,-2.51517486572,-0.0267463009804,5.53002166748,0.128385171294,17.3652954102,0.542701721191,9.8764219284,94.03823089598,43.07367706298,31.9978628159,1445
1.64950526553917E+018,40,1.64950526553917E+018,r1000913c5/base_footprint,0,1.64950526553917E+018,v/m1vw10zy74w/map,-4.32682174422,-0.93501857188,0,0,0,-0.704458349913,0.709745329846,0,60.1766281128,8.21860694885,48.806602478,96.7608566284,37.4559555054,37.4559555054,60.1766281128,60.1766281128,29.6841144562,0.0416339822114,0,0.000360151112545,0.148816019297,0.00574258016422,0.00610273145139,1.65781497955,0.167855829,-2.72262573242,-0.0289523284882,5.61772155762,0.130421221256,2.31374931335,0.0723094940186,9.8764219284,94.03823089598,43.07367706302,31.99786376955,1445
1.64950526563931E+018,41,1.64950526563931E+018,r1000913c5/base_footprint,0,1.64950526563931E+018,v/m1vw10zy74w/map,-4.32682174422,-0.93501857188,0,0,0,-0.704458349913,0.709745329846,0,60.8083343506,8.59077453613,48.7336654663,96.7608566284,37.410358429,37.410358429,60.8083343506,60.8083343506,17.8209629059,0.105982355773,0,0.00014005684352,0.148613005877,0.00292772008106,0.00306777679361,1.28564739227,0.130173400044,-2.72262573242,-0.0289523284882,5.66331863403,0.131479799747,14.1769008636,0.443057715893,9.8764219284,94.03823089598,43.07367706303,31.9978637695,1445
1.64950526573924E+018,42,1.64950526573924E+018,r1000913c5/base_footprint,0,1.64950526573924E+018,v/m1vw10zy74w/map,-4.33021020196,-0.820147937814,0,0,0,-0.704635489034,0.709569466363,0,60.7047271729,9.63341903687,48.6587905884,96.5022735596,37.3461341858,37.3461341858,60.7047271729,60.7047271729,18.0613193512,0.318938136101,0,0.000736759626307,0.148974373937,0.00046072434634,0.00119748397265,0.0654001235962,0.00674310186878,-2.48049163818,-0.0263820961118,5.9794883728,0.138012751937,14.1994380951,0.440145850182,9.6988191604662,94.02178192142,43.3256225586,32.2607574463,1446
1.64950526583961E+018,43,1.64950526583961E+018,r1000913c5/base_footprint,0,1.64950526583961E+018,v/m1vw10zy74w/map,-4.33021020196,-0.820147937814,0,0,0,-0.704635489034,0.709569466363,0,60.8626708984,9.36819171906,48.614906311,96.5022735596,37.4011535645,37.4011535645,60.8626708984,60.8626708984,15.8125972748,0.271915107965,0,0.000957933138125,0.149354368448,0.00144559913315,0.00240353215486,0.330627441406,0.0340894535184,-2.48049163818,-0.0263820961118,5.92446899414,0.136742845178,16.4481601715,0.509850382805,9.698819160466,94.02178192142,43.32562255864,32.2607574463,1446
1.6495052659392E+018,44,1.6495052659392E+018,r1000913c5/base_footprint,0,1.6495052659392E+018,v/m1vw10zy74w/map,-4.33055439537,-0.701508471602,0,0,0,-0.705057176748,0.709150461832,0,60.6999092102,12.6297578812,48.6044197083,96.2133102417,37.4286842346,37.4286842346,60.6999092102,60.6999092102,17.9993610382,0.335401833057,0,0.000908681191504,0.14907631278,0.000838705920614,0.00174738711212,-3.17880153656,-0.336347073317,-2.23056030273,-0.0237337201834,6.14514541626,0.141028359532,14.3507137299,0.443606823683,9.45095634464,93.98274993897,43.57382965086,32.3500747681,1375
1.64950526603924E+018,45,1.64950526603924E+018,r1000913c5/base_footprint,0,1.64950526603924E+018,v/m1vw10zy74w/map,-4.33256819953,-0.609595557452,0,0,0,-0.705813957694,0.708397245283,0,60.0511932373,7.8138718605,48.6284828186,96.0417098999,37.4298439026,37.4298439026,60.0511932373,60.0511932373,29.0709896088,0.215097680688,0,0.000522272661328,0.14930640161,3.96534669562E-05,0.000482619187096,1.62441110611,0.172108754516,-2.06275939941,-0.0219491645694,6.2035446167,0.142174258828,3.2669506073,0.101025313139,9.43828296661,93.97895050049,43.6333885193,32.3379402161,1336
1.6495052669391E+018,46,1.6495052669391E+018,r1000913c5/base_footprint,0,1.6495052669391E+018,v/m1vw10zy74w/map,-4.33167567282,-0.504237999678,0,0,0,-0.706309405846,0.707903258372,0,60.2162818909,11.1299200058,48.6050720215,96.0481719971,37.4415359497,37.4415359497,60.2162818909,60.2162818909,26.2489376068,0.0173590872437,0,0.000848293420859,0.209025993943,0.0407868139446,0.0399385206401,-1.727602005,-0.183742135763,-2.09799957275,-0.0223309807479,6.20767593384,0.142217367887,5.91332054138,0.183858990669,9.4023180008,93.95017242435,43.64921188354,32.16225814818,1197
1.64950526703977E+018,47,1.64950526703977E+018,r1000913c5/base_footprint,0,1.64950526703977E+018,v/m1vw10zy74w/map,-4.33167567282,-0.504237999678,0,0,0,-0.706309405846,0.707903258372,0,60.397808075,8.97380828857,48.5636558533,96.0481719971,37.3944625854,37.3944625854,60.397808075,60.397808075,22.4730396271,0.0434219501913,0,0.000928282679524,0.210697889328,0.0848637223244,0.0839354395866,0.428509712219,0.0455748997629,-2.09799957275,-0.0223309807479,6.2547492981,0.143295809627,9.68921852112,0.301260530949,9.402318000789,93.95017242435,43.6492118835,32.16225814822,1197
1.64950526713913E+018,48,1.64950526713913E+018,r1000913c5/base_footprint,0,1.64950526713913E+018,v/m1vw10zy74w/map,-4.32990412795,-0.524470855536,0,0,0,-0.667369775062,0.744726515798,0,60.2717552185,1.68067228794,48.5231361389,95.7855987549,37.1128730774,37.1128730774,60.2717552185,60.2717552185,20.7555732727,0.460820347071,0,0.000929901143536,0.208564817905,0.14276663959,0.141836747527,7.71417284012,0.82110697031,-1.81708526611,-0.0193371716887,6.55727005005,0.150154531002,11.533996582,0.357205033302,9.39484512806,93.96851348879,43.67014312745,32.2895698547,1249
1.64950526723915E+018,49,1.64950526723915E+018,r1000913c5/base_footprint,0,1.64950526723915E+018,v/m1vw10zy74w/map,-4.32514104675,-0.532137105493,0,0,0,-0.66701298174,0.745046094003,0,59.338508606,0,48.5081291199,95.7926940918,36.8222999573,36.8222999573,59.338508606,59.338508606,34.4414253235,0.394390940666,0,0.00160894787405,0.205690592527,0.184162899852,0.182553946972,9.39484500885,1,-1.82418060303,-0.0194126795977,6.84784317017,0.15680834651,-2.15185546875,-0.0666424334049,9.39484500885,93.96851348877,43.67014312747,32.28956985475,1249
1.64950526733929E+018,50,1.64950526733929E+018,r1000913c5/base_footprint,0,1.64950526733929E+018,v/m1vw10zy74w/map,-4.32075427938,-0.571208594091,0,0,0,-0.627168417316,0.778883673164,0,59.2775344849,0,48.4653930664,95.7214050293,36.4232826233,36.4232826233,59.2775344849,59.2775344849,30.97290802,-0.160330340266,0,0.00189650303219,0.201922222972,0.223592683673,0.221696183085,9.38878250122,1,-1.74385070801,-0.0185560341924,7.24563217163,0.165921971202,1.34059143066,0.0414870381355,9.38878250122,93.97755432129,43.66891479493,32.31349945066,1290
1.64950526743949E+018,51,1.64950526743949E+018,r1000913c5/base_footprint,0,1.64950526743949E+018,v/m1vw10zy74w/map,-4.31889941965,-0.571739927025,0,0,0,-0.620754465528,0.784005034121,0,58.4576644897,0,48.4375190735,95.7893981934,36.1097297668,36.1097297668,58.4576644897,58.4576644897,42.5889816284,-0.0338954441249,0,0.00176800764166,0.200677081943,0.232922822237,0.231154814363,9.38878250122,1,-1.81184387207,-0.0192795377225,7.55918502808,0.173102200031,-10.2754821777,-0.317993491888,9.38878250122,93.97755432133,43.66891479488,32.3134994507,1290
1.64950526753975E+018,52,1.64950526753975E+018,r1000913c5/base_footprint,0,1.64950526753975E+018,v/m1vw10zy74w/map,-4.31889941965,-0.571739927025,0,0,0,-0.620754465528,0.784005034121,0,58.4348106384,0,48.3589324951,95.7893981934,35.8744735718,35.8744735718,58.4348106384,58.4348106384,40.4595451355,0.37764570117,0,0.00155375269242,0.199340939522,0.242338001728,0.240784242749,9.38878250122,1,-1.81184387207,-0.0192795377225,7.79444122314,0.178489461541,-8.14604568481,-0.252094209194,9.38878250122,93.97755432133,43.66891479494,32.31349945069,1290
1.64950526763936E+018,53,1.64950526763936E+018,r1000913c5/base_footprint,0,1.64950526763936E+018,v/m1vw10zy74w/map,-4.31138773304,-0.601682325684,0,0,0,-0.580795441438,0.814049541002,0,58.3850708008,0,48.2068519592,95.742401123,35.6687164307,35.6687164307,58.3850708008,58.3850708008,38.96352005,-0.149858474731,0,0.00107103807386,0.195499464869,0.277527153492,0.27645611763,9.38878250122,1,-1.76484680176,-0.0187794510275,8.00019836426,0.183201223612,-6.65002059937,-0.205796986818,9.38878250122,93.97755432124,43.66891479496,32.31349945063,1290
1.64950526773981E+018,54,1.64950526773981E+018,r1000913c5/base_footprint,0,1.64950526773981E+018,v/m1vw10zy74w/map,-4.30661370151,-0.609686614733,0,0,0,-0.56481267963,0.825219144791,0,58.5534934998,0,48.0190353394,95.8843460083,35.5093765259,35.5093765259,58.5534934998,58.5534934998,34.7220077515,-0.353607416153,0,0.000915825832635,0.189641907811,0.279441714287,0.27852588892,9.43828296661,1,-1.90539550781,-0.0202747043222,8.12401199341,0.186187967658,-2.3840675354,-0.07372353971,9.43828296661,93.97895050049,43.63338851931,32.3379402161,1336
1.64950526793925E+018,55,1.64950526793925E+018,r1000913c5/base_footprint,0,1.64950526793925E+018,v/m1vw10zy74w/map,-4.29108926668,-0.646817600107,0,0,0,-0.517917684105,0.855430460348,0,57.8483276367,0,47.8312225342,96.0607299805,35.3795661926,35.3795661926,57.8483276367,57.8483276367,46.6480255127,-0.202588811517,0,0.0014889286831,0.149410113692,0.242554083467,0.24106515944,9.43828296661,1,-2.08177947998,-0.0221515502781,8.25382232666,0.189162999392,-14.3100852966,-0.442516893148,9.43828296661,93.97895050052,43.63338851926,32.3379402161,1336
1.64950526803932E+018,56,1.64950526803932E+018,r1000913c5/base_footprint,0,1.64950526803932E+018,v/m1vw10zy74w/map,-4.27444418346,-0.667045528121,0,0,0,-0.466513254433,0.884514207595,0,58.0868148804,0,47.5112800598,96.3874053955,35.2363853455,35.2363853455,58.0868148804,58.0868148804,41.9849586487,-0.151176005602,0,0.000777386536356,0.115620926023,0.187584504485,0.186807125807,9.36221504211,1,-2.39008331299,-0.0254271421582,8.325756073,0.191123664379,-9.69891738892,-0.30040588975,9.36221504211,93.99732208251,43.5621414185,32.28604125978,1380
1.64950526813913E+018,57,1.64950526813913E+018,r1000913c5/base_footprint,0,1.64950526813913E+018,v/m1vw10zy74w/map,-4.27009291518,-0.66526986239,0,0,0,-0.411262588699,0.911516913248,0,58.0754203796,0,46.9843864441,96.0676651001,35.1774101257,35.1774101257,58.0754203796,58.0754203796,40.4020843506,0.057891022414,0,0.000896098092198,0.104067787528,0.177186056972,0.178082153201,9.36221504211,1,-2.07034301758,-0.0220255535096,8.38473129272,0.192477479577,-8.11604309082,-0.251379311085,9.36221504211,93.99732208252,43.56214141842,32.28604125978,1380
1.64950526833912E+018,58,1.64950526833912E+018,r1000913c5/base_footprint,0,1.64950526833912E+018,v/m1vw10zy74w/map,-4.26661654806,-0.667810370285,0,0,0,-0.355721316275,0.934592074195,0,58.2577667236,0,46.4692344666,95.8449325562,35.0543251038,35.0543251038,58.2577667236,58.2577667236,34.9886512756,0.238758891821,0,0.00383639964275,0.105970717967,0.102100707591,0.105937108397,9.36221504211,1,-1.84761047363,-0.0196559913456,8.5078163147,0.195302993059,-2.70261001587,-0.0837083086371,9.36221504211,93.99732208257,43.5621414185,32.28604125973,1380
1.64950526843905E+018,59,1.64950526843905E+018,r1000913c5/base_footprint,0,1.64950526843905E+018,v/m1vw10zy74w/map,-4.26661654806,-0.667810370285,0,0,0,-0.355721316275,0.934592074195,0,58.2938919067,0,45.5345802307,95.8449325562,35.1435089111,35.1435089111,58.2938919067,58.2938919067,35.301612854,0.10058260709,0,0.00355122680776,0.0671006143093,0.151717916131,0.155269145966,9.36221504211,1,-1.84761047363,-0.0196559913456,8.41863250732,0.193255707622,-3.01557159424,-0.0934017151594,9.36221504211,93.99732208257,43.56214141842,32.28604125976,1380
1.64950526853906E+018,60,1.64950526853906E+018,r1000913c5/base_footprint,0,1.64950526853906E+018,v/m1vw10zy74w/map,-4.24002914041,-0.688560957671,0,0,0,-0.309339243991,0.950951750683,0,58.2371482849,0,44.7276420593,95.9420852661,35.1707572937,35.1707572937,58.2371482849,58.2371482849,36.967048645,-0.18070307374,0,0.00378070631996,0.0361831858754,0.159628137946,0.163408845663,9.36221504211,1,-1.94476318359,-0.0206895601004,8.39138412476,0.192630201578,-4.68100738525,-0.144985482097,9.36221504211,93.99732208251,43.56214141846,32.28604125975,1380
1.64950526863921E+018,61,1.64950526863921E+018,r1000913c5/base_footprint,0,1.64950526863921E+018,v/m1vw10zy74w/map,-4.24002914041,-0.688560957671,0,0,0,-0.309339243991,0.950951750683,0,57.2905158997,0,44.0766639709,95.9420852661,35.1020431519,35.1020431519,57.2905158997,57.2905158997,53.2643089294,0.147001639009,0,0.00358852487989,0.0140511626378,0.172126874328,0.175715401769,9.36221504211,1,-1.94476318359,-0.0206895601004,8.4600982666,0.194207578897,-20.9782676697,-0.649762749672,9.36221504211,93.99732208251,43.5621414185,32.2860412597,1380
1.64950526993985E+018,62,1.64950526993985E+018,r1000913c5/base_footprint,0,1.64950526993985E+018,v/m1vw10zy74w/map,-3.13903436646,-0.834934832633,0,0,0,-0.104653571896,0.994508737965,0,61.4690246582,2.77102565765,45.2589416504,96.1149139404,39.3711624146,39.3711624146,61.4690246582,61.4690246582,24.7797813416,0.494469553232,0,0.0065585472621,0.0354301519692,0.166714683175,0.160156130791,5.10917377472,0.648355901241,-2.2967300415,-0.0244806483388,6.56074523926,0.142836332321,10.4944534302,0.297510445118,7.88019943237,93.8181838989,45.93190765386,35.2742347718,781
1.64950527003927E+018,63,1.64950527003927E+018,r1000913c5/base_footprint,0,1.64950527003927E+018,v/m1vw10zy74w/map,-3.03269380776,-0.808809628418,0,0,0,-0.112410887656,0.993661809841,0,60.8745422363,0,46.2714500427,96.224067688,39.8081855774,39.8081855774,60.8745422363,60.8745422363,40.5932846069,-0.0485590919852,0,0.00433375919238,0.034569632262,0.154054999352,0.149721249938,8.41542816162,1,-2.37573242188,-0.0253145936877,6.26839828491,0.136043027043,-5.52780151367,-0.157642245293,8.41542816162,93.84833526612,46.07658386231,35.06548309323,767
1.64950527013919E+018,64,1.64950527013919E+018,r1000913c5/base_footprint,0,1.64950527013919E+018,v/m1vw10zy74w/map,-3.03269380776,-0.808809628418,0,0,0,-0.112410887656,0.993661809841,0,60.8463935852,5.46218490601,46.8530311584,96.224067688,40.0354042053,40.0354042053,60.8463935852,60.8463935852,43.5539169312,0.168608173728,0,0.00398017419502,0.00760005693883,0.0912189036608,0.0872387290001,2.95324325562,0.35093203187,-2.37573242188,-0.0253145936877,6.04117965698,0.131111711264,-8.48843383789,-0.242073774338,8.41542816163,93.84833526612,46.07658386228,35.06548309331,767
1.64950527033916E+018,65,1.64950527033916E+018,r1000913c5/base_footprint,0,1.64950527033916E+018,v/m1vw10zy74w/map,-2.93820485093,-0.86106425252,0,0,0,-0.12175928282,0.992559659188,0,61.2162437439,0.701565027237,47.4187088013,95.8672943115,40.2171821594,40.2171821594,61.2162437439,61.2162437439,37.5754470825,0.603449702263,0,0.00218675751239,0.0166343897581,0.0917763784528,0.0895896181464,8.08275794983,0.920134425163,-2.04466247559,-0.0217928495258,5.92306900024,0.128370970488,-2.78329467773,-0.0799977704883,8.784322977067,93.82263183591,46.14025115964,34.79215240477,761
1.64950527043906E+018,66,1.64950527043906E+018,r1000913c5/base_footprint,0,1.64950527043906E+018,v/m1vw10zy74w/map,-2.93820485093,-0.86106425252,0,0,0,-0.12175928282,0.992559659188,0,62.2666244507,11.764705658,47.8589630127,95.8672943115,40.4686126709,40.4686126709,62.2666244507,62.2666244507,21.3840312958,0.51708304882,0,0.00201983842999,0.0262009613216,0.093213558197,0.0911937206984,-2.98038291931,-0.339284300804,-2.04466247559,-0.0217928495258,5.67163848877,0.122921705246,13.408121109,0.3853777349,8.78432273869,93.82263183591,46.14025115967,34.7921524048,761
1.64950527054385E+018,67,1.64950527054385E+018,r1000913c5/base_footprint,0,1.64950527054385E+018,v/m1vw10zy74w/map,-2.81666908776,-0.89016292704,0,0,0,-0.136206791196,0.990680427803,0,61.9115715027,6.95187187195,47.7198104858,95.7306976318,40.6090240479,40.6090240479,61.9115715027,61.9115715027,28.7996692657,0.614831566811,0,0.00173151923809,0.0465564467013,0.099210113287,0.0974785909057,2.46690559387,0.261913567781,-1.96201324463,-0.0209239702672,5.55960845947,0.120419606566,5.26269721985,0.15450181067,9.41877746582,93.76868438717,46.16863250737,34.06236648555,770
1.64950527063958E+018,68,1.64950527063958E+018,r1000913c5/base_footprint,0,1.64950527063958E+018,v/m1vw10zy74w/map,-2.81666908776,-0.89016292704,0,0,0,-0.136206791196,0.990680427803,0,62.262260437,12.0296764374,47.5316925049,95.7306976318,40.8147888184,40.8147888184,62.262260437,62.262260437,24.7095394135,0.507470846176,0,0.00137481663842,0.0847426354885,0.112674474716,0.111299656332,-2.61089897156,-0.277201473713,-1.96201324463,-0.0209239702672,5.35384368896,0.115962795913,9.35282707214,0.274579495192,9.41877746584,93.76868438717,46.16863250736,34.06236648564,770
1.64950527073916E+018,69,1.64950527073916E+018,r1000913c5/base_footprint,0,1.64950527073916E+018,v/m1vw10zy74w/map,-2.68886477038,-0.927162884367,0,0,0,-0.151232925522,0.988498154899,0,62.6724815369,5.88235282898,47.3481941223,95.8293991089,40.8151283264,40.8151283264,62.6724815369,62.6724815369,17.6845436096,0.871089279652,0,0.00181160785723,0.11278680712,0.123111493886,0.121299885213,3.79605197906,0.392218768597,-2.06228637695,-0.0219937060028,5.35921478271,0.11606477946,15.946849823,0.474165588617,9.67840480804,93.76711273195,46.17434310911,33.6313934326,745
1.64950527083925E+018,70,1.64950527083925E+018,r1000913c5/base_footprint,0,1.64950527083926E+018,v/m1vw10zy74w/map,-2.68886477038,-0.927162884367,0,0,0,-0.151232925522,0.988498154899,0,62.1748123169,5.88235282898,47.1270942688,95.8293991089,40.8614425659,40.8614425659,62.1748123169,62.1748123169,27.1428012848,0.817961990833,0,0.00168551539537,0.138063833117,0.128611639142,0.126926124096,3.79605197906,0.392218768597,-2.06228637695,-0.0219937060028,5.31290054321,0.115061745048,6.48859214783,0.192932605743,9.67840480804,93.76711273195,46.17434310911,33.63139343263,745
1.6495052721391E+018,71,1.6495052721391E+018,r1000913c5/base_footprint,0,1.6495052721391E+018,v/m1vw10zy74w/map,-2.35421297346,-1.03783403953,0,0,0,-0.176767110033,0.984252705768,0,61.4765548706,5.25767850876,46.9285430908,95.6085281372,40.8637924194,40.8637924194,61.4765548706,61.4765548706,38.9416351318,1.13991510868,0,0.00303597655147,0.146977424622,0.0232269782573,0.0201910026371,5.22050428391,0.498226106167,-1.78894042969,-0.0190678779036,5.63835906982,0.121249422431,-6.09784698486,-0.18566210568,10.47818279267,93.81958770751,46.50215148922,32.84378814694,738
1.64950527873948E+018,72,1.64950527873948E+018,r1000913c5/base_footprint,0,1.64950527873948E+018,v/m1vw10zy74w/map,-1.91726603571,-1.19878764853,0,0,0,-0.165699381806,0.986176310235,0,62.2326927185,12.0118637085,46.9878082275,96.1532974243,40.8555641174,40.8555641174,62.2326927185,62.2326927185,27.2034759521,-0.182826057076,0,0.000110643166408,0.0442834198475,0.00246433331631,0.00235369009897,-1.4487285614,-0.137149482965,-2.60618591309,-0.0278596077114,5.79560852051,0.124232858419,5.88397598267,0.177831038833,10.5631351471,93.54711151121,46.65117263791,33.08745193477,724
1.64950527883916E+018,73,1.64950527883916E+018,r1000913c5/base_footprint,0,1.64950527883916E+018,v/m1vw10zy74w/map,-1.88207429986,-1.18505851426,0,0,0,-0.160790605802,0.986988541517,0,62.4370994568,14.7058820724,47.0905799866,96.1453933716,41.2541732788,41.2541732788,62.4370994568,62.4370994568,27.8007164001,2.47525715828,0,0.000376931624487,0.0454070866108,0.00146802247036,0.00109109084588,-4.32369804382,-0.41645359993,-2.61721038818,-0.0279831197113,5.43324661255,0.116374962032,5.45437240601,0.16401617229,10.38218402858,93.52818298342,46.68741989135,33.25508880611,724
1.64950527893907E+018,74,1.64950527893907E+018,r1000913c5/base_footprint,0,1.64950527893907E+018,v/m1vw10zy74w/map,-1.88207429986,-1.18505851426,0,0,0,-0.160790605802,0.986988541517,0,63.1071510315,14.9777555466,47.2865371704,96.1453933716,41.699344635,41.699344635,63.1071510315,63.1071510315,20.5476341248,2.81009030342,0,0.000366994965589,0.0464453101158,0.00252646044828,0.00215946557,-4.59557151794,-0.442640155554,-2.61721038818,-0.0279831197113,4.98807525635,0.106839813292,12.7074546814,0.382120609283,10.38218402866,93.52818298342,46.68741989135,33.2550888062,724
1.64950527903903E+018,75,1.64950527903903E+018,r1000913c5/base_footprint,0,1.64950527903904E+018,v/m1vw10zy74w/map,-1.80781090128,-1.23478317918,0,0,0,-0.165507064535,0.9862086045,0,62.9106712341,11.2662010193,47.5070343018,95.9764175415,41.9039878845,41.9039878845,62.9106712341,62.9106712341,25.6860466003,2.80458426476,0,0.000171612948179,0.046401232481,0.00308770756237,0.00325932051055,-0.79709148407,-0.0761374682188,-2.45780181885,-0.0262814182788,4.82354736328,0.103227086365,7.60263061523,0.228384882212,10.46910953523,93.51861572265,46.72753524778,33.28867721553,731
1.64950527913888E+018,76,1.64950527913888E+018,r1000913c5/base_footprint,0,1.64950527913888E+018,v/m1vw10zy74w/map,-1.80781090128,-1.23478317918,0,0,0,-0.165507064535,0.9862086045,0,63.3374938965,18.2452640533,47.7412223816,95.9764175415,42.2534179688,42.2534179688,63.3374938965,63.3374938965,21.777097702,2.7100110054,0,0.000160503186635,0.0456213541329,0.00691254576668,0.00675204256549,-7.77615451813,-0.742771327496,-2.45780181885,-0.0262814182788,4.47411727905,0.0957490503788,11.5115795135,0.345810651779,10.46910953517,93.51861572265,46.72753524785,33.2886772155,731
1.64950527924019E+018,77,1.64950527924019E+018,r1000913c5/base_footprint,0,1.64950527924019E+018,v/m1vw10zy74w/map,-1.70345839201,-1.27109242672,0,0,0,-0.162240900865,0.98675117942,0,63.3375358582,11.2487096786,48.0513381958,95.7034072876,42.4324645996,42.4324645996,63.3375358582,63.3375358582,22.7272224426,2.63094258308,0,0.00028977508191,0.0443219989538,0.00433872267604,0.00404894771054,-1.04929542542,-0.102878011763,-2.10035705566,-0.022438980639,4.52356719971,0.0963362306356,10.9785118103,0.325716435909,10.19941425318,93.60305023194,46.95603179931,33.7057342529,709
1.64950527933931E+018,78,1.64950527933931E+018,r1000913c5/base_footprint,0,1.64950527933931E+018,v/m1vw10zy74w/map,-1.70345839201,-1.27109242672,0,0,0,-0.162240900865,0.98675117942,0,62.6888046265,6.90537071228,48.117515564,95.7034072876,42.2874794006,42.2874794006,62.6888046265,62.6888046265,32.8385429382,2.65487074852,0,0.000356744916644,0.0435703359544,0.00259425747208,0.00223751273006,3.29404354095,0.322963982821,-2.10035705566,-0.022438980639,4.66855239868,0.0994239151478,0.867191314697,0.0257283020765,10.19941425323,93.60305023194,46.95603179928,33.705734252897,709
1.6495052794393E+018,79,1.6495052794393E+018,r1000913c5/base_footprint,0,1.6495052794393E+018,v/m1vw10zy74w/map,-1.59898792892,-1.3047517306,0,0,0,-0.152718293643,0.988269762153,0,62.563621521,8.27517414093,48.1555557251,95.7251358032,42.4544944763,42.4544944763,62.563621521,62.563621521,36.9738082886,2.76136064529,0,0.00046748056775,0.0414029434323,0.00353112816811,0.00399860879406,2.03150463104,0.197105646133,-2.1716003418,-0.0232123807073,4.55712890625,0.0969362184405,-3.08927154541,-0.0911705419421,10.30667877197,93.5535354614,47.01162338255,33.88453674319,692
1.64950527953919E+018,80,1.64950527953919E+018,r1000913c5/base_footprint,0,1.64950527953919E+018,v/m1vw10zy74w/map,-1.47706756539,-1.34163846062,0,0,0,-0.143766548873,0.989611630603,0,62.4672241211,7.92838859558,48.2263298035,95.8833084106,42.5899124146,42.5899124146,62.4672241211,62.4672241211,40.7409362793,2.81302833557,0,1.36843846121E-05,0.0399289876223,0.00947036314756,0.00948404707015,2.41072940826,0.233165860176,-2.34829711914,-0.0251060761511,4.49660110474,0.0954965800047,-6.73478317261,-0.198046013713,10.33911800384,93.53501129146,47.08651351934,34.00615310669,673
1.6495052796407E+018,81,1.6495052796407E+018,r1000913c5/base_footprint,0,1.64950527964071E+018,v/m1vw10zy74w/map,-1.37745852389,-1.36726890162,0,0,0,-0.139037105441,0.990287172143,0,62.536491394,5.25767850876,48.2683944702,95.8368835449,42.4415397644,42.4415397644,62.536491394,62.536491394,37.7245368958,2.78427267075,0,0.000470203027362,0.0384928248823,0.0118174692616,0.0113472668454,5.6000084877,0.515764415264,-2.25885772705,-0.0241387616843,4.71471786499,0.0999807491899,-3.7919883728,-0.111750766635,10.85768699646,93.57802581785,47.15625762939,33.932548523,689
1.64950527973947E+018,82,1.64950527973947E+018,r1000913c5/base_footprint,0,1.64950527973947E+018,v/m1vw10zy74w/map,-1.37745852389,-1.36726890162,0,0,0,-0.139037105441,0.990287172143,0,62.793712616,5.88235282898,48.122013092,95.8368835449,42.4999961853,42.4999961853,62.793712616,62.793712616,33.7259101868,2.68481492996,0,0.000516700965818,0.0343069992959,0.017174102366,0.0166574027389,4.97533416748,0.458231508732,-2.25885772705,-0.0241387616843,4.65626144409,0.0987411141396,0.206638336182,0.00608967943117,10.85768699646,93.57802581785,47.15625762939,33.932548522982,689
1.64950527983911E+018,83,1.64950527983911E+018,r1000913c5/base_footprint,0,1.64950527983911E+018,v/m1vw10zy74w/map,-1.25227673725,-1.40364292313,0,0,0,-0.137875395739,0.990449582387,0,62.7946052551,15.966386795,47.9802131653,95.7002029419,42.7419586182,42.7419586182,62.7946052551,62.7946052551,35.8309783936,2.69262242317,0,0.000525946728885,0.0309484843165,0.0186430588365,0.0181171111763,-5.38745880127,-0.509263217449,-2.1690826416,-0.0231910254806,4.45722198486,0.0944343060255,-1.91481781006,-0.0564573854208,10.57892799373,93.5311203003,47.19918060306,33.91616058354,701
1.64950527993939E+018,84,1.64950527993939E+018,r1000913c5/base_footprint,0,1.64950527993939E+018,v/m1vw10zy74w/map,-1.25227673725,-1.40364292313,0,0,0,-0.137875395739,0.990449582387,0,63.0317344666,6.29880285263,47.906211853,95.7002029419,43.014667511,43.014667511,63.0317344666,63.0317344666,34.5079116821,-2.97905540466,0,0.000481329218019,0.0298138614744,0.0190722085536,0.0185908786952,4.28012514114,0.404589682817,-2.1690826416,-0.0231910254806,4.18451309204,0.0886564776301,-0.591751098633,-0.0174474678934,10.57892799377,93.5311203003,47.19918060304,33.916160583467,701
1.64950528003912E+018,85,1.64950528003912E+018,r1000913c5/base_footprint,0,1.64950528003912E+018,v/m1vw10zy74w/map,-1.14304299712,-1.43316785418,0,0,0,-0.137195176317,0.990544034153,0,63.2842216492,4.47461032867,47.8188667297,95.535118103,43.0969619751,43.0969619751,63.2842216492,63.2842216492,30.2576179504,3.00670647621,0,0.000750935752876,0.0274663027376,0.0195642057806,0.0188132692128,6.18485164642,0.580221772194,-1.97061157227,-0.0210615284741,4.18562698364,0.0885236412287,3.29722213745,0.0982636809349,10.65946197509,93.56450653073,47.28258895874,33.55484008785,692
1.64950528013901E+018,86,1.64950528013901E+018,r1000913c5/base_footprint,0,1.64950528013901E+018,v/m1vw10zy74w/map,-1.13209159821,-1.43575077907,0,0,0,-0.136624628509,0.99062289035,0,62.5281181335,12.2807016373,47.7427101135,95.4011306763,43.2293701172,43.2293701172,62.5281181335,62.5281181335,44.815120697,2.87037849426,0,0.000992468325421,0.0249529201537,0.0200975127518,0.0191050451249,-1.64648151398,-0.154828608036,-1.82382965088,-0.0194900855422,4.13591384888,0.0873195230961,-11.2783355713,-0.33629745245,10.63422012332,93.57730102542,47.36528396608,33.5367851257,700
1.64950528023941E+018,87,1.64950528023941E+018,r1000913c5/base_footprint,0,1.64950528023941E+018,v/m1vw10zy74w/map,-1.00142255683,-1.47300772934,0,0,0,-0.137964986206,0.990437106828,0,62.8210144043,10.2167186737,47.8019065857,95.4323959351,43.3494148254,43.3494148254,62.8210144043,62.8210144043,40.9520454407,2.78335380554,0,0.00112704397179,0.0172416269779,0.0406076572835,0.0394806116819,0.377953529358,0.0356739237905,-1.73486328125,-0.0185155700892,4.10314941406,0.0864684432745,-7.72585678101,-0.232523113489,10.594672203058,93.69753265385,47.45256423946,33.22618865969,701
1.64950528033926E+018,88,1.64950528033926E+018,r1000913c5/base_footprint,0,1.64950528033926E+018,v/m1vw10zy74w/map,-0.875596387432,-1.510707124,0,0,0,-0.145210288515,0.98940081469,0,62.8019714355,8.27517414093,47.8949127197,94.9235992432,43.3195571899,43.3195571899,62.8019714355,62.8019714355,39.1406669617,2.58291649818,0,0.00202210014686,0.0102413138375,0.0628659203649,0.060843821615,2.26760101318,0.21508577466,-1.21834564209,-0.0130018927157,4.19689178467,0.0883250311017,-6.31224060059,-0.192279726267,10.54277515411,93.70525360111,47.51644897457,32.82842636111,705
1.64950528043943E+018,89,1.64950528043943E+018,r1000913c5/base_footprint,0,1.64950528043943E+018,v/m1vw10zy74w/map,-0.737009124443,-1.50916033858,0,0,0,-0.16438664487,0.986395980825,0,62.9088478088,11.0699396133,47.9684448242,95.3826446533,43.4143753052,43.4143753052,62.9088478088,62.9088478088,39.8935394287,2.14954376221,0,0.00317685538903,0.00416731648147,0.0822181254625,0.0790412724018,-0.670081138611,-0.0644317567348,-1.64807891846,-0.0175824034959,4.14357376099,0.0871268361807,-7.19647979736,-0.220095619559,10.399858474689,93.73456573484,47.55794906619,32.69705963134,708
1.64950528053937E+018,90,1.64950528053937E+018,r1000913c5/base_footprint,0,1.64950528053937E+018,v/m1vw10zy74w/map,-0.603755033447,-1.55939609806,0,0,0,-0.200039182186,0.979787898267,0,63.1027565002,5.33088254929,47.9942893982,95.2047958374,43.1440315247,43.1440315247,63.1027565002,63.1027565002,32.8432044983,1.77342355251,0,0.00408476730809,0.0165242683142,0.0933874621987,0.0893026962876,5.03661203384,0.48580801487,-1.46868133545,-0.0156682543457,4.45265197754,0.0935496240854,-0.238655090332,-0.00731968693435,10.36749458313,93.73611450195,47.59668350224,32.604549407968,726
1.64950528063908E+018,91,1.64950528063908E+018,r1000913c5/base_footprint,0,1.64950528063908E+018,v/m1vw10zy74w/map,-0.47827432696,-1.62318008438,0,0,0,-0.248316024429,0.968679075862,0,63.0673675537,4.13943338394,48.0157814026,94.966796875,42.7824058533,42.7824058533,63.0673675537,63.0673675537,28.7178764343,2.82000017166,0,0.00401364266872,0.0327620692551,0.079779535532,0.0757658928633,6.11430501938,0.596300065517,-1.2034072876,-0.0128345116973,4.83845901489,0.101603761315,3.8995552063,0.119554333389,10.25373840332,93.7633895874,47.62086486819,32.6174316406,706
1.64950528073903E+018,92,1.64950528073903E+018,r1000913c5/base_footprint,0,1.64950528073903E+018,v/m1vw10zy74w/map,-0.345599461606,-1.70906706501,0,0,0,-0.296039607314,0.955175664944,0,62.5689582825,21.5686283112,47.7500114441,94.5625228882,42.6222610474,42.6222610474,62.5689582825,62.5689582825,34.5042800903,2.69905853271,0,0.00398683780804,0.054218839854,0.0450865440071,0.0410997085273,-11.1912260056,-1.0784226656,-0.80517578125,-0.00858786888421,4.93895721436,0.103844210505,-1.67806243896,-0.0511195808649,10.3774023056,93.75734710695,47.56121826176,32.82621765134,707
1.64950528083923E+018,93,1.64950528083923E+018,r1000913c5/base_footprint,0,1.64950528083923E+018,v/m1vw10zy74w/map,-0.204886245578,-1.81191981712,0,0,0,-0.34188627839,0.93974133284,0,63.2660217285,23.9453353882,47.4885559082,94.9606246948,42.6559944153,42.6559944153,63.2660217285,63.2660217285,23.7546138763,2.55471038818,0,0.00331698707305,0.0667980313301,0.0128799080849,0.00956292077899,-13.3488721848,-1.25974786282,-1.21270751953,-0.0129358340055,4.94916915894,0.103962861001,9.91456794739,0.294470131397,10.5964632034,93.74791717527,47.60516357424,33.66918182369,697
1.64950528093923E+018,94,1.64950528093923E+018,r1000913c5/base_footprint,0,1.64950528093923E+018,v/m1vw10zy74w/map,-0.102422013545,-1.90990230893,0,0,0,-0.364498705656,0.931203894738,0,63.4470672607,16.2895927429,47.2463035583,95.0899353027,42.3471260071,42.3471260071,63.4470672607,63.4470672607,17.6255168915,2.71782112122,0,0.00276998314075,0.0793041959405,0.00112199014984,0.00389197352342,-5.26422214508,-0.477464407682,-1.35852813721,-0.0144938416779,5.25267028809,0.110350690782,16.6802845001,0.486223429441,11.02537059782,93.73140716549,47.59979629519,34.3058013916,682
1.64950528103986E+018,95,1.64950528103986E+018,r1000913c5/base_footprint,0,1.64950528103986E+018,v/m1vw10zy74w/map,0.016970104529,-2.02599565022,0,0,0,-0.37999271931,0.924989477384,0,63.0243911743,17.5371074677,46.9030647278,94.7847671509,42.3815727234,42.3815727234,63.0243911743,63.0243911743,24.5071430206,2.84897947311,0,0.00231088954024,0.0940702855587,0.0177627969533,0.0200736857951,-6.02512073517,-0.523378014565,-1.06498718262,-0.0113635258749,5.19395446777,0.109172821045,10.1165676117,0.292186111212,11.51198673253,93.71977996828,47.57552719117,34.6237106323,675
1.64950528113978E+018,96,1.64950528113978E+018,r1000913c5/base_footprint,0,1.64950528113978E+018,v/m1vw10zy74w/map,0.143832682099,-2.14860823525,0,0,0,-0.388977292535,0.921247342407,0,63.1078681946,14.3446855545,46.6426963806,94.6864318848,42.3934135437,42.3934135437,63.1078681946,63.1078681946,22.7783851624,3.08174467087,0,0.0014653095277,0.105558931828,0.0265181530267,0.027983462438,-2.52692699432,-0.213824555278,-1.02487945557,-0.0109423706308,5.01865768433,0.105851896107,12.3309631348,0.351215958595,11.81775856018,93.66155242923,47.41207122803,35.1093482972,677
1.64950528123924E+018,97,1.64950528123924E+018,r1000913c5/base_footprint,0,1.64950528123924E+018,v/m1vw10zy74w/map,0.143832682099,-2.14860823525,0,0,0,-0.388977292535,0.921247342407,0,63.2556610107,18.7165775299,46.3547058105,94.6864318848,42.4386177063,42.4386177063,63.2556610107,63.2556610107,20.6063232422,3.04918265343,0,0.00152742210776,0.112062200904,0.0295695606619,0.0310969818383,-6.89881896973,-0.58376711607,-1.02487945557,-0.0109423706308,4.97345352173,0.10489846766,14.5030250549,0.413081586361,11.81775856017,93.66155242923,47.41207122803,35.1093482971,677
1.64950528133931E+018,98,1.64950528133931E+018,r1000913c5/base_footprint,0,1.64950528133931E+018,v/m1vw10zy74w/map,0.350430089315,-2.36975933927,0,0,0,-0.396816385694,0.917898009609,0,62.9897422791,15.966386795,46.2611846924,95.1104049683,42.4108276367,42.4108276367,62.9897422791,62.9897422791,26.619058609,3.02458906174,0,0.000882840657141,0.130425363779,0.0390166863799,0.0398995243013,-3.78644561768,-0.310875535011,-1.42433929443,-0.0152033204213,5.06439208984,0.106674432755,9.31683921814,0.259262740612,12.17994117732,93.68606567387,47.47521972654,35.93589782714,662
1.64950528143914E+018,99,1.64950528143914E+018,r1000913c5/base_footprint,0,1.64950528143915E+018,v/m1vw10zy74w/map,0.381156064997,-2.40386440912,0,0,0,-0.397276846019,0.917698810949,0,63.1616592407,17.2113285065,46.2712364197,95.213722229,42.2512283325,42.2512283325,63.1616592407,63.1616592407,22.1727657318,3.0262761116,0,0.000336812634487,0.147183775902,0.041845459491,0.0421822704375,-5.21356201172,-0.43454438448,-1.482421875,-0.0158156547695,5.17021560669,0.109026953578,13.9252986908,0.385763019323,11.99776649478,93.731300354,47.42144393919,36.0980644226,662
1.64950528153911E+018,100,1.64950528153911E+018,r1000913c5/base_footprint,0,1.64950528153911E+018,v/m1vw10zy74w/map,0.489082419494,-2.51843927643,0,0,0,-0.397852982852,0.917449183353,0,63.3106231689,16.8915271759,46.3375587463,95.4236068726,42.1829833984,42.1829833984,63.3106231689,63.3106231689,19.509973526,2.96334338188,0,0.000213349470869,0.172129303217,0.0361666418612,0.0363799929619,-4.30967998505,-0.342531591654,-1.67375183105,-0.0178533811122,5.11706924438,0.108183160424,16.7049655914,0.461272776127,12.58184719085,93.74985504155,47.30005264278,36.2149391174,688
1.64950528163933E+018,101,1.64950528163933E+018,r1000913c5/base_footprint,0,1.64950528163933E+018,v/m1vw10zy74w/map,0.607896092956,-2.63307233936,0,0,0,-0.396390414704,0.918082043791,0,61.7208557129,23.7472763062,46.5317420959,94.6964569092,42.0906105042,42.0906105042,61.7208557129,61.7208557129,44.5104446411,2.82603597641,0,0.00039868807653,0.224676966667,0.0326699241996,0.0330686122179,-10.981464386,-0.860224545002,-0.919525146484,-0.00980545114726,5.03443908691,0.106831483543,-7.80788803101,-0.212734177709,12.7658119202,93.776931762716,47.12504959111,36.70255661009,758
1.64950528174024E+018,102,1.64950528174024E+018,r1000913c5/base_footprint,0,1.64950528174024E+018,v/m1vw10zy74w/map,0.722045612082,-2.74850899371,0,0,0,-0.394763411162,0.918782808507,0,62.1321868896,20.5087432861,46.7662315369,95.17578125,41.9590301514,41.9590301514,62.1321868896,62.1321868896,37.4109458923,2.8486366272,0,0.00101496535353,0.280270963907,0.0370326973498,0.0380476601422,-7.51359367371,-0.578184485435,-1.34670257568,-0.0143527211621,4.94701385498,0.105466447771,-0.383125305176,-0.0103469584137,12.99514961239,93.82907867432,46.90604400638,37.027820587124,847
