%time,field.header.seq,field.header.stamp,field.header.frame_id,field.pose.header.seq,field.pose.header.stamp,field.pose.header.frame_id,field.pose.pose.position.x,field.pose.pose.position.y,field.pose.pose.position.z,field.pose.pose.orientation.x,field.pose.pose.orientation.y,field.pose.pose.orientation.z,field.pose.pose.orientation.w,field.label,field.main_output,field.scan_score,field.pose_score,field.cov_score,field.lhood_map_score,field.lhood_robot_score,field.lhood_map_score_all,field.lhood_robot_score_all,field.point_angle_diff,field.average_orientation,field.map_average_orientation,field.sensor_div,field.odom_div_x,field.odom_div_w,field.imu_div_w,field.kdtree_div,field.kdtree_div_p,field.cov_div,field.cov_div_p,field.likelihood_div,field.likelihood_div_p,field.normal_diff_div,field.normal_diff_div_p,field.kdtree_average,field.cov_average,field.likelihood_average,field.normal_diff_average,field.map_update_count
1.64950116048916E+018,0,1.64950116048916E+018,r1000913c5/base_footprint,0,1.64950116048916E+018,v/m1vw10zy74w/map,-14.5349497823,-0.676856324716,0,0,0,-0.851663301376,0.524089325487,0,64.5015411377,21.8679847717,100,94.7765197754,46.6946563721,46.6946563721,64.5015411377,64.5015411377,44.4700508118,0.297331601381,0,0.00489628175274,0.916672170162,0.0448557026684,0.0497519858181,9.21209716797,0.296398729086,-0.518112182617,-0.00549672124907,4.11068725586,0.080910526216,-16.993938446,-0.618498623371,31.08008193967,94.258407592783,50.80534362796,27.4761123658,821
1.64950116058918E+018,1,1.64950116058918E+018,r1000913c5/base_footprint,0,1.64950116058918E+018,v/m1vw10zy74w/map,-14.5349497823,-0.676856324716,0,0,0,-0.851663301376,0.524089325487,0,66.0297241211,42.5444602966,79.1747970581,94.7765197754,47.0174407959,47.0174407959,66.0297241211,66.0297241211,20.4488048553,0.0981023237109,0,0.00478885974735,0.895714223385,0.0587065517902,0.0634954124689,-11.4643783569,-0.368865758181,-0.518112182617,-0.00549672124907,3.78790283203,0.0745571702719,7.02730751038,0.255760610104,31.0800819397,94.258407592783,50.80534362793,27.47611236568,821
1.64950116068921E+018,2,1.64950116068921E+018,r1000913c5/base_footprint,0,1.64950116068921E+018,v/m1vw10zy74w/map,-14.5324039663,-0.674937413142,0,0,0,-0.818109057611,0.575063100759,0,66.1836624146,41.6547088623,81.0513916016,94.765838623,47.3945579529,47.3945579529,66.1836624146,66.1836624146,21.7123355865,0.117704428732,0,0.00466278288513,0.862283349037,0.0785269141197,0.0831896960735,-10.7128658295,-0.346225857735,-0.501045227051,-0.00531529542059,3.40960693359,0.0671127438545,5.70742797852,0.208150148392,30.9418430328,94.264793395949,50.80416488649,27.41976356502,829
1.64950116078974E+018,3,1.64950116078974E+018,r1000913c5/base_footprint,0,1.64950116078974E+018,v/m1vw10zy74w/map,-14.5394429847,-0.677998844967,0,0,0,-0.782007806027,0.62326863495,0,66.4662780762,42.6349067688,83.2490463257,95.3531417847,47.7873306274,47.7873306274,66.4662780762,66.4662780762,22.9814453125,0.231873244047,0,0.00421795761213,0.831624567509,0.0865845754743,0.0908025279641,-11.5548248291,-0.371775895357,-1.09473419189,-0.0116141811013,3.01801300049,0.0594034567475,4.49466705322,0.163584530354,31.0800819397,94.25840759281,50.80534362789,27.47611236572,821
1.64950116088925E+018,4,1.64950116088925E+018,r1000913c5/base_footprint,0,1.64950116088925E+018,v/m1vw10zy74w/map,-14.5394429847,-0.677998844967,0,0,0,-0.782007806027,0.62326863495,0,66.6640548706,38.8235282898,85.4498214722,95.3531417847,48.1413993835,48.1413993835,66.6640548706,66.6640548706,23.245426178,0.176834493876,0,0.00417055143043,0.743456125259,0.0968130752444,0.100983627141,-7.7434463501,-0.249144971371,-1.09473419189,-0.0116141811013,2.66394424438,0.0524343326688,4.23068618774,0.153976887465,31.0800819397,94.25840759281,50.80534362788,27.47611236574,821
1.64950116178934E+018,5,1.64950116178934E+018,r1000913c5/base_footprint,0,1.64950116178934E+018,v/m1vw10zy74w/map,-14.5349141874,-0.677565077496,0,0,0,-0.748276805251,0.663386631403,0,66.9374465942,41.6324653625,87.3678131104,95.7904052734,48.5722198486,48.5722198486,66.9374465942,66.9374465942,24.551361084,0.102786041796,0,0.00228838063776,0.00145175575744,0.243430003524,0.241141632199,-10.5523834229,-0.339522391558,-1.53199768066,-0.0162531677634,2.2331237793,0.0439545065165,2.92475128174,0.106447055936,31.0800819396,94.25840759274,50.8053436279,27.47611236574,821
1.64950116188932E+018,6,1.64950116188932E+018,r1000913c5/base_footprint,0,1.64950116188932E+018,v/m1vw10zy74w/map,-14.5349141874,-0.677565077496,0,0,0,-0.748276805251,0.663386631403,0,67.0886077881,35.6617660522,88.65599823,95.7904052734,49.2931251526,49.2931251526,67.0886077881,67.0886077881,29.6162090302,0.231549292803,0,0.00241555832326,0.0548910312355,0.239972755313,0.237557202578,-4.58168411255,-0.147415444255,-1.53199768066,-0.0162531677634,1.51221847534,0.0297649484128,-2.14009666443,-0.0778893530369,31.08008193965,94.25840759274,50.80534362794,27.47611236577,821
1.64950116198926E+018,7,1.64950116198926E+018,r1000913c5/base_footprint,0,1.64950116198926E+018,v/m1vw10zy74w/map,-14.5349141874,-0.677565077496,0,0,0,-0.748276805251,0.663386631403,0,67.3974227905,34.6405220032,89.7350311279,95.7904052734,50.0217475891,50.0217475891,67.3974227905,67.3974227905,31.9267864227,0.222870633006,0,0.00279118074104,0.0985707938671,0.229746133089,0.226954951882,-3.56044006348,-0.114556968212,-1.53199768066,-0.0162531677634,0.783596038818,0.0154234962538,-4.45067405701,-0.161983400583,31.08008193972,94.25840759274,50.805343627918,27.47611236569,821
1.6495011620894E+018,8,1.6495011620894E+018,r1000913c5/base_footprint,0,1.6495011620894E+018,v/m1vw10zy74w/map,-14.5349141874,-0.677565077496,0,0,0,-0.748276805251,0.663386631403,0,67.8503799438,40.7132949829,90.6280136108,95.7904052734,50.6676025391,50.6676025391,67.8503799438,67.8503799438,30.7487812042,0.161638364196,0,0.00300695537589,0.108604691923,0.227943614125,0.224936664104,-9.63321304321,-0.309948116541,-1.53199768066,-0.0162531677634,0.137741088867,0.00271115358919,-3.2726688385,-0.119109600782,31.08008193969,94.25840759274,50.805343627967,27.4761123657,821
1.64950116218985E+018,9,1.64950116218985E+018,r1000913c5/base_footprint,0,1.64950116218985E+018,v/m1vw10zy74w/map,-14.536658496,-0.807185040991,0,0,0,-0.712987641719,0.701176598836,0,68.0190734863,42.0955886841,91.3630142212,96.3226242065,51.177406311,51.177406311,68.0190734863,68.0190734863,35.1340446472,0.167947605252,0,0.00298868562095,0.108016006649,0.225347414613,0.222358718514,-10.2274799347,-0.320931494236,-2.00324249268,-0.0212389267981,-0.208847045898,-0.00409756600857,-7.91337966919,-0.290712207556,31.8681087494,94.31938171382,50.968559265102,27.22066497801,860
1.64950116229016E+018,10,1.64950116229016E+018,r1000913c5/base_footprint,0,1.64950116229016E+018,v/m1vw10zy74w/map,-14.536658496,-0.807185040991,0,0,0,-0.712987641719,0.701176598836,0,68.6173706055,37.5565605164,91.9974060059,96.3226242065,51.6519737244,51.6519737244,68.6173706055,68.6173706055,29.49010849,0.194472253323,0,0.00281834974885,0.103534169495,0.221692249179,0.218873903155,-5.68845176697,-0.178499817848,-2.00324249268,-0.0212389267981,-0.683414459229,-0.0134085500613,-2.26944351196,-0.083372078836,31.86810874943,94.31938171382,50.968559265171,27.22066497804,860
1.64950116238996E+018,11,1.64950116238996E+018,r1000913c5/base_footprint,0,1.64950116238996E+018,v/m1vw10zy74w/map,-14.5373847767,-0.911340522383,0,0,0,-0.715085250156,0.69903725581,0,68.8615570068,33.542881012,92.5118789673,96.114112854,52.0432662964,52.0432662964,68.8615570068,68.8615570068,28.5701065063,0.207494109869,0,0.00306376744993,0.0954809114337,0.210878834128,0.20781506598,-0.101276397705,-0.00302845519036,-1.7465133667,-0.0185075532645,-0.926456451416,-0.0181243009865,-1.79139900208,-0.0668963938951,33.441604614295,94.3675994873,51.116809844984,26.77870750422,842
1.64950116258912E+018,12,1.64950116258912E+018,r1000913c5/base_footprint,0,1.64950116258912E+018,v/m1vw10zy74w/map,-14.5367059538,-0.920828501372,0,0,0,-0.716030323753,0.698069176706,0,69.0687713623,37.0078735352,92.9660186768,96.2719039917,52.3617744446,52.3617744446,69.0687713623,69.0687713623,28.848154068,0.241453364491,0,0.00323921302333,0.0910327658057,0.200238764286,0.196999549866,-3.5662689209,-0.106641680002,-1.90430450439,-0.020179644227,-1.24496459961,-0.0243552867323,-2.06944656372,-0.0772795528173,33.4416046143,94.36759948731,51.11680984499,26.77870750428,842
1.64950116278951E+018,13,1.64950116278951E+018,r1000913c5/base_footprint,0,1.64950116278951E+018,v/m1vw10zy74w/map,-14.5367059538,-0.920828501372,0,0,0,-0.716030323753,0.698069176706,0,69.2269287109,40.2714920044,92.8240890503,96.2719039917,52.8002128601,52.8002128601,69.2269287109,69.2269287109,30.7365131378,0.259975224733,0,0.0034813368693,0.0864841789007,0.18577504158,0.182293698192,-6.82988739014,-0.204233244061,-1.90430450439,-0.020179644227,-1.68340301514,-0.0329324752092,-3.95780563354,-0.147796735168,33.44160461426,94.36759948731,51.11680984496,26.77870750426,842
1.64950116288919E+018,14,1.64950116288919E+018,r1000913c5/base_footprint,0,1.64950116288919E+018,v/m1vw10zy74w/map,-14.5417427011,-1.03190610182,0,0,0,-0.720470970633,0.693485097515,0,69.3625335693,41.1764717102,92.7796020508,95.9771652222,53.1732673645,53.1732673645,69.3625335693,69.3625335693,31.2634963989,0.211380168796,0,0.00359358917922,0.080539509654,0.16477675736,0.161183178425,-6.23857879639,-0.178561970592,-1.58554077148,-0.0167974736542,-2.04588317871,-0.0400154106319,-5.00405502319,-0.190562129021,34.93789291381,94.39162445072,51.12738418579,26.25944137571,797
1.64950116298921E+018,15,1.64950116298921E+018,r1000913c5/base_footprint,0,1.64950116298921E+018,v/m1vw10zy74w/map,-14.5417427011,-1.03190610182,0,0,0,-0.720470970633,0.693485097515,0,69.5489807129,49.9768409729,92.3553466797,95.9771652222,53.4960975647,53.4960975647,69.5489807129,69.5489807129,31.3939495087,0.108036547899,0,0.0032524173148,0.0748931691051,0.146406084299,0.14315366745,-15.0389480591,-0.430448055267,-1.58554077148,-0.0167974736542,-2.36871337891,-0.046329639852,-5.13450813293,-0.195529982448,34.9378929138,94.39162445072,51.12738418579,26.25944137577,797
1.6495011630895E+018,16,1.6495011630895E+018,r1000913c5/base_footprint,0,1.6495011630895E+018,v/m1vw10zy74w/map,-14.5638262682,-1.12939555511,0,0,0,-0.719471891974,0.694521559536,0,70.0710296631,56.8014717102,92.0778274536,95.824508667,53.7894554138,53.7894554138,70.0710296631,70.0710296631,24.6157836914,0.180492997169,0,0.00289330049418,0.0656640008092,0.129753142595,0.126859843731,-18.8589401245,-0.497039586306,-1.41014099121,-0.0149356611073,-2.36223602295,-0.0459335744381,-0.27830696106,-0.0114353252575,37.9425315857,94.41436767579,51.42721939085,24.33747673034,660
1.6495011631917E+018,17,1.6495011631917E+018,r1000913c5/base_footprint,0,1.6495011631917E+018,v/m1vw10zy74w/map,-14.5471028795,-1.2479843998,0,0,0,-0.713502724887,0.700652454202,0,70.302230835,50.7523956299,91.5156860352,95.5857772827,54.0764007568,54.0764007568,70.302230835,70.302230835,22.6937198639,0.206317827106,0,0.00297306384891,0.0611083358526,0.125339701772,0.122366636992,-10.4216766357,-0.258405417204,-0.59415435791,-0.00625480804592,-0.910488128662,-0.0171254109591,1.10288047791,0.0463461354375,40.3307189942,94.99162292479,53.165912628138,23.79660034181,413
1.64950116328948E+018,18,1.64950116328948E+018,r1000913c5/base_footprint,0,1.64950116328948E+018,v/m1vw10zy74w/map,-14.5475333517,-1.25670166247,0,0,0,-0.712786896904,0.701380666687,0,70.5203704834,53.300403595,90.95703125,95.6022338867,54.443572998,54.443572998,70.5203704834,70.5203704834,22.7919368744,0.190050631762,0,0.00314200064167,0.0551643371582,0.114946939051,0.111804932356,-12.9696846008,-0.321583271027,-0.610610961914,-0.00642805080861,-1.27766036987,-0.0240315701813,1.00466346741,0.0422187820077,40.3307189942,94.991622924786,53.16591262813,23.79660034181,413
1.64950116338947E+018,19,1.64950116338947E+018,r1000913c5/base_footprint,0,1.64950116338947E+018,v/m1vw10zy74w/map,-14.5489571117,-1.36632968159,0,0,0,-0.711492403253,0.702693788298,0,70.573097229,51.8295516968,90.0119552612,95.4534072876,54.7897644043,54.7897644043,70.573097229,70.573097229,25.0460243225,0.219026625156,0,0.0028971361462,0.0475799776614,0.081417158246,0.0785200223327,-10.3728790283,-0.250210106373,-0.426788330078,-0.00449125049636,-1.38771057129,-0.0259860903025,-1.61150741577,-0.068766400218,41.4566726685,95.026618957522,53.40205383301,23.43451690673,408
1.64950116699148E+018,20,1.64950116699148E+018,r1000913c5/base_footprint,0,1.64950116699148E+018,v/m1vw10zy74w/map,-14.5563125193,-2.23787393582,0,0,0,-0.70744931604,0.706764080323,0,71.0190048218,48.0164146423,91.5121307373,94.9875259399,54.9743537903,54.9743537903,71.0190048218,71.0190048218,17.3360137939,0.278030067682,0,0.00012496864656,0.0291029699147,0.00349627295509,0.00337130436674,-2.93947219849,-0.0652101039886,-0.106109619141,-0.00111833936535,-1.46628189087,-0.0274030044675,1.17771911621,0.0636132732034,45.07694244381,94.881416320759,53.50807189943,18.51373291011,259
1.64950116709028E+018,21,1.64950116709028E+018,r1000913c5/base_footprint,0,1.64950116709028E+018,v/m1vw10zy74w/map,-14.5563125193,-2.23787393582,0,0,0,-0.70744931604,0.706764080323,0,71.0098114014,50.1932144165,90.2369537354,94.9875259399,55.1177940369,55.1177940369,71.0098114014,71.0098114014,19.0506801605,0.83600628376,0,0.000738324830309,0.0261139199138,0.0012355245417,0.00197384925559,-5.11627197266,-0.113500863314,-0.106109619141,-0.00111833936535,-1.60972213745,-0.0300837252289,-0.536947250366,-0.0290026459843,45.07694244384,94.881416320759,53.50807189945,18.513732910134,259
1.64950116908932E+018,22,1.64950116908932E+018,r1000913c5/base_footprint,0,1.64950116908932E+018,v/m1vw10zy74w/map,-14.5552644431,-2.34607601656,0,0,0,-0.710299028343,0.703900057064,0,71.0776672363,54.4869041443,89.1464614868,94.7830886841,55.4213447571,55.4213447571,71.0776672363,71.0776672363,20.3715839386,0.826698005199,0,0.000571741547901,0.149564698339,0.00771177466959,0.00828351639211,-9.67398452759,-0.215874895453,0.0673980712891,0.000710571708623,-2.08738327026,-0.0391379743814,-2.03469848633,-0.110962055624,44.81291961671,94.8504867553891,53.33396148684,18.33688545227,233
1.64950116918931E+018,23,1.64950116918931E+018,r1000913c5/base_footprint,0,1.64950116918931E+018,v/m1vw10zy74w/map,-14.5552644431,-2.34607601656,0,0,0,-0.710299028343,0.703900057064,0,70.5914230347,30.7467670441,88.1106643677,94.7830886841,55.0160903931,55.0160903931,70.5914230347,70.5914230347,24.7472515106,0.717848956585,0,0.000313615717459,0.168429225683,0.0101273329929,0.0104409493506,14.0661525726,0.313886106014,0.0673980712891,0.000710571708623,-1.68212890625,-0.0315395444632,-6.41036605835,-0.349588602781,44.8129196167,94.8504867553891,53.33396148685,18.33688545225,233
1.64950116928981E+018,24,1.64950116928981E+018,r1000913c5/base_footprint,0,1.64950116928981E+018,v/m1vw10zy74w/map,-14.5552644431,-2.34607601656,0,0,0,-0.710299028343,0.703900057064,0,70.4617004395,29.4117641449,87.2882995605,94.7830886841,54.6880531311,54.6880531311,70.4617004395,70.4617004395,23.5394649506,0.729055464268,0,0.000547537987586,0.194294050336,0.0114264814183,0.0119740199298,15.4011554718,0.343676686287,0.0673980712891,0.000710571708623,-1.35409164429,-0.025388918817,-5.20257949829,-0.283722102642,44.8129196167,94.8504867553891,53.33396148681,18.33688545231,233
1.64950116938919E+018,25,1.64950116938919E+018,r1000913c5/base_footprint,0,1.64950116938919E+018,v/m1vw10zy74w/map,-14.5552644431,-2.34607601656,0,0,0,-0.710299028343,0.703900057064,0,70.5411911011,45.1570091248,86.6397247314,94.7830886841,54.8989448547,54.8989448547,70.5411911011,70.5411911011,24.3863334656,0.664578676224,0,0.000521192152519,0.204061195254,0.0115654896945,0.0120866820216,-0.344089508057,-0.00767835509032,0.0673980712891,0.000710571708623,-1.56498336792,-0.0293430928141,-6.04944801331,-0.329905956984,44.812919616743,94.8504867553891,53.33396148678,18.33688545229,233
1.64950116949023E+018,26,1.64950116949023E+018,r1000913c5/base_footprint,0,1.64950116949023E+018,v/m1vw10zy74w/map,-14.5552644431,-2.34607601656,0,0,0,-0.710299028343,0.703900057064,0,70.5296859741,38.5425796509,86.4361343384,94.7830886841,54.9784545898,54.9784545898,70.5296859741,70.5296859741,25.4520587921,0.714909493923,0,0.000110506691271,0.201921164989,0.00980245228857,0.00991295836866,6.27033996582,0.139922589064,0.0673980712891,0.000710571708623,-1.64449310303,-0.030833883211,-7.11517333984,-0.388025194407,44.81291961672,94.8504867553891,53.33396148677,18.33688545226,233
1.64950116959045E+018,27,1.64950116959045E+018,r1000913c5/base_footprint,0,1.64950116959045E+018,v/m1vw10zy74w/map,-14.5552644431,-2.34607601656,0,0,0,-0.710299028343,0.703900057064,0,70.6418228149,35.5946769714,86.4276351929,94.7830886841,55.0419235229,55.0419235229,70.6418228149,70.6418228149,24.1190643311,0.769255280495,0,0.000315830955515,0.193831577897,0.00342866056599,0.00311282975599,9.21824264526,0.205705016851,0.0673980712891,0.000710571708623,-1.70796203613,-0.0320239104331,-5.78217887878,-0.315330475569,44.81291961666,94.8504867553891,53.33396148677,18.33688545232,233
1.64950116969172E+018,28,1.64950116969172E+018,r1000913c5/base_footprint,0,1.64950116969172E+018,v/m1vw10zy74w/map,-14.5611363334,-2.23094054583,0,0,0,-0.709943088134,0.704259051494,0,70.592628479,35.5946769714,86.559173584,94.5636367798,55.1026954651,55.1026954651,70.592628479,70.592628479,24.8708362579,0.704261779785,0,0.000502409297042,0.187659755349,0.00212200428359,0.00262441369705,9.48226547241,0.21035733819,0.317779541016,0.00334922852926,-1.59462356567,-0.0298015512526,-6.35710334778,-0.343372315168,45.07694244381,94.881416320816,53.50807189943,18.51373291012,259
1.64950117008991E+018,29,1.64950117008991E+018,r1000913c5/base_footprint,0,1.64950117008991E+018,v/m1vw10zy74w/map,-14.5696762156,-2.21353788003,0,0,0,-0.710441301471,0.703756461544,0,70.8686447144,36.0613822937,87.0504455566,94.8769607544,55.1945991516,55.1945991516,70.8686447144,70.8686447144,22.0230960846,0.731455683708,0,0.000340611295542,0.181741029024,0.00730644213036,0.00764705333859,9.01556015015,0.200003802776,0.00445556640625,4.69593142043E-05,-1.6865272522,-0.0315191186965,-3.50936317444,-0.189554601908,45.07694244385,94.8814163208063,53.5080718994,18.51373291016,259
1.64950117019084E+018,30,1.64950117019084E+018,r1000913c5/base_footprint,0,1.64950117019144E+018,v/m1vw10zy74w/map,-14.5696762156,-2.21353788003,0,0,0,-0.710441301471,0.703756461544,0,71.0641326904,33.7199668884,87.9054260254,94.8769607544,55.2448577881,55.2448577881,71.0641326904,71.0641326904,19.04712677,0.679506838322,0,0.000380948360544,0.179375723004,0.0103051727638,0.0106861209497,11.3569755554,0.25194644928,0.00445556640625,4.69593142043E-05,-1.73678588867,-0.0324583910406,-0.533393859863,-0.0288107134402,45.0769424438,94.8814163208063,53.50807189943,18.513732910137,259
1.64950117029039E+018,31,1.64950117029039E+018,r1000913c5/base_footprint,0,1.64950117029039E+018,v/m1vw10zy74w/map,-14.5696762156,-2.21353788003,0,0,0,-0.710441301471,0.703756461544,0,71.1065444946,33.613445282,89.0127487183,94.8769607544,55.2339439392,55.2339439392,71.1065444946,71.1065444946,18.165813446,0.759803295135,0,0.000795120780822,0.178722858429,0.0126892169937,0.0134843373671,11.4634971619,0.254309564829,0.00445556640625,4.69593142043E-05,-1.72587203979,-0.0322544239461,0.347919464111,0.01879250817,45.0769424439,94.8814163208063,53.50807189941,18.513732910111,259
1.64950117039027E+018,32,1.64950117039027E+018,r1000913c5/base_footprint,0,1.64950117039027E+018,v/m1vw10zy74w/map,-14.5696762156,-2.21353788003,0,0,0,-0.710441301471,0.703756461544,0,71.1008148193,33.2498970032,90.3187637329,94.8769607544,55.2296981812,55.2296981812,71.1008148193,71.1008148193,18.2231121063,0.792068004608,0,0.000311502924887,0.174703001976,0.0171454176307,0.0174569208175,11.8270454407,0.262374609709,0.00445556640625,4.69593142043E-05,-1.72162628174,-0.0321750752628,0.290620803833,0.0156975798309,45.0769424439,94.8814163208063,53.50807189946,18.513732910133,259
1.6495011704908E+018,33,1.6495011704908E+018,r1000913c5/base_footprint,0,1.6495011704908E+018,v/m1vw10zy74w/map,-14.5696762156,-2.21353788003,0,0,0,-0.710441301471,0.703756461544,0,71.0964279175,27.731092453,91.5841674805,94.8769607544,55.2660140991,55.2660140991,71.0964279175,71.0964279175,18.6943645477,0.737810254097,0,9.64231949183E-05,0.172118335962,0.0159655008465,0.0160619243979,17.3458499908,0.384805381298,0.00445556640625,4.69593142043E-05,-1.75794219971,-0.0328537747264,-0.180631637573,-0.00975662935525,45.0769424438,94.8814163208063,53.50807189939,18.513732910127,259
1.64950117058927E+018,34,1.64950117058927E+018,r1000913c5/base_footprint,0,1.64950117058927E+018,v/m1vw10zy74w/map,-14.5636199972,-2.11804258579,0,0,0,-0.714044343725,0.700100475071,0,70.7622680664,32.773109436,93.1567840576,95.1649551392,55.3265533447,55.3265533447,70.7622680664,70.7622680664,26.399848938,0.834442794323,0,0.000557869789191,0.15914145112,0.00199975888245,0.00144188897684,11.9964179993,0.267959445715,-0.241142272949,-0.00254037696868,-1.66228103638,-0.0309755634516,-7.49823379517,-0.396698057652,44.7695274353,94.923812866251,53.66427230832,18.90161514283,294
1.64950117068932E+018,35,1.64950117068932E+018,r1000913c5/base_footprint,0,1.64950117068932E+018,v/m1vw10zy74w/map,-14.5636199972,-2.11804258579,0,0,0,-0.714044343725,0.700100475071,0,71.3962097168,27.731092453,93.8753662109,95.1649551392,55.2196121216,55.2196121216,71.3962097168,71.3962097168,13.8338241577,1.08440721035,0,0.00114401220344,0.133000791073,0.00832539331168,0.00946940481663,17.0384349823,0.380581080914,-0.241142272949,-0.00254037696868,-1.55533981323,-0.0289827808738,5.06779098511,0.268114179373,44.7695274353,94.923812866251,53.66427230837,18.90161514281,294
1.64950117078929E+018,36,1.64950117078929E+018,r1000913c5/base_footprint,0,1.64950117078929E+018,v/m1vw10zy74w/map,-14.5607151517,-2.01659300106,0,0,0,-0.713657220207,0.700495090665,0,70.6288909912,29.4117641449,94.6466903687,94.9446411133,55.192653656,55.192653656,70.6288909912,70.6288909912,26.5613536835,1.09314835072,0,0.000760106020607,0.113399997354,0.0113875549287,0.0121476612985,15.1674404144,0.340235769749,0.0185165405273,0.000194986569113,-1.43844985962,-0.0267597641796,-7.24774742126,-0.37526640296,44.5792045593,94.9631576538273,53.75420379638,19.31360626224,339
1.6495011708893E+018,37,1.6495011708893E+018,r1000913c5/base_footprint,0,1.6495011708893E+018,v/m1vw10zy74w/map,-14.5596288863,-1.90940113902,0,0,0,-0.713130721533,0.701031079201,0,70.3052062988,21.848739624,95.1565322876,94.6572189331,55.1555290222,55.1555290222,70.3052062988,70.3052062988,30.9519367218,0.730387628078,0,0.000331158807967,0.105770856142,0.0113003533334,0.0116315120831,22.401550293,0.506246387959,0.319282531738,0.00336170033552,-1.47914123535,-0.0275566466153,-11.3524131775,-0.579218804836,44.250289917,94.976501464838,53.67638778685,19.5995235443,387
1.64950117099059E+018,38,1.64950117099059E+018,r1000913c5/base_footprint,0,1.6495011709906E+018,v/m1vw10zy74w/map,-14.5596288863,-1.90940113902,0,0,0,-0.713130721533,0.701031079201,0,70.4464950562,25.4349632263,95.5483551025,94.6572189331,55.2963142395,55.2963142395,70.4464950562,70.4464950562,29.9293498993,0.716952621937,0,0.000540879904293,0.0924257859588,0.0126822413877,0.013223121874,18.8153266907,0.425202339888,0.319282531738,0.00336170033552,-1.61992645264,-0.0301794987172,-10.329826355,-0.527044773102,44.250289917,94.976501464838,53.67638778686,19.5995235443,387
1.64950117108945E+018,39,1.64950117108945E+018,r1000913c5/base_footprint,0,1.64950117108946E+018,v/m1vw10zy74w/map,-14.5596288863,-1.90940113902,0,0,0,-0.713130721533,0.701031079201,0,70.5053634644,25.7405090332,95.2925567627,94.6572189331,55.421295166,55.421295166,70.5053634644,70.5053634644,30.2195034027,0.563852250576,0,0.000613202399109,0.0849833264947,0.0134883858263,0.0141015890986,18.5097808838,0.418297380209,0.319282531738,0.00336170033552,-1.74490737915,-0.0325079150498,-10.6199798584,-0.541848897934,44.250289917,94.976501464838,53.67638778685,19.5995235443,387
1.64950117118988E+018,40,1.64950117118988E+018,r1000913c5/base_footprint,0,1.64950117118988E+018,v/m1vw10zy74w/map,-14.5556045997,-1.80761247557,0,0,0,-0.714062957453,0.700081490109,0,70.3939361572,25.518409729,95.4340591431,94.5434875488,55.5899543762,55.5899543762,70.3939361572,70.3939361572,33.6371650696,0.492524534464,0,0.00065837893635,0.0717464983463,0.0141545496881,0.0148129286245,18.6375312805,0.422084331512,0.485260009766,0.00510645471513,-1.91288375854,-0.0356368869543,-13.0451660156,-0.633506536484,44.1559410095,95.028747558566,53.67707061766,20.591999054,409
1.64950117128928E+018,41,1.64950117128928E+018,r1000913c5/base_footprint,0,1.64950117128928E+018,v/m1vw10zy74w/map,-14.5556045997,-1.80761247557,0,0,0,-0.714062957453,0.700081490109,0,70.6490097046,26.4705886841,94.7084579468,94.5434875488,55.672870636,55.672870636,70.6490097046,70.6490097046,29.9414272308,0.538744688034,0,0.000916269025765,0.0623489543796,0.0144016258419,0.0153178954497,17.6853523254,0.400520324707,0.485260009766,0.00510645471513,-1.99580001831,-0.0371816121042,-9.34942817688,-0.454032093287,44.1559410095,95.028747558566,53.67707061769,20.59199905392,409
1.64950117138995E+018,42,1.64950117138995E+018,r1000913c5/base_footprint,0,1.64950117138996E+018,v/m1vw10zy74w/map,-14.5525958625,-1.69078795537,0,0,0,-0.715284560413,0.698833311767,0,70.881942749,26.7973861694,93.9485549927,94.4603805542,55.7470664978,55.7470664978,70.881942749,70.881942749,26.2506790161,0.534430503845,0,0.000720300653484,0.0555501691997,0.0149203157052,0.0156406164169,17.2875785828,0.392142266035,0.596534729004,0.00627555325627,-1.89789199829,-0.0352445878088,-4.37719726562,-0.20011433959,44.0849647522,95.056915283204,53.84917449951,21.87348175048,395
1.6495011714893E+018,43,1.6495011714893E+018,r1000913c5/base_footprint,0,1.6495011714893E+018,v/m1vw10zy74w/map,-14.5525958625,-1.69078795537,0,0,0,-0.715284560413,0.698833311767,0,71.0456161499,27.4657230377,92.7453460693,94.4603805542,55.8069458008,55.8069458008,71.0456161499,71.0456161499,23.9512901306,0.422579795122,0,0.000604608678259,0.0525126457214,0.0153598934412,0.0159645024687,16.6192417145,0.376982092857,0.596534729004,0.00627555325627,-1.95777130127,-0.0363565720618,-2.07780838013,-0.0949921160936,44.0849647522,95.056915283204,53.84917449953,21.87348175047,395
1.64950117159037E+018,44,1.64950117159037E+018,r1000913c5/base_footprint,0,1.64950117159037E+018,v/m1vw10zy74w/map,-14.5534585509,-1.57828015166,0,0,0,-0.716011336161,0.698088652314,0,70.9428482056,27.4657230377,91.7143173218,94.1926651001,55.7796363831,55.7796363831,70.9428482056,70.9428482056,24.5423355103,0.395649373531,0,0.000440668314695,0.0480170808733,0.0155238332227,0.0159645024687,16.104341507,0.369619399309,0.869018554688,0.00914162769914,-1.95649337769,-0.0363504104316,-1.87976455688,-0.082945778966,43.5700645447,95.061683654788,53.82314300541,22.66257095342,406
1.64950117178933E+018,45,1.64950117178933E+018,r1000913c5/base_footprint,0,1.64950117178933E+018,v/m1vw10zy74w/map,-14.5523589519,-1.57264573982,0,0,0,-0.716138597091,0.697958100287,0,71.3363876343,22.7660522461,90.7034683228,94.3647460938,55.8085403442,55.8085403442,71.3363876343,71.3363876343,18.3902797699,0.406795471907,0,0.000422071694629,0.04183094576,0.0155424298719,0.0159645024687,20.8040122986,0.477484077215,0.696937561035,0.00733142439276,-1.98539733887,-0.0368874296546,4.27229118347,0.18851749599,43.5700645447,95.061683654835,53.82314300533,22.66257095337,406
1.64950117199221E+018,46,1.64950117199221E+018,r1000913c5/base_footprint,0,1.64950117199221E+018,v/m1vw10zy74w/map,-14.5523589519,-1.57264573982,0,0,0,-0.716138597091,0.697958100287,0,71.1003417969,24.4951705933,89.856300354,94.3647460938,55.6814193726,55.6814193726,71.1003417969,71.1003417969,21.2663211823,0.398866862059,0,0.000474475731608,0.0385265536606,0.0154900262132,0.0159645024687,19.0748939514,0.437798142433,0.696937561035,0.00733142439276,-1.85827636719,-0.0345255993307,1.39624977112,0.0616103857756,43.5700645447,95.061683654835,53.82314300541,22.66257095342,406
1.64950117208927E+018,47,1.64950117208927E+018,r1000913c5/base_footprint,0,1.64950117208927E+018,v/m1vw10zy74w/map,-14.5500750342,-1.45820103689,0,0,0,-0.715442156459,0.698671969354,0,70.8652801514,21.2737731934,89.2244186401,94.384185791,55.5583877563,55.5583877563,70.8652801514,70.8652801514,24.2385921478,0.426659792662,0,0.000533517857548,0.0353036522865,0.0154309840873,0.0159645024687,20.8987922668,0.495554208755,0.665458679199,0.00700116949156,-1.94274902344,-0.0362347438931,-0.939291000366,-0.0403141267598,42.1725654602,95.049644470199,53.61563873286,23.299301147434,402
1.64950117218936E+018,48,1.64950117218936E+018,r1000913c5/base_footprint,0,1.64950117218936E+018,v/m1vw10zy74w/map,-14.5500750342,-1.45820103689,0,0,0,-0.715442156459,0.698671969354,0,70.5174407959,25.4602603912,88.9257049561,94.384185791,55.4598007202,55.4598007202,70.5174407959,70.5174407959,29.4350280762,0.396455645561,0,0.000481389375636,0.0288421437144,0.0145381977782,0.0150195863098,16.712305069,0.39628380537,0.665458679199,0.00700116949156,-1.8441619873,-0.0343959704041,-6.13572692871,-0.263343811035,42.1725654602,95.049644470199,53.6156387329,23.29930114749,402
1.64950117228937E+018,49,1.64950117228937E+018,r1000913c5/base_footprint,0,1.64950117228937E+018,v/m1vw10zy74w/map,-14.5487389024,-1.34331973504,0,0,0,-0.713999896074,0.700145805105,0,70.4389877319,28.5067882538,88.825630188,94.2529220581,55.3461303711,55.3461303711,70.4389877319,70.4389877319,29.1469841003,0.37355902791,0,0.00051038566744,0.0243964418769,0.0145092010498,0.0150195863098,12.7601490021,0.30920997262,0.754104614258,0.00793735589832,-1.95639419556,-0.0366436392069,-5.59343719482,-0.237477496266,41.2669372559,95.007026672358,53.38973617554,23.55354690548,411
1.64950117240097E+018,50,1.64950117240097E+018,r1000913c5/base_footprint,0,1.64950117240097E+018,v/m1vw10zy74w/map,-14.5485670442,-1.3411187161,0,0,0,-0.713900443081,0.700247211611,0,70.7970504761,25.7918548584,88.9614562988,94.4535369873,55.3253631592,55.3253631592,70.7970504761,70.7970504761,23.199754715,0.325368493795,0,0.000513895996846,0.0228368919343,0.014505690895,0.0150195863098,15.4750823975,0.374999523163,0.553489685059,0.00582577614114,-1.93562698364,-0.0362546630204,0.353792190552,0.0150207607076,41.2669372559,95.007026672359,53.38973617556,23.553546905552,411
1.6495011724899E+018,51,1.6495011724899E+018,r1000913c5/base_footprint,0,1.6495011724899E+018,v/m1vw10zy74w/map,-14.5485670442,-1.3411187161,0,0,0,-0.713900443081,0.700247211611,0,70.7530670166,29.9506053925,89.4328689575,94.4535369873,55.339389801,55.339389801,70.7530670166,70.7530670166,24.1430015564,0.345128625631,0,0.000255756400293,0.0150155099109,0.0136874970049,0.013943253085,11.3163318634,0.27422273159,0.553489685059,0.00582577614114,-1.94965362549,-0.0365173853934,-0.589454650879,-0.0250261519104,41.2669372559,95.007026672359,53.38973617551,23.553546905521,411
1.64950117258912E+018,52,1.64950117258912E+018,r1000913c5/base_footprint,0,1.64950117258912E+018,v/m1vw10zy74w/map,-14.5527220484,-1.22226262599,0,0,0,-0.71232356502,0.701851222638,0,70.3002319336,31.7467441559,89.9892501831,93.9106750488,55.3237724304,55.3237724304,70.3002319336,70.3002319336,30.1710166931,0.311924129725,0,0.000280526961433,0.0118160722777,0.0136627266183,0.013943253085,8.58397483826,0.212839618325,1.08094787598,0.0113794021308,-2.15785980225,-0.0405872799456,-6.37441635132,-0.267870873213,40.33071899416,94.99162292478,53.16591262815,23.79660034178,413
1.64950117268989E+018,53,1.64950117268989E+018,r1000913c5/base_footprint,0,1.64950117268989E+018,v/m1vw10zy74w/map,-14.5529343972,-1.22287800713,0,0,0,-0.711996095024,0.702183423808,0,70.5662536621,29.7765617371,90.9420013428,94.2481765747,55.2890701294,55.2890701294,70.5662536621,70.5662536621,26.2228946686,0.297091931105,0,0.000287308910629,0.00705772684887,0.0136559447274,0.013943253085,10.5541572571,0.261690288782,0.743446350098,0.00782644096762,-2.12315750122,-0.0399345643818,-2.42629432678,-0.101959705353,40.3307189942,94.991622924798,53.16591262818,23.79660034182,413
1.64950117278979E+018,54,1.64950117278979E+018,r1000913c5/base_footprint,0,1.64950117278979E+018,v/m1vw10zy74w/map,-14.5500547215,-1.10952691879,0,0,0,-0.712014112921,0.702165153651,0,70.3483200073,31.4497451782,91.8825149536,94.1271057129,55.3349647522,55.3349647522,70.3483200073,70.3483200073,30.205373764,0.252963751554,0,0.000309407419991,0.0425358079374,0.0139042772353,0.0142136849463,6.49278640747,0.17112159729,0.287261962891,0.00304256612435,-3.90774536133,-0.0759859383106,-5.86789703369,-0.241105392575,37.94253158567,94.414367675791,51.42721939087,24.33747673031,660
1.64950117299014E+018,55,1.64950117299014E+018,r1000913c5/base_footprint,0,1.64950117299014E+018,v/m1vw10zy74w/map,-14.550325641,-1.11293062046,0,0,0,-0.711969725875,0.702210160448,0,70.4692001343,35.5742301941,92.9679336548,94.3884353638,55.337978363,55.337978363,70.4692001343,70.4692001343,29.0029640198,0.217370942235,0,5.47715499124E-05,0.0929941013455,0.0126885743812,0.0127433454618,2.3683013916,0.0624181181192,0.0259323120117,0.000274664897006,-3.91075897217,-0.076044537127,-4.66548728943,-0.191699713469,37.9425315857,94.4143676758117,51.42721939083,24.33747673037,660
1.64950117308918E+018,56,1.64950117308918E+018,r1000913c5/base_footprint,0,1.64950117308918E+018,v/m1vw10zy74w/map,-14.550325641,-1.11293062046,0,0,0,-0.711969725875,0.702210160448,0,70.4242782593,35.5742301941,93.6279144287,94.3884353638,55.3287849426,55.3287849426,70.4242782593,70.4242782593,29.7122173309,0.230620652437,0,3.77822834707E-05,0.12159922719,0.0103021701798,0.010339952074,2.3683013916,0.0624181181192,0.0259323120117,0.000274664897006,-3.90156555176,-0.0758657678962,-5.37474060059,-0.220842152834,37.9425315857,94.4143676758117,51.42721939084,24.33747673031,660
1.64950117318905E+018,57,1.64950117318905E+018,r1000913c5/base_footprint,0,1.64950117318905E+018,v/m1vw10zy74w/map,-14.5494617499,-1.00234037561,0,0,0,-0.711649548112,0.702534640193,0,70.5384140015,36.0815200806,93.6364822388,94.5064926147,55.3400001526,55.3400001526,70.5384140015,70.5384140015,28.2039031982,0.290501892567,0,0.000288914394332,0.135738700628,0.0100510381162,0.010339952074,-1.91408920288,-0.0560208708048,-0.105545043945,-0.00111805065535,-4.1989364624,-0.0821049883962,-1.62357902527,-0.0610819868743,34.16743087772,94.400947570755,51.1410636902,26.58032417293,842
1.64950117328926E+018,58,1.64950117328926E+018,r1000913c5/base_footprint,0,1.64950117328926E+018,v/m1vw10zy74w/map,-14.5494617499,-1.00234037561,0,0,0,-0.711649548112,0.702534640193,0,70.3049850464,38.4191169739,93.7721176147,94.5064926147,55.1497497559,55.1497497559,70.3049850464,70.3049850464,30.3509464264,0.289130657911,0,0.000378894561436,0.146846666932,0.0103316158056,0.0107105104253,-4.25168609619,-0.124436810613,-0.105545043945,-0.00111805065535,-4.00868606567,-0.0783848762512,-3.77062225342,-0.141857653856,34.16743087771,94.400947570755,51.14106369023,26.58032417298,842
1.64950117338937E+018,59,1.64950117338937E+018,r1000913c5/base_footprint,0,1.64950117338937E+018,v/m1vw10zy74w/map,-14.5494617499,-1.00234037561,0,0,0,-0.711649548112,0.702534640193,0,70.3175582886,32.3760986328,93.5355682373,94.5064926147,55.0497360229,55.0497360229,70.3175582886,70.3175582886,29.0444812775,0.302733063698,0,0.000194371357793,0.155613869429,0.0121099054813,0.0119155347347,1.79133224487,0.0524280630052,-0.105545043945,-0.00111805065535,-3.90867233276,-0.076429232955,-2.46415710449,-0.0927060618997,34.16743087767,94.400947570755,51.14106369014,26.58032417301,842
1.64950117348977E+018,60,1.64950117348977E+018,r1000913c5/base_footprint,0,1.64950117348977E+018,v/m1vw10zy74w/map,-14.5464038913,-0.897448240418,0,0,0,-0.712255760033,0.701920032696,0,70.3412094116,39.3090553284,93.2941818237,94.6749420166,55.0852394104,55.0852394104,70.3412094116,70.3412094116,29.6085891724,0.145293802023,0,0.000614289601799,0.155766144395,0.010336629115,0.0097223399207,-6.55640029907,-0.200179204345,-0.320533752441,-0.00339712528512,-4.03330230713,-0.0790039002895,-2.74328422546,-0.102112531662,32.75265502933,94.354408264159,51.05193710327,26.86530494694,867
1.64950117358991E+018,61,1.64950117358991E+018,r1000913c5/base_footprint,0,1.64950117358991E+018,v/m1vw10zy74w/map,-14.5464038913,-0.897448240418,0,0,0,-0.712255760033,0.701920032696,0,70.4227905273,44.4705886841,92.961730957,94.6749420166,55.1327133179,55.1327133179,70.4227905273,70.4227905273,28.6529083252,0.245228022337,0,0.000840410124511,0.154821172357,0.00738595193252,0.00654554180801,-11.7179336548,-0.357770502567,-0.320533752441,-0.00339712528512,-4.0807762146,-0.0799338147044,-1.7876033783,-0.0665394812822,32.7526550293,94.354408264159,51.0519371033,26.8653049469,867
1.6495011736893E+018,62,1.6495011736893E+018,r1000913c5/base_footprint,0,1.6495011736893E+018,v/m1vw10zy74w/map,-14.5427727704,-0.803130820474,0,0,0,-0.715636064517,0.698473351791,0,70.5028533936,43.9775924683,92.5949554443,95.2663803101,55.1869010925,55.1869010925,70.5028533936,70.5028533936,29.926109314,0.151940718293,0,0.000616292178165,0.153374031186,0.00233520660549,0.00295149884187,-12.1094837189,-0.379987537861,-0.946998596191,-0.0100403390825,-4.21834182739,-0.0827636048198,-2.70544433594,-0.0993893519044,31.8681087494,94.319381713909,50.96855926511,27.22066497806,860
1.64950117378956E+018,63,1.64950117378956E+018,r1000913c5/base_footprint,0,1.64950117378956E+018,v/m1vw10zy74w/map,-14.5427727704,-0.803130820474,0,0,0,-0.715636064517,0.698473351791,0,70.5071029663,41.6470603943,92.6388778687,95.2663803101,55.0626144409,55.0626144409,70.5071029663,70.5071029663,28.507358551,0.207071393728,0,0.00065594894113,0.153422862291,0.00129723257851,0.00195318157785,-9.7789516449,-0.306856989861,-0.946998596191,-0.0100403390825,-4.09405517578,-0.0803251117468,-1.286693573,-0.0472689978778,31.8681087494,94.319381713909,50.96855926512,27.220664978,860
1.6495011738894E+018,64,1.6495011738894E+018,r1000913c5/base_footprint,0,1.6495011738894E+018,v/m1vw10zy74w/map,-14.539208362,-0.685964934753,0,0,0,-0.712916537571,0.701248893374,0,70.4999008179,43.9338226318,92.7664413452,95.3195953369,55.0422897339,55.0422897339,70.4999008179,70.4999008179,28.6090679169,0.16450984776,0,0.000578125123866,0.153467923403,0.000151147381985,0.000729272491299,-12.8537406921,-0.413568437099,-1.06118774414,-0.0112582817674,-4.23694610596,-0.0833956822753,-1.13295555115,-0.041234202683,31.0800819397,94.25840759276,50.80534362794,27.47611236575,821
1.64950117398992E+018,65,1.64950117398992E+018,r1000913c5/base_footprint,0,1.64950117398992E+018,v/m1vw10zy74w/map,-14.539208362,-0.685964934753,0,0,0,-0.712916537571,0.701248893374,0,70.4629821777,42.1101760864,92.2565002441,95.3195953369,55.006313324,55.006313324,70.4629821777,70.4629821777,28.8850517273,0.193544119596,0,0.000528614968061,0.153469264507,0.000813655438833,0.000285040441668,-11.0300941467,-0.354892700911,-1.06118774414,-0.0112582817674,-4.20096969604,-0.0826875567436,-1.40893936157,-0.0512787029147,31.0800819397,94.25840759276,50.80534362796,27.47611236573,821
1.64950117418949E+018,66,1.64950117418949E+018,r1000913c5/base_footprint,0,1.64950117418949E+018,v/m1vw10zy74w/map,-14.539208362,-0.685964934753,0,0,0,-0.712916537571,0.701248893374,0,70.7071609497,33.706817627,91.7448043823,95.3195953369,55.0652046204,55.0652046204,70.7071609497,70.7071609497,25.1258029938,0.0796612799168,0,8.29039927339E-05,0.152959361672,0.00171849247999,0.00163558847271,-2.62673568726,-0.0845150798559,-1.06118774414,-0.0112582817674,-4.25986099243,-0.0838467106223,2.35030937195,0.0855401009321,31.08008193974,94.25840759276,50.80534362797,27.47611236575,821
1.64950117439023E+018,67,1.64950117439023E+018,r1000913c5/base_footprint,0,1.64950117439024E+018,v/m1vw10zy74w/map,-14.539208362,-0.685964934753,0,0,0,-0.712916537571,0.701248893374,0,70.8651504517,33.424533844,91.226890564,95.3195953369,55.007522583,55.007522583,70.8651504517,70.8651504517,21.6591472626,0.0752589479089,0,0.000319454760756,0.152362212539,0.00195504329167,0.00163558847271,-2.3444519043,-0.075432613492,-1.06118774414,-0.0112582817674,-4.20217895508,-0.0827113613486,5.81696510315,0.21170990169,31.0800819397,94.25840759276,50.80534362792,27.47611236575,821
1.64950117448939E+018,68,1.64950117448939E+018,r1000913c5/base_footprint,0,1.64950117448939E+018,v/m1vw10zy74w/map,-14.539208362,-0.685964934753,0,0,0,-0.712916537571,0.701248893374,0,70.7877731323,29.7765617371,90.5206756592,95.3195953369,54.9579315186,54.9579315186,70.7877731323,70.7877731323,22.5163097382,0.0238945297897,0,0.000319212645991,0.152197524905,0.0019548011478,0.00163558847271,1.30352020264,0.0419406928122,-1.06118774414,-0.0112582817674,-4.15258789062,-0.0817352607846,4.95980262756,0.180513262749,31.08008193974,94.25840759276,50.80534362798,27.47611236576,821
1.64950117459061E+018,69,1.64950117459061E+018,r1000913c5/base_footprint,0,1.64950117459061E+018,v/m1vw10zy74w/map,-14.5351650432,-0.559939361261,0,0,0,-0.71510493477,0.699017118723,0,70.7698898315,36.1605110168,90.3126602173,95.2678070068,54.8745422363,54.8745422363,70.7698898315,70.7698898315,21.7511711121,0.0532137304544,0,0.000320039165672,0.15211455524,0.00195562769659,0.00163558847271,-5.74179267883,-0.188758537173,-1.04557800293,-0.0110969357193,-4.21689987183,-0.0832431167364,5.8412399292,0.211697340012,30.41871833797,94.22222900387,50.65764236447,27.5924110413,762
1.64950117469559E+018,70,1.64950117469559E+018,r1000913c5/base_footprint,0,1.64950117469559E+018,v/m1vw10zy74w/map,-14.5351650432,-0.559939361261,0,0,0,-0.71510493477,0.699017118723,0,70.5711212158,38.8235282898,89.9958114624,95.2678070068,54.7662887573,54.7662887573,70.5711212158,70.5711212158,24.1598033905,0.0615339763463,0,0.000234745806665,0.152004808187,0.00214099744335,0.00190625165123,-8.40480995178,-0.276303887367,-1.04557800293,-0.0110969357193,-4.10864639282,-0.0811061486602,3.43260765076,0.12440405041,30.41871833802,94.22222900387,50.65764236448,27.59241104126,762
1.64950117479398E+018,71,1.64950117479398E+018,r1000913c5/base_footprint,0,1.64950117479398E+018,v/m1vw10zy74w/map,-14.5351650432,-0.559939361261,0,0,0,-0.71510493477,0.699017118723,0,70.7731552124,35.1551628113,89.6008911133,95.2678070068,54.5439910889,54.5439910889,70.7731552124,70.7731552124,18.1223945618,0.124425806105,0,0.00010997269419,0.151939213276,0.00227586529218,0.00216589262709,-4.73644447327,-0.155708223581,-1.04557800293,-0.0110969357193,-3.88634872437,-0.0767179131508,9.47001647949,0.34321090579,30.41871833803,94.22222900387,50.65764236453,27.59241104129,762
1.64950117488902E+018,72,1.64950117488902E+018,r1000913c5/base_footprint,0,1.64950117488902E+018,v/m1vw10zy74w/map,-14.5345838926,-0.460954618975,0,0,0,-0.712741475193,0.701426824081,0,70.3581924438,28.6706809998,89.3307571411,94.8396682739,54.42029953,54.42029953,70.3581924438,70.3581924438,22.7146339417,0.175915434957,0,0.000642672355752,0.152256295085,0.00248748506419,0.00184481276665,1.53847503662,0.0509274415672,-0.639007568359,-0.00678347237408,-3.79371643066,-0.0749352648854,4.76548194885,0.173415645957,30.20915603642,94.200660705541,50.62658309934,27.48011589055,716
1.64950117588964E+018,73,1.64950117588964E+018,r1000913c5/base_footprint,0,1.64950117588964E+018,v/m1vw10zy74w/map,-14.5291720281,-0.353968161348,0,0,0,-0.716361210828,0.69772961498,0,69.8631820679,30.7400379181,88.9484786987,95.2790527344,54.1056900024,54.1056900024,69.8631820679,69.8631820679,29.8087272644,0.109806582332,0,0.00232399860397,0.219089478254,0.0732880681753,0.0709640756249,-0.15816116333,-0.00517172832042,-1.13149261475,-0.012018289417,-3.58671951294,-0.0709974765778,-2.7402381897,-0.101233512163,30.58187675477,94.14756011965,50.51897048946,27.0684890747,613
1.64950117598996E+018,74,1.64950117598996E+018,r1000913c5/base_footprint,0,1.64950117598996E+018,v/m1vw10zy74w/map,-14.5291720281,-0.353968161348,0,0,0,-0.716361210828,0.69772961498,0,69.6713180542,20.3619918823,88.3387145996,95.2790527344,53.2274284363,53.2274284363,69.6713180542,69.6713180542,23.7771224976,0.0526409707963,0,0.00236496981233,0.218239486217,0.103754788637,0.101389817894,10.2198848724,0.33418110013,-1.13149261475,-0.012018289417,-2.70845794678,-0.053612690419,3.29136657715,0.121594026685,30.5818767547,94.14756011965,50.51897048952,27.06848907475,613
1.64950117609035E+018,75,1.64950117609035E+018,r1000913c5/base_footprint,0,1.64950117609035E+018,v/m1vw10zy74w/map,-14.5260564866,-0.400059141394,0,0,0,-0.676835618991,0.736134189442,0,69.1669387817,16.7420806885,88.0004577637,95.4635543823,52.2362251282,52.2362251282,69.1669387817,69.1669387817,22.8151950836,0.0670492872596,0,0.00335764535703,0.214891448617,0.144074961543,0.140717312694,13.725479126,0.450494855642,-1.30590820312,-0.0138693805784,-1.68980026245,-0.0334306582808,4.47096633911,0.163854718208,30.4675598145,94.15764617918,50.54642486575,27.28616142271,650
1.64950117618935E+018,76,1.64950117618935E+018,r1000913c5/base_footprint,0,1.64950117618935E+018,v/m1vw10zy74w/map,-14.520623024,-0.444897118966,0,0,0,-0.635333333721,0.772238017106,0,68.9031066895,12.6838235855,88.2125473022,95.6296768188,51.4055709839,51.4055709839,68.9031066895,68.9031066895,19.191028595,0.0995987951756,0,0.00468928692862,0.208653315902,0.16143772006,0.156748428941,17.6035003662,0.581216752529,-1.45224761963,-0.0154203362763,-0.843647003174,-0.0166854206473,8.1530380249,0.298164784908,30.2873239517,94.17742919917,50.561923980726,27.3440666199,691
1.64950117629051E+018,77,1.64950117629051E+018,r1000913c5/base_footprint,0,1.64950117629051E+018,v/m1vw10zy74w/map,-14.5172347918,-0.441414360349,0,0,0,-0.636240987953,0.771490379233,0,68.67943573,18.4060726166,88.7643356323,95.9873733521,51.0625953674,51.0625953674,68.67943573,68.67943573,20.8007621765,0.0166310742497,0,0.0050807534717,0.206912204623,0.167213842273,0.162133097649,11.8812503815,0.392284601927,-1.80994415283,-0.0192184485495,-0.500671386719,-0.0099021429196,6.54330444336,0.239295214415,30.2873229981,94.17742919927,50.561923980681,27.34406661986,691
1.64950117638925E+018,78,1.64950117638925E+018,r1000913c5/base_footprint,0,1.64950117638925E+018,v/m1vw10zy74w/map,-14.5079929853,-0.472807521912,0,0,0,-0.591298127167,0.806453051832,0,68.2279052734,14.3529415131,89.3751983643,95.861579895,50.5371360779,50.5371360779,68.2279052734,68.2279052734,22.800453186,0.0135268615559,0,0.00583409098908,0.204751580954,0.171402186155,0.165568083525,15.8562145233,0.524881064892,-1.66091918945,-0.0176317151636,0.0894470214844,0.00176679948345,4.67966270447,0.170292690396,30.2091560364,94.20066070555,50.6265830993844,27.48011589047,716
1.64950117648931E+018,79,1.64950117648931E+018,r1000913c5/base_footprint,0,1.64950117648931E+018,v/m1vw10zy74w/map,-14.5056524418,-0.475038263704,0,0,0,-0.583642667133,0.81201061391,0,67.6753387451,11.2825460434,89.5521011353,96.0560150146,50.1162071228,50.1162071228,67.6753387451,67.6753387451,28.9005470276,0.0226370524615,0,0.00636537838727,0.202004373074,0.17375472188,0.167389348149,18.9266090393,0.626518964767,-1.85535430908,-0.0196957681328,0.510375976562,0.0100811859593,-1.42043113708,-0.0516894161701,30.2091550827,94.20066070552,50.626583099362,27.48011589052,716
1.64950117658899E+018,80,1.64950117658899E+018,r1000913c5/base_footprint,0,1.64950117658899E+018,v/m1vw10zy74w/map,-14.4889665098,-0.515517933274,0,0,0,-0.540551789473,0.841310740986,0,67.711730957,17.0684661865,90.0018997192,96.2570495605,49.7775382996,49.7775382996,67.711730957,67.711730957,25.3116397858,-0.0330364368856,0,0.00650452962145,0.20062816143,0.174421682954,0.16791716218,13.2266235352,0.436592966318,-2.05200958252,-0.0217823758721,0.879264831543,0.0173572897911,2.20740699768,0.0802137851715,30.2950897217,94.20503997798,50.656803131143,27.51904678348,744
1.64950117678994E+018,81,1.64950117678994E+018,r1000913c5/base_footprint,0,1.64950117678994E+018,v/m1vw10zy74w/map,-14.4736053408,-0.524891947211,0,0,0,-0.488387126565,0.87262707648,0,67.4756698608,17.1764698029,90.6661148071,96.3756942749,49.4709854126,49.4709854126,67.4756698608,67.4756698608,26.6770973206,0.00501014199108,0,0.00757311750203,0.19391463697,0.168504148722,0.160931035876,12.9578704834,0.430003464222,-2.17124938965,-0.0230482686311,1.18222045898,0.0233394987881,0.872844696045,0.0316822715104,30.1343402863,94.20444488525,50.65320587158,27.549942016645,750
1.64950117689068E+018,82,1.64950117689068E+018,r1000913c5/base_footprint,0,1.64950117689068E+018,v/m1vw10zy74w/map,-14.452660795,-0.572155539845,0,0,0,-0.419763874946,0.907633345184,0,67.017250061,14.7058820724,91.53465271,96.4276733398,49.3913841248,49.3913841248,67.017250061,67.017250061,34.2560081482,0.149026930332,0,0.00797343254089,0.190862983465,0.154375046492,0.146401613951,15.4418134689,0.512205421925,-2.20335388184,-0.0233841314912,1.2498664856,0.0246807988733,-6.6798248291,-0.242231667042,30.1476955413,94.22431945796,50.6412506104,27.5761833191,775
1.64950117698931E+018,83,1.64950117698931E+018,r1000913c5/base_footprint,0,1.64950117698931E+018,v/m1vw10zy74w/map,-14.4276888548,-0.596473606068,0,0,0,-0.366634439915,0.930365082894,0,66.9209976196,9.86717224121,92.1675643921,96.3822402954,49.2038612366,49.2038612366,66.9209976196,66.9209976196,33.7997550964,0.0199275109917,0,0.00815265439451,0.186347439885,0.111090987921,0.102938331664,20.1907672882,0.671728253365,-2.16289520264,-0.0229559559375,1.43606185913,0.0283582955599,-6.09935951233,-0.220190346241,30.05793952941,94.21934509276,50.63992309573,27.70039558407,784
1.64950117708926E+018,84,1.64950117708926E+018,r1000913c5/base_footprint,0,1.64950117708926E+018,v/m1vw10zy74w/map,-14.3611734478,-0.638972820416,0,0,0,-0.24416936398,0.969732603192,0,66.4813156128,8.70588207245,91.9559020996,96.4852752686,48.8242759705,48.8242759705,66.4813156128,66.4813156128,37.9854469299,0.0838816836476,0,0.00789817050099,0.180448710918,0.0500351898372,0.0421370193362,21.3552970886,0.710394561291,-2.25466918945,-0.0239271428436,1.81067276001,0.0357593484223,-10.2899551392,-0.371538996696,30.06117916105,94.23060607915,50.63494873051,27.6954917907,801
1.64950117718917E+018,85,1.64950117718917E+018,r1000913c5/base_footprint,0,1.64950117718917E+018,v/m1vw10zy74w/map,-14.3523105134,-0.643018409327,0,0,0,-0.23760565803,0.971361699509,0,66.2980117798,7.36452054977,90.9392471313,96.5263595581,48.3694038391,48.3694038391,66.2980117798,66.2980117798,36.5203018188,0.139269441366,0,0.00614934554324,0.172853276134,0.00857838243246,0.0147277284414,22.6966571808,0.755015552044,-2.295753479,-0.0243631396443,2.26554489136,0.0447427108884,-8.82481002808,-0.31863707304,30.06117773057,94.2306060791,50.63494873046,27.69549179072,801
1.64950117728927E+018,86,1.64950117728927E+018,r1000913c5/base_footprint,0,1.64950117728927E+018,v/m1vw10zy74w/map,-14.2981738077,-0.668551620235,0,0,0,-0.178358127527,0.983965638803,0,66.1422042847,0.526064097881,90.1361465454,96.4986419678,48.3389701843,48.3389701843,66.1422042847,66.1422042847,38.8963165283,-0.0318265631795,0,0.00549875758588,0.166344940662,0.0279901623726,0.0334889218211,29.6370544434,0.982559382915,-2.26141357422,-0.0239970292896,2.33776092529,0.0461308546364,-11.1711406708,-0.402924060822,30.163118541281,94.23722839358,50.67673110959,27.7251758575,830
1.64950117738968E+018,87,1.64950117738968E+018,r1000913c5/base_footprint,0,1.64950117738968E+018,v/m1vw10zy74w/map,-14.2126142735,-0.694922247514,0,0,0,-0.129049905057,0.991638100319,0,66.7198791504,2.43902444839,89.2456283569,96.1534194946,48.605884552,48.605884552,66.7198791504,66.7198791504,30.1380901337,-0.0110097881407,0,0.00471238279715,0.124098829925,0.0552094057202,0.0599217899144,27.0500259399,0.917290508747,-1.93678283691,-0.0205566976219,1.93856048584,0.0383535809815,-2.1333065033,-0.0761765018106,29.48905038829,94.21663665769,50.54444503784,28.0047836304,805
1.64950117748933E+018,88,1.64950117748933E+018,r1000913c5/base_footprint,0,1.64950117748934E+018,v/m1vw10zy74w/map,-14.1052976819,-0.709873971216,0,0,0,-0.0596784138793,0.998217655082,0,66.7941665649,7.22142505646,88.1426773071,96.5835037231,49.1501731873,49.1501731873,66.7941665649,66.7941665649,36.227432251,-0.0121332518756,0,0.00463944114745,0.110647641122,0.0597978271544,0.0644372701645,22.086391449,0.753600716591,-2.45007324219,-0.0260276626796,1.08897018433,0.0216757319868,-7.54452514648,-0.263032108545,29.30781650546,94.13343048091,50.23914337163,28.68290710452,753
1.64950117759181E+018,89,1.64950117759181E+018,r1000913c5/base_footprint,0,1.64950117759181E+018,v/m1vw10zy74w/map,-13.9801789889,-0.719394967547,0,0,0,-0.0115717569535,0.999933044979,0,67.5157699585,13.4662132263,87.438873291,96.2977600098,49.6549911499,49.6549911499,67.5157699585,67.5157699585,27.6620082855,-0.0639314949512,0,0.00297500146553,0.0516720190644,0.091267645359,0.0942426472902,10.9235401154,0.447874158621,-2.28560638428,-0.0243118181825,0.641162872314,0.0127477515489,6.24892616272,0.184274673462,24.3897533417,94.01215362552,50.296154022214,33.91093444822,391
1.64950117778931E+018,90,1.64950117778931E+018,r1000913c5/base_footprint,0,1.64950117778931E+018,v/m1vw10zy74w/map,-13.9801789889,-0.719394967547,0,0,0,-0.0115717569535,0.999933044979,0,68.4636306763,22.5490188599,87.1275634766,96.2977600098,50.2186584473,50.2186584473,68.4636306763,68.4636306763,16.6880741119,-0.0100924102589,0,0.00311468937434,0.0463341660798,0.0950159877539,0.0981306806207,1.84073448181,0.0754716321826,-2.28560638428,-0.0243118181825,0.0774955749512,0.00154078530613,17.2228603363,0.507885158062,24.38975334171,94.01215362552,50.2961540222512,33.9109344482,391
1.64950117789003E+018,91,1.64950117789003E+018,r1000913c5/base_footprint,0,1.64950117789004E+018,v/m1vw10zy74w/map,-13.9801789889,-0.719394967547,0,0,0,-0.0115717569535,0.999933044979,0,68.7421875,13.0004940033,87.0424804688,96.2977600098,50.6463737488,50.6463737488,68.7421875,68.7421875,16.2934093475,-0.0267504770309,0,0.00308222207241,0.0424859896302,0.099570736289,0.102652959526,11.3892593384,0.466969013214,-2.28560638428,-0.0243118181825,-0.350219726562,-0.00696315104142,17.6175251007,0.519523441792,24.3897533417,94.01215362552,50.296154022238,33.9109344482,391
1.64950117809138E+018,92,1.64950117809138E+018,r1000913c5/base_footprint,0,1.64950117809138E+018,v/m1vw10zy74w/map,-13.8691123762,-0.718371735584,0,0,0,0.0146376611172,0.999892863699,0,68.9413757324,16.6666660309,88.0002746582,96.6214904785,51.0084037781,51.0084037781,68.9413757324,68.9413757324,17.7833080292,0.0214807018638,0,0.00198020134121,0.0359454415739,0.113981828094,0.115962035954,6.7384185791,0.287904053926,-2.55487060547,-0.0271602254361,-0.409736633301,-0.00809777528048,16.7051372528,0.48436909914,23.40508461,94.06661987303,50.598667144799,34.488445282,355
1.64950117819003E+018,93,1.64950117819003E+018,r1000913c5/base_footprint,0,1.64950117819003E+018,v/m1vw10zy74w/map,-13.7447555546,-0.711555403655,0,0,0,0.0277631456988,0.999614529577,0,68.9143066406,18.4060726166,88.7939300537,96.3312683105,51.4309501648,51.4309501648,68.9143066406,68.9143066406,21.7893333435,-0.0452128201723,0,0.00123187841382,0.0310560483485,0.123782202601,0.125014081597,5.02893638611,0.214590758085,-2.27262878418,-0.0241618286818,-0.685070037842,-0.0135000133887,13.0267868042,0.374159634113,23.43500900271,94.05863952632,50.745880126958,34.8161201477,329
1.64950117829112E+018,94,1.64950117829112E+018,r1000913c5/base_footprint,0,1.64950117829112E+018,v/m1vw10zy74w/map,-13.7447555546,-0.711555403655,0,0,0,0.0277631456988,0.999614529577,0,69.2842788696,21.5686283112,89.4161300659,96.3312683105,51.9667167664,51.9667167664,69.2842788696,69.2842788696,20.9160175323,0.00716492999345,0,0.00131229322869,0.0295818205923,0.124088287354,0.125400587916,1.86638069153,0.0796407088637,-2.27262878418,-0.0241618286818,-1.2208366394,-0.0240578465164,13.9001026154,0.399243295193,23.43500900273,94.05863952632,50.745880127,34.8161201477,329
1.64950117838952E+018,95,1.64950117838952E+018,r1000913c5/base_footprint,0,1.64950117838952E+018,v/m1vw10zy74w/map,-13.6133939541,-0.698521320094,0,0,0,0.0285234029885,0.999593124967,0,68.3576049805,23.764705658,90.1697845459,96.554649353,52.3380432129,52.3380432129,68.3576049805,68.3576049805,42.4106903076,-0.00480726594105,0,0.000784318719525,0.0228090360761,0.126243934035,0.127028256655,3.25726127625,0.120541237295,-2.40919494629,-0.0255901347846,-2.7280921936,-0.0549908280373,-10.8439884186,-0.343526184559,27.02196693425,94.14545440671,49.6099510193,31.566701889,551
1.64950117848976E+018,96,1.64950117848976E+018,r1000913c5/base_footprint,0,1.64950117848976E+018,v/m1vw10zy74w/map,-13.514592261,-0.690969084145,0,0,0,0.0283514744828,0.999598016152,0,68.4050445557,27.1708679199,90.8125610352,96.3657684326,52.730430603,52.730430603,68.4050445557,68.4050445557,45.11460495,-0.0639519095421,0,0.000543546571862,0.0186399146914,0.126811504364,0.127355054021,0.53223991394,0.0192122813314,-1.94633483887,-0.0206137094647,-3.66045379639,-0.074596606195,-14.7938747406,-0.487912863493,27.70310783384,94.41943359373,49.06997680661,30.3207302094,840
1.64950117858928E+018,97,1.64950117858928E+018,r1000913c5/base_footprint,0,1.64950117858928E+018,v/m1vw10zy74w/map,-13.4946652724,-0.690203456123,0,0,0,0.0281600795198,0.999603426325,0,68.836730957,23.764705658,91.5095291138,96.5065765381,53.1181869507,53.1181869507,68.836730957,68.836730957,42.0389137268,0.0108826691285,0,0.000612190982793,0.0112191634253,0.130260959268,0.130873158574,3.9384021759,0.142164632678,-2.08714294434,-0.0221050139517,-4.04821014404,-0.0824987143278,-11.7181835175,-0.386474311352,27.7031078339,94.41943359376,49.06997680666,30.3207302093,840
1.6495011786893E+018,98,1.6495011786893E+018,r1000913c5/base_footprint,0,1.6495011786893E+018,v/m1vw10zy74w/map,-13.2569317866,-0.670364878522,0,0,0,0.0179615249605,0.999838678798,0,68.8400802612,20.0367641449,92.0623168945,96.3846206665,53.5048065186,53.5048065186,68.8400802612,68.8400802612,45.7151679993,-0.00808296073228,0,0.000728000071831,0.0013769948855,0.141755357385,0.142483353615,7.10025978088,0.261644750834,-1.83893585205,-0.0194502361119,-4.85432815552,-0.0997796580195,-15.8121147156,-0.528779268265,27.13702392578,94.54568481445,48.65047836308,29.9030532837,1117
1.64950117878919E+018,99,1.64950117878919E+018,r1000913c5/base_footprint,0,1.64950117878919E+018,v/m1vw10zy74w/map,-13.0892302393,-0.664803648856,0,0,0,0.0121909730892,0.999925687326,0,69.1414642334,22.4806194305,92.12059021,96.4077606201,53.8031616211,53.8031616211,69.1414642334,69.1414642334,43.5956535339,0.0191713478416,0,0.000219434441533,0.0197257716209,0.167316809297,0.167536243796,4.44951629639,0.165224432945,-1.85950469971,-0.0196672547609,-5.18015670776,-0.106537155807,-13.6885643005,-0.457702994347,26.93013572689,94.54825592039,48.62300491334,29.9070892334,1177
1.64950117888908E+018,100,1.64950117888908E+018,r1000913c5/base_footprint,0,1.64950117888908E+018,v/m1vw10zy74w/map,-12.9733217781,-0.65968148308,0,0,0,0.00783671041915,0.999969292513,0,69.1163787842,19.7012138367,92.114074707,96.1469192505,54.0672912598,54.0672912598,69.1163787842,69.1163787842,45.9607772827,0.0155103234574,0,0.000413594738347,0.0352383702993,0.188845828176,0.188432246447,7.18138504028,0.267138779163,-1.58116149902,-0.0167202334851,-5.44305419922,-0.111941173673,-15.9040756226,-0.529135763645,26.88259887698,94.56575775148,48.62423706058,30.0567016601,1203
1.64950117898931E+018,101,1.64950117898931E+018,r1000913c5/base_footprint,0,1.64950117898932E+018,v/m1vw10zy74w/map,-12.9471360374,-0.637226637891,0,0,0,0.00242544664195,0.9999970586,0,69.377281189,16.628068924,91.9627075195,96.2457885742,54.1889076233,54.1889076233,69.377281189,69.377281189,42.9339942932,0.092371635139,0,0.000642188766506,0.0449047684669,0.202515214682,0.201873034239,10.3332633972,0.383262336254,-1.70227050781,-0.0180051531643,-5.54624938965,-0.11402028054,-12.8518562317,-0.427225500345,26.9613323212,94.54351806639,48.64265823365,30.0821380615,1161
