%time,field.header.seq,field.header.stamp,field.header.frame_id,field.pose.header.seq,field.pose.header.stamp,field.pose.header.frame_id,field.pose.pose.position.x,field.pose.pose.position.y,field.pose.pose.position.z,field.pose.pose.orientation.x,field.pose.pose.orientation.y,field.pose.pose.orientation.z,field.pose.pose.orientation.w,field.label,field.main_output,field.scan_score,field.pose_score,field.cov_score,field.lhood_map_score,field.lhood_robot_score,field.lhood_map_score_all,field.lhood_robot_score_all,field.point_angle_diff,field.average_orientation,field.map_average_orientation,field.sensor_div,field.odom_div_x,field.odom_div_w,field.imu_div_w,field.kdtree_div,field.kdtree_div_p,field.cov_div,field.cov_div_p,field.likelihood_div,field.likelihood_div_p,field.normal_diff_div,field.normal_diff_div_p,field.kdtree_average,field.cov_average,field.likelihood_average,field.normal_diff_average,field.map_update_count
1.64951752313287E+018,0,1.64951752313287E+018,r1000913c5/base_footprint,0,1.64951752313287E+018,v/m1vw10zy74w/map,-13.1177142904,-0.712465535866,0,0,0,-0.76435831811,0.6447917195,0,63.8038711548,12.8872919083,100,94.7928314209,44.801525116,44.801525116,63.8038711548,63.8038711548,36.6409912109,0.406691491604,0,0.00518348114565,0.451906263828,0.0714658200741,0.0766493007541,14.1440000534,0.523245453835,-0.24169921875,-0.0025562804658,3.83940887451,0.0789337009192,-6.77589035034,-0.226883217692,27.0312919617,94.55113220215,48.64093399051,29.86510086056,1217
1.64951752323288E+018,1,1.64951752323288E+018,r1000913c5/base_footprint,0,1.64951752323288E+018,v/m1vw10zy74w/map,-13.1169209843,-0.710984810183,0,0,0,-0.762974489445,0.646428595017,0,64.8333358765,37.1351585388,65.2700805664,94.940788269,44.8648872375,44.8648872375,64.8333358765,64.8333358765,19.3275051117,0.298244804144,0,0.00295786070637,0.324892610312,0.0911263003945,0.0940841659904,-10.1038665771,-0.373784065247,-0.389656066895,-0.00412111496553,3.77604675293,0.0776310488582,10.5375957489,0.352839797735,27.0312919617,94.551132202105,48.64093399043,29.8651008606,1217
1.64951752443246E+018,2,1.64951752443246E+018,r1000913c5/base_footprint,0,1.64951752443246E+018,v/m1vw10zy74w/map,-13.1162828561,-0.710850308335,0,0,0,-0.732801213684,0.68044278321,0,64.0939025879,30.6885547638,42.6395950317,95.1191711426,44.9590187073,44.9590187073,64.0939025879,64.0939025879,34.2961158752,0.192290648818,0,0.00167713593692,0.017731456086,0.205066904426,0.203389763832,-3.65726280212,-0.135297372937,-0.56803894043,-0.0060077435337,3.6819152832,0.0756958201528,-4.43101501465,-0.148367658257,27.03129196168,94.55113220217,48.6409339905,29.86510086055,1217
1.64951752453303E+018,3,1.64951752453303E+018,r1000913c5/base_footprint,0,1.64951752453303E+018,v/m1vw10zy74w/map,-13.1162828561,-0.710850308335,0,0,0,-0.732801213684,0.68044278321,0,63.9586219788,21.2737731934,40.5942344666,95.1191711426,44.9202575684,44.9202575684,63.9586219788,63.9586219788,36.3126373291,0.268521368504,0,0.00260852393694,0.0655684322119,0.12667144835,0.124062918127,5.75751876831,0.212994590402,-0.56803894043,-0.0060077435337,3.72067642212,0.0764927044511,-6.44753646851,-0.215888649225,27.03129196171,94.55113220217,48.64093399052,29.86510086059,1217
1.64951752463313E+018,4,1.64951752463313E+018,r1000913c5/base_footprint,0,1.64951752463313E+018,v/m1vw10zy74w/map,-13.1162828561,-0.710850308335,0,0,0,-0.732801213684,0.68044278321,0,63.9897727966,21.2737731934,40.6103668213,95.1191711426,44.8056755066,44.8056755066,63.9897727966,63.9897727966,34.5144195557,0.275346487761,0,0.00247447006404,0.0984197333455,0.0426860414445,0.0402115732431,5.75751876831,0.212994590402,-0.56803894043,-0.0060077435337,3.83525848389,0.0788483694196,-4.64931869507,-0.155677318573,27.03129196171,94.55113220217,48.64093399049,29.86510086063,1217
1.64951752473239E+018,5,1.64951752473239E+018,r1000913c5/base_footprint,0,1.64951752473239E+018,v/m1vw10zy74w/map,-13.1162828561,-0.710850308335,0,0,0,-0.732801213684,0.68044278321,0,64.0599136353,23.0429019928,41.1391830444,95.1191711426,44.7664604187,44.7664604187,64.0599136353,64.0599136353,32.8284111023,0.274974614382,0,0.000671884976327,0.106767177582,0.0232414286584,0.0239133127034,3.98838996887,0.147547140718,-0.56803894043,-0.0060077435337,3.87447357178,0.0796545892954,-2.9633102417,-0.0992231816053,27.03129196167,94.55113220217,48.64093399048,29.8651008606,1217
1.64951752483228E+018,6,1.64951752483228E+018,r1000913c5/base_footprint,0,1.64951752483228E+018,v/m1vw10zy74w/map,-13.1182678938,-0.766916629444,0,0,0,-0.692063333854,0.721836783445,0,64.118522644,28.8645687103,41.770652771,95.469833374,44.8502807617,44.8502807617,64.118522644,64.118522644,33.9409790039,0.214485749602,0,0.00221361895092,0.107567898929,0.0355491489172,0.0377627685666,-1.85585212708,-0.0687130838633,-0.903579711914,-0.00955499149859,3.77377319336,0.0776112377644,-4.08814620972,-0.1369433254,27.00871658322,94.566253662086,48.62405395506,29.85283279418,1249
1.64951752493229E+018,7,1.64951752493229E+018,r1000913c5/base_footprint,0,1.64951752493229E+018,v/m1vw10zy74w/map,-13.1086304493,-0.859026346487,0,0,0,-0.648203021439,0.761467558729,0,64.1739349365,25.1336898804,42.3830223083,95.5355758667,44.9371528625,44.9371528625,64.1739349365,64.1739349365,34.1184234619,0.402414143085,0,0.00387552683242,0.101123102009,0.0692977532744,0.0731732770801,1.99600982666,0.0735728666186,-0.954521179199,-0.0100920973346,3.66939544678,0.0754917934537,-4.34788513184,-0.146046578884,27.12969970706,94.581054687501,48.60654830928,29.77053833006,1270
1.64951752503237E+018,8,1.64951752503237E+018,r1000913c5/base_footprint,0,1.64951752503237E+018,v/m1vw10zy74w/map,-13.1086304493,-0.859026346487,0,0,0,-0.648203021439,0.761467558729,0,64.401473999,29.2123622894,42.9904975891,95.5355758667,45.0908966064,45.0908966064,64.401473999,64.401473999,31.6831531525,0.353195935488,0,0.000624313368462,0.0942207202315,0.0856338664889,0.0862581804395,-2.0826625824,-0.0767668858171,-0.954521179199,-0.0100920973346,3.51565170288,0.0723287686706,-1.91261482239,-0.064245223999,27.129699707,94.581054687501,48.60654830928,29.77053833011,1270
1.6495175251324E+018,9,1.6495175251324E+018,r1000913c5/base_footprint,0,1.6495175251324E+018,v/m1vw10zy74w/map,-13.1086304493,-0.859026346487,0,0,0,-0.648203021439,0.761467558729,0,64.2113952637,26.7116680145,43.6519203186,95.5355758667,45.2809867859,45.2809867859,64.2113952637,64.2113952637,37.1576118469,0.320283979177,0,0.00073815806536,0.0862434282899,0.0814347043633,0.0806965529919,0.418031692505,0.0154086370021,-0.954521179199,-0.0100920973346,3.32556152344,0.0684179738164,-7.38707351685,-0.248133689165,27.129699707005,94.581054687501,48.60654830934,29.77053833005,1270
1.64951752523243E+018,10,1.64951752523243E+018,r1000913c5/base_footprint,0,1.64951752523243E+018,v/m1vw10zy74w/map,-13.0861536507,-0.998968207318,0,0,0,-0.633521607764,0.773724997978,0,64.12159729,24.5621910095,44.1910629272,95.1933364868,45.2505989075,45.2505989075,64.12159729,64.12159729,37.2137680054,0.409032791853,0,0.00104485696647,0.0846243053675,0.0790960267186,0.0780511647463,3.14057731628,0.113366909325,-0.567543029785,-0.00599776254967,3.2820892334,0.0676263645291,-7.6270275116,-0.257785320282,27.70276832578,94.625793457015,48.5326881409,29.5867404938,1226
1.64951752533271E+018,11,1.64951752533271E+018,r1000913c5/base_footprint,0,1.64951752533272E+018,v/m1vw10zy74w/map,-13.0848138108,-1.00127220891,0,0,0,-0.632933224647,0.774206389239,0,64.5297927856,20.38920784,44.6626396179,95.3202438354,45.158618927,45.158618927,64.5297927856,64.5297927856,29.329706192,0.564442574978,0,0.00139491294976,0.0800425708294,0.0738540366292,0.0724591240287,7.24271202087,0.262113958597,-0.699432373047,-0.00739195058122,3.41461181641,0.0702982246876,0.312545776367,0.0105439284816,27.63191986087,94.620811462353,48.57323074341,29.642251968367,1254
1.64951752543312E+018,12,1.64951752543312E+018,r1000913c5/base_footprint,0,1.64951752543313E+018,v/m1vw10zy74w/map,-13.0618689189,-1.1589327666,0,0,0,-0.670026007684,0.742337624688,0,64.4564590454,24.0389060974,45.0638122559,94.8262786865,45.2380332947,45.2380332947,64.4564590454,64.4564590454,29.729101181,0.417701452971,0,0.00276540289633,0.0712347999215,0.0544367544353,0.0516713522375,4.47497749329,0.156940296292,-0.155303955078,-0.00164046010468,3.14099884033,0.0649247989058,-0.76515007019,-0.0264173243195,28.51388359069,94.670974731422,48.37903213503,28.96395111081,1126
1.64951752553234E+018,13,1.64951752553234E+018,r1000913c5/base_footprint,0,1.64951752553234E+018,v/m1vw10zy74w/map,-13.0611306388,-1.16110825376,0,0,0,-0.671020439726,0.741438850796,0,64.7146606445,30.5689487457,44.398475647,95.2339706421,45.3716087341,45.3716087341,64.7146606445,64.7146606445,27.9918174744,0.400184303522,0,0.00240555685014,0.0664860531688,0.0332731157541,0.0308675598353,-1.55937957764,-0.0537539720535,-0.327491760254,-0.00345067866147,3.02250289917,0.0624560043216,0.378564834595,0.0133436638862,29.00956916806,94.906478881846,48.39411163327,28.370382308995,851
1.64951752563248E+018,14,1.64951752563248E+018,r1000913c5/base_footprint,0,1.64951752563248E+018,v/m1vw10zy74w/map,-13.0611306388,-1.16110825376,0,0,0,-0.671020439726,0.741438850796,0,65.020690918,31.5332698822,43.9485282898,95.2339706421,45.6172332764,45.6172332764,65.020690918,65.020690918,25.1359539032,0.388864696026,0,0.00287016783841,0.0599707216024,0.000520958099514,0.0023492097389,-2.52370071411,-0.086995460093,-0.327491760254,-0.00345067866147,2.77687835693,0.0573805011809,3.23442840576,0.114007219672,29.00956916809,94.906478881846,48.39411163333,28.37038230896,851
1.64951752573232E+018,15,1.64951752573232E+018,r1000913c5/base_footprint,0,1.64951752573232E+018,v/m1vw10zy74w/map,-13.0553585509,-1.27438984198,0,0,0,-0.707281068432,0.706932450973,0,65.2438812256,31.1334285736,43.651309967,95.1576538086,45.8319320679,45.8319320679,65.2438812256,65.2438812256,23.1625823975,0.377368360758,0,0.00355013483204,0.0568292886019,0.0145081607625,0.018058296293,-3.49522781372,-0.126463651657,-0.0417556762695,-0.000438997871242,2.6159324646,0.0539947934449,5.53229904175,0.192797422409,27.63820075988,95.1158981323305,48.4478645325,28.69488143925,627
1.64951752583251E+018,16,1.64951752583251E+018,r1000913c5/base_footprint,0,1.64951752583251E+018,v/m1vw10zy74w/map,-13.0576080016,-1.29612497027,0,0,0,-0.709734083564,0.704469680417,0,65.2405471802,34.4262313843,43.2367019653,95.455116272,46.0233306885,46.0233306885,65.2405471802,65.2405471802,26.3605690002,0.404767662287,0,0.00514216953889,0.0463750883937,0.0672369971871,0.0723791643977,-6.78803062439,-0.245603203773,-0.339218139648,-0.00356636638753,2.42453384399,0.050044182688,2.33431243896,0.081349439919,27.63820075991,95.115898132352,48.44786453249,28.69488143916,627
1.64951752593227E+018,17,1.64951752593227E+018,r1000913c5/base_footprint,0,1.64951752593227E+018,v/m1vw10zy74w/map,-13.0604759673,-1.42772757531,0,0,0,-0.724286523981,0.689499116156,0,65.313911438,36.507938385,42.7501792908,94.6630401611,46.3519477844,46.3519477844,65.313911438,65.313911438,25.7375164032,0.466176986694,0,0.00522479321808,0.0420445613563,0.0762696564198,0.0814944505692,-8.50245094299,-0.303599476814,0.516166687012,0.00542310345918,2.16772460938,0.0446772314608,2.82193946838,0.098809286952,28.00548744201,95.179206848112,48.51967239378,28.55945587158,610
1.64951752963228E+018,18,1.64951752963228E+018,r1000913c5/base_footprint,0,1.64951752963228E+018,v/m1vw10zy74w/map,-13.0658778753,-2.19065224535,0,0,0,-0.708360380899,0.70585095507,0,65.8576965332,36.786655426,42.1299476624,95.0373306274,46.8630218506,46.8630218506,65.8576965332,65.8576965332,22.8164386749,0.462750613689,0,0.000969946268015,0.0123195713386,0.00475138518959,0.00378143903799,-10.6705417633,-0.408580780029,0.360626220703,0.00378022994846,1.34511184692,0.0279021766037,2.56395339966,0.101021029055,26.1161136627,95.397956848103,48.20813369752,25.38039207456,419
1.64951753143237E+018,19,1.64951753143237E+018,r1000913c5/base_footprint,0,1.64951753143237E+018,v/m1vw10zy74w/map,-13.0856856281,-2.29912051101,0,0,0,-0.706796347011,0.707417079135,0,66.1325149536,25.3549690247,41.0669136047,95.4748840332,46.6263771057,46.6263771057,66.1325149536,66.1325149536,16.8891620636,1.38700938225,0,0.00280611729249,0.10218629241,0.0267887748778,0.0295948907733,0.703395843506,0.0269930921495,-0.0828018188477,-0.000868015631568,1.59355926514,0.0330477282405,8.19454956055,0.326688081026,26.058364868206,95.3920822143523,48.21993637084,25.08371162415,378
1.64951753153227E+018,20,1.64951753153227E+018,r1000913c5/base_footprint,0,1.64951753153227E+018,v/m1vw10zy74w/map,-13.0856856281,-2.29912051101,0,0,0,-0.706796347011,0.707417079135,0,65.0026779175,18.608953476,40.3774757385,95.4748840332,45.9725418091,45.9725418091,65.0026779175,65.0026779175,30.1647968292,1.35948574543,0,0.00139577989466,0.175500720739,0.0274292603135,0.0288250409067,7.44941139221,0.285874098539,-0.0828018188477,-0.000868015631568,2.24739456177,0.0466071665287,-5.08108520508,-0.20256511867,26.05836486821,95.3920822143523,48.21993637087,25.08371162412,378
1.64951753163237E+018,21,1.64951753163237E+018,r1000913c5/base_footprint,0,1.64951753163237E+018,v/m1vw10zy74w/map,-13.0856856281,-2.29912051101,0,0,0,-0.706796347011,0.707417079135,0,64.9756011963,24.2546329498,39.595664978,95.4748840332,45.5335083008,45.5335083008,64.9756011963,64.9756011963,25.9106826782,1.37437975407,0,0.000366618856788,0.199111059308,0.0296797379851,0.0293131191283,1.80373191833,0.0692189186811,-0.0828018188477,-0.000868015631568,2.68642807007,0.0557119771838,-0.826971054077,-0.0329684466124,26.05836486813,95.3920822143523,48.21993637087,25.083711624123,378
1.64951753173261E+018,22,1.64951753173261E+018,r1000913c5/base_footprint,0,1.64951753173261E+018,v/m1vw10zy74w/map,-13.0856856281,-2.29912051101,0,0,0,-0.706796347011,0.707417079135,0,65.4056854248,25.6535949707,38.8048667908,95.4748840332,45.2280731201,45.2280731201,65.4056854248,65.4056854248,14.870423317,1.40483820438,0,0.00191056798212,0.207850322127,0.029840150848,0.0279295835644,0.404769897461,0.0155332041904,-0.0828018188477,-0.000868015631568,2.99186325073,0.0620461888611,10.2132883072,0.407168149948,26.058364868161,95.3920822143523,48.21993637083,25.0837116242,378
1.64951753183246E+018,23,1.64951753183246E+018,r1000913c5/base_footprint,0,1.64951753183246E+018,v/m1vw10zy74w/map,-13.0856856281,-2.29912051101,0,0,0,-0.706796347011,0.707417079135,0,65.0775680542,24.769908905,38.3535308838,95.4748840332,45.051525116,45.051525116,65.0775680542,65.0775680542,18.8698196411,1.42838799953,0,0.00189051649068,0.201159507036,0.0291761588305,0.0272856429219,1.28845596313,0.0494450032711,-0.0828018188477,-0.000868015631568,3.16841125488,0.0657074972987,6.21389198303,0.247726172209,26.05836486813,95.3920822143523,48.21993637088,25.08371162413,378
1.6495175319327E+018,24,1.6495175319327E+018,r1000913c5/base_footprint,0,1.6495175319327E+018,v/m1vw10zy74w/map,-13.0856856281,-2.29912051101,0,0,0,-0.706796347011,0.707417079135,0,65.2998580933,22.337562561,37.9374732971,95.4748840332,44.9352607727,44.9352607727,65.2998580933,65.2998580933,13.6129159927,1.47465741634,0,0.00181583419908,0.194913506508,0.0250164587051,0.0232006255537,3.72080230713,0.142787247896,-0.0828018188477,-0.000868015631568,3.28467559814,0.0681186243892,11.4707956314,0.457300573587,26.05836486813,95.3920822143523,48.21993637084,25.0837116241,378
1.6495175320324E+018,25,1.6495175320324E+018,r1000913c5/base_footprint,0,1.6495175320324E+018,v/m1vw10zy74w/map,-13.0744012326,-2.1815054656,0,0,0,-0.711085935012,0.703105108094,0,65.2812271118,18.4928874969,37.7506484985,95.5486068726,44.821472168,44.821472168,65.2812271118,65.2812271118,12.9848308563,1.56538617611,0,0.000448186125141,0.175732389092,0.0254331976175,0.025881383568,7.62322616577,0.291897416115,-0.150650024414,-0.00157917453907,3.38666152954,0.0702508315444,12.3955612183,0.488391250372,26.11611366267,95.397956848186,48.20813369754,25.3803920746,419
1.6495175321324E+018,26,1.6495175321324E+018,r1000913c5/base_footprint,0,1.6495175321324E+018,v/m1vw10zy74w/map,-13.0744012326,-2.1815054656,0,0,0,-0.711085935012,0.703105108094,0,65.1350784302,18.2582130432,37.8511505127,95.5486068726,44.788028717,44.788028717,65.1350784302,65.1350784302,15.2542848587,1.54890394211,0,0.00164885108825,0.153583109379,0.00905811227858,0.0107069630176,7.85790061951,0.300883233547,-0.150650024414,-0.00157917453907,3.42010498047,0.0709445625544,10.1261072159,0.39897364378,26.11611366271,95.397956848186,48.20813369747,25.3803920746,419
1.64951753223248E+018,27,1.64951753223248E+018,r1000913c5/base_footprint,0,1.64951753223248E+018,v/m1vw10zy74w/map,-13.0712066512,-2.06283355536,0,0,0,-0.709587590881,0.704617237135,0,65.4618225098,17.4133224487,38.1836662292,95.6666870117,44.9059143066,44.9059143066,65.4618225098,65.4618225098,11.0711297989,1.54659605026,0,0.00236546737142,0.141150102019,0.00324411084875,0.00560957798734,9.19689178467,0.34561508894,-0.287124633789,-0.00301033700816,3.44424438477,0.0712354332209,14.7865858078,0.571844220161,26.61021423337,95.379562377911,48.35015869137,25.8577156067,495
1.64951753233243E+018,28,1.64951753233243E+018,r1000913c5/base_footprint,0,1.64951753233243E+018,v/m1vw10zy74w/map,-13.0712066512,-2.06283355536,0,0,0,-0.709587590881,0.704617237135,0,64.7516403198,15.2941179276,38.8412017822,95.6666870117,45.0226554871,45.0226554871,64.7516403198,64.7516403198,25.1152687073,1.55890476704,0,0.00217873090878,0.129117637873,0.00035488451249,0.00253361556679,11.3160963058,0.425253868103,-0.287124633789,-0.00301033700816,3.32750320435,0.068820938468,0.742446899414,0.0287127792835,26.6102142334,95.379562377911,48.35015869145,25.857715606714,495
1.64951753243247E+018,29,1.64951753243247E+018,r1000913c5/base_footprint,0,1.64951753243247E+018,v/m1vw10zy74w/map,-13.0739613182,-1.94495758766,0,0,0,-0.707399436832,0.706814004367,0,64.7962188721,17.3290939331,39.6023635864,95.6130905151,45.1879577637,45.1879577637,64.7962188721,64.7962188721,25.9050693512,1.47150611877,0,0.00170732429251,0.113755561411,0.0002935443772,0.00200086878613,9.84349632263,0.362258285284,-0.265342712402,-0.00278289429843,3.26441955566,0.0673737749457,0.243087768555,0.00929655414075,27.17259025573,95.347747802698,48.45237731936,26.148157119755,596
1.64951753253279E+018,30,1.64951753253279E+018,r1000913c5/base_footprint,0,1.64951753253279E+018,v/m1vw10zy74w/map,-13.0739613182,-1.94495758766,0,0,0,-0.707399436832,0.706814004367,0,64.1581344604,16.4300193787,40.4955177307,95.6130905151,45.2643356323,45.2643356323,64.1581344604,64.1581344604,38.2155303955,1.44725632668,0,0.00273773283698,0.106758192182,0.00183419545647,0.00457192817703,10.7425708771,0.39534586668,-0.265342712402,-0.00278289429843,3.18804168701,0.0657974258065,-12.0673732758,-0.46149995923,27.1725902558,95.347747802698,48.45237731931,26.1481571197,596
1.64951753263239E+018,31,1.64951753263239E+018,r1000913c5/base_footprint,0,1.64951753263239E+018,v/m1vw10zy74w/map,-13.0678085244,-1.79608184169,0,0,0,-0.709890704236,0.704311854252,0,64.4938735962,18.8069591522,41.62915802,95.703086853,45.5012817383,45.5012817383,64.4938735962,64.4938735962,35.0552101135,1.34169375896,0,0.00408199848607,0.0951123163104,0.00439038127661,0.00847237929702,9.23600196838,0.329351872206,-0.405616760254,-0.00425632251427,2.96657180786,0.0612069964409,-7.94932937622,-0.29326954484,28.04296112058,95.297470092746,48.46785354616,27.10588073728,605
1.64951753273289E+018,32,1.64951753273289E+018,r1000913c5/base_footprint,0,1.64951753273289E+018,v/m1vw10zy74w/map,-13.0678085244,-1.79608184169,0,0,0,-0.709890704236,0.704311854252,0,63.9447593689,11.9763011932,42.9462890625,95.703086853,45.6468353271,45.6468353271,63.9447593689,63.9447593689,46.5112800598,1.36743986607,0,0.00559520116076,0.085862621665,0.00287717813626,0.00847237929702,16.0666599274,0.572930216789,-0.405616760254,-0.00425632251427,2.82101821899,0.0582039020956,-19.4053993225,-0.715911030769,28.0429611206,95.297470092746,48.46785354609,27.1058807373,605
1.64951753283243E+018,33,1.64951753283243E+018,r1000913c5/base_footprint,0,1.64951753283243E+018,v/m1vw10zy74w/map,-13.0691325806,-1.67244732958,0,0,0,-0.709288746357,0.704918062112,0,64.2428283691,12.8226833344,43.8768730164,95.4907455444,45.8648872375,45.8648872375,64.2428283691,64.2428283691,42.7365150452,1.26980626583,0,0.0056382692419,0.0791372209787,0.00283411028795,0.00847237929702,15.7688808441,0.551522135735,-0.214698791504,-0.00225343927741,2.70863723755,0.0557636544108,-14.9193210602,-0.536334514618,28.5915641785,95.276046752896,48.57352447505,27.817193985,590
1.64951753293234E+018,34,1.64951753293234E+018,r1000913c5/base_footprint,0,1.64951753293234E+018,v/m1vw10zy74w/map,-13.0706203034,-1.65268066497,0,0,0,-0.709355704687,0.704850682222,0,64.8189468384,16.593503952,45.1013793945,95.637802124,46.2470550537,46.2470550537,64.8189468384,64.8189468384,37.0232200623,1.1841520071,0,0.00586184347048,0.0746036618948,0.00261053605936,0.00847237929702,11.8922100067,0.417479783297,-0.384773254395,-0.00403948593885,2.32920837402,0.0479495152831,-9.01389122009,-0.321817457676,28.4857139587,95.253028869605,48.57626342772,28.00932884221,604
1.64951753303248E+018,35,1.64951753303248E+018,r1000913c5/base_footprint,0,1.64951753303248E+018,v/m1vw10zy74w/map,-13.0706203034,-1.65268066497,0,0,0,-0.709355704687,0.704850682222,0,64.9680099487,18.9542484283,46.5190238953,95.637802124,46.5030899048,46.5030899048,64.9680099487,64.9680099487,37.1053352356,1.02473604679,0,0.00627480028197,0.065751068294,0.00219757924788,0.00847237929702,9.5314655304,0.334605127573,-0.384773254395,-0.00403948593885,2.07317352295,0.0426787361503,-9.09600639343,-0.324749171734,28.4857139587,95.253028869605,48.57626342775,28.00932884217,604
1.64951753323228E+018,36,1.64951753323228E+018,r1000913c5/base_footprint,0,1.64951753323228E+018,v/m1vw10zy74w/map,-13.069054892,-1.51975979352,0,0,0,-0.710254628327,0.703944857883,0,64.8421630859,18.9542484283,47.6950836182,95.9089279175,46.4579658508,46.4579658508,64.8421630859,64.8421630859,39.8592185974,0.925562620163,0,0.00620392523706,0.0610172897577,0.00226845429279,0.00847237929702,9.44737625122,0.332635074854,-0.681015014648,-0.00715142209083,2.07276535034,0.0427103675902,-11.5610580444,-0.408544510603,28.40162467952,95.227912902852,48.53073120114,28.298160553,611
1.64951753343253E+018,37,1.64951753343253E+018,r1000913c5/base_footprint,0,1.64951753343253E+018,v/m1vw10zy74w/map,-13.069054892,-1.51975979352,0,0,0,-0.710254628327,0.703944857883,0,65.0965881348,23.8754329681,64.0986022949,95.9089279175,46.4239349365,46.4239349365,65.0965881348,65.0965881348,34.9120903015,0.88124704361,0,0.00637178122997,0.0562822781503,0.00210059829988,0.00847237929702,4.52619171143,0.15936383605,-0.681015014648,-0.00715142209083,2.10679626465,0.0434115901589,-6.61392974854,-0.233722954988,28.40162467953,95.227912902852,48.53073120115,28.29816055296,611
1.6495175335328E+018,38,1.6495175335328E+018,r1000913c5/base_footprint,0,1.6495175335328E+018,v/m1vw10zy74w/map,-13.069054892,-1.51975979352,0,0,0,-0.710254628327,0.703944857883,0,65.4469909668,23.9274654388,78.3463363647,95.9089279175,46.3980827332,46.3980827332,65.4469909668,65.4469909668,28.3255577087,0.852777421474,0,0.00649152463302,0.0546799339354,0.00198085489683,0.00847237929702,4.47415924072,0.157531812787,-0.681015014648,-0.00715142209083,2.13264846802,0.0439442880452,-0.0273971557617,-0.000968160282355,28.40162467952,95.227912902852,48.53073120122,28.2981605529383,611
1.6495175336323E+018,39,1.6495175336323E+018,r1000913c5/base_footprint,0,1.6495175336323E+018,v/m1vw10zy74w/map,-13.069054892,-1.51975979352,0,0,0,-0.710254628327,0.703944857883,0,65.735748291,22.4598922729,79.5643768311,95.9089279175,46.4219093323,46.4219093323,65.735748291,65.735748291,23.3853530884,0.871315598488,0,0.00660744123161,0.0531327649951,0.00186493841466,0.00847237929702,5.94173240662,0.209203958511,-0.681015014648,-0.00715142209083,2.1088218689,0.0434533283114,4.9128074646,0.173608720303,28.40162467952,95.227912902852,48.5307312012,28.298160553,611
1.64951753373254E+018,40,1.64951753373254E+018,r1000913c5/base_footprint,0,1.64951753373254E+018,v/m1vw10zy74w/map,-13.069054892,-1.51975979352,0,0,0,-0.710254628327,0.703944857883,0,65.469581604,26.2510967255,80.0582122803,95.9089279175,46.4483757019,46.4483757019,65.469581604,65.469581604,28.4620857239,0.73497569561,0,0.00658819358796,0.0486489608884,0.00188418594189,0.00847237929702,2.1505279541,0.0757184848189,-0.681015014648,-0.00715142209083,2.08235549927,0.0429079756141,-0.163925170898,-0.00579278543591,28.4016246796,95.227912902852,48.53073120117,28.298160553002,611
1.64951753383238E+018,41,1.64951753383238E+018,r1000913c5/base_footprint,0,1.64951753383238E+018,v/m1vw10zy74w/map,-13.0664726638,-1.38556364245,0,0,0,-0.708503699693,0.705707097542,0,65.3205566406,26.5811595917,79.2078704834,95.7641067505,46.4629364014,46.4629364014,65.3205566406,65.3205566406,30.7804775238,0.630716919899,0,0.00648721633479,0.047104049474,0.00198516342789,0.00847237929702,1.31570053101,0.0471630319953,-0.590873718262,-0.00620840210468,2.05204391479,0.0422971211374,-2.10478973389,-0.0733997970819,27.89686012271,95.173233032238,48.51498031619,28.67568778991,616
1.6495175339323E+018,42,1.6495175339323E+018,r1000913c5/base_footprint,0,1.6495175339323E+018,v/m1vw10zy74w/map,-13.0664726638,-1.38556364245,0,0,0,-0.708503699693,0.705707097542,0,65.3872528076,26.6968326569,78.5153121948,95.7641067505,46.4974136353,46.4974136353,65.3872528076,65.3872528076,29.9523429871,0.826564073563,0,0.00583283044398,0.0365408807993,0.00263954908587,0.00847237929702,1.20002746582,0.0430165790021,-0.590873718262,-0.00620840210468,2.01756668091,0.0415864698589,-1.27665519714,-0.0445204749703,27.89686012272,95.173233032238,48.51498031621,28.67568778996,616
1.64951753403225E+018,43,1.64951753403225E+018,r1000913c5/base_footprint,0,1.64951753403225E+018,v/m1vw10zy74w/map,-13.0623315395,-1.24847356075,0,0,0,-0.707164148437,0.707049409281,0,65.604057312,30.1470584869,79.2005996704,95.593421936,46.5375137329,46.5375137329,65.604057312,65.604057312,25.868473053,0.630252599716,0,0.00548428902403,0.0335193686187,0.00298809073865,0.00847237929702,-2.39538764954,-0.0863150805235,-0.511459350586,-0.00537914177403,1.93302536011,0.0398804172873,2.84423065186,0.0990582630038,27.75167083736,95.081962585414,48.47053909301,28.71270370486,645
1.64951753413285E+018,44,1.64951753413285E+018,r1000913c5/base_footprint,0,1.64951753413285E+018,v/m1vw10zy74w/map,-13.0622854799,-1.24703241966,0,0,0,-0.707167934144,0.70704562294,0,65.4328079224,26.6968326569,77.7496490479,95.7937164307,46.495300293,46.495300293,65.4328079224,65.4328079224,29.2160205841,0.567686080933,0,0.00517251482233,0.0303437821567,0.00329986494035,0.00847237929702,1.05483818054,0.0380098968744,-0.711753845215,-0.00748568726704,1.97523880005,0.0407513268292,-0.503316879272,-0.0175294149667,27.75167083744,95.081962585485,48.47053909305,28.712703704828,645
1.64951753423252E+018,45,1.64951753423252E+018,r1000913c5/base_footprint,0,1.64951753423252E+018,v/m1vw10zy74w/map,-13.0622854799,-1.24703241966,0,0,0,-0.707167934144,0.70704562294,0,65.488609314,26.3583297729,76.1327285767,95.7937164307,46.3831748962,46.3831748962,65.488609314,65.488609314,27.000705719,0.587092220783,0,0.00474077789113,0.0477440804243,0.00373160187155,0.00847237929702,1.39334106445,0.0502074658871,-0.711753845215,-0.00748568726704,2.08736419678,0.0430645979941,1.71199798584,0.0596251040697,27.75167083735,95.081962585485,48.47053909298,28.71270370484,645
1.64951753433233E+018,46,1.64951753433233E+018,r1000913c5/base_footprint,0,1.64951753433233E+018,v/m1vw10zy74w/map,-13.0627821093,-1.1105938207,0,0,0,-0.709587027236,0.704617804755,0,65.5883789062,27.2563991547,71.8009643555,95.7640228271,46.310508728,46.310508728,65.5883789062,65.5883789062,24.3131809235,0.487007439137,0,0.00373683846556,0.0866267681122,0.00428122468293,0.00801806338131,1.25748443604,0.0441007763147,-1.0930480957,-0.0115457568318,2.06852340698,0.0427566096187,4.65077018738,0.160570979118,28.51388359074,94.6709747314,48.37903213498,28.96395111088,1126
1.64951753443236E+018,47,1.64951753443236E+018,r1000913c5/base_footprint,0,1.64951753443237E+018,v/m1vw10zy74w/map,-13.0627821093,-1.1105938207,0,0,0,-0.709587027236,0.704617804755,0,65.6834945679,30.1194152832,66.4170150757,95.7640228271,46.3501319885,46.3501319885,65.6834945679,65.6834945679,23.0289573669,0.508593976498,0,0.00327193876728,0.108698017895,0.0048091635108,0.00808110181242,-1.6055316925,-0.0563070140779,-1.0930480957,-0.0115457568318,2.02890014648,0.0419375933707,5.9349937439,0.204909667373,28.5138835907,94.6709747314,48.37903213498,28.9639511108,1126
1.64951753453233E+018,48,1.64951753453233E+018,r1000913c5/base_footprint,0,1.64951753453233E+018,v/m1vw10zy74w/map,-13.0603245935,-0.975240687802,0,0,0,-0.709812872416,0.704390293908,0,65.3336334229,29.0525379181,62.7233200073,95.765663147,46.3311500549,46.3311500549,65.3336334229,65.3336334229,29.1273860931,0.328543335199,0,0.000245245639235,0.145212456584,0.00776098761708,0.00751574197784,-1.42061805725,-0.0514122098684,-1.14485168457,-0.0120993647724,2.24208068848,0.0461587719619,0.514865875244,0.0173693243414,27.63191986085,94.62081146243,48.57323074338,29.642251968344,1254
1.64951753463219E+018,49,1.64951753463219E+018,r1000913c5/base_footprint,0,1.64951753463219E+018,v/m1vw10zy74w/map,-13.0608327154,-0.976884546166,0,0,0,-0.710223910145,0.703975850053,0,65.6698379517,30.8486747742,63.922039032,95.8798141479,46.2911643982,46.2911643982,65.6698379517,65.6698379517,23.0548210144,0.443850874901,0,0.000467942649266,0.158138900995,0.00640436727554,0.00593642471358,-3.21675491333,-0.11641445756,-1.25900268555,-0.013305769302,2.28206634521,0.0469819754362,6.58743095398,0.222231119871,27.63191986087,94.62081146235,48.57323074341,29.64225196838,1254
1.64951753473292E+018,50,1.64951753473292E+018,r1000913c5/base_footprint,0,1.64951753473293E+018,v/m1vw10zy74w/map,-13.0569894031,-0.84971574032,0,0,0,-0.710825247525,0.70336865688,0,65.6734466553,31.2217197418,64.574836731,95.8673095703,46.191280365,46.191280365,65.6734466553,65.6734466553,21.8661785126,0.37088817358,0,0.00131969479844,0.160584509373,0.00495420070365,0.00363450567238,-4.10501670837,-0.151383325458,-1.27723693848,-0.0135028641671,2.39552307129,0.0493039861321,7.90046691895,0.265413403511,27.11670303343,94.59007263182,48.58680343629,29.76664543155,1277
1.64951753483248E+018,51,1.64951753483248E+018,r1000913c5/base_footprint,0,1.64951753483248E+018,v/m1vw10zy74w/map,-13.0569894031,-0.84971574032,0,0,0,-0.710825247525,0.70336865688,0,65.4591064453,33.6576728821,64.0064163208,95.8673095703,46.1578674316,46.1578674316,65.4591064453,65.4591064453,25.3633613586,0.260043680668,0,0.00120085745584,0.156323611736,0.00317929615267,0.00197843881324,-6.54096984863,-0.241215527058,-1.27723693848,-0.0135028641671,2.42893600464,0.0499916821718,4.40328407288,0.147926777601,27.11670303347,94.59007263182,48.58680343624,29.76664543148,1277
1.64951753493372E+018,52,1.64951753493372E+018,r1000913c5/base_footprint,0,1.64951753493372E+018,v/m1vw10zy74w/map,-13.0569894031,-0.84971574032,0,0,0,-0.710825247525,0.70336865688,0,65.5274429321,33.2748031616,65.0537261963,95.8673095703,46.1823768616,46.1823768616,65.5274429321,65.5274429321,24.3979949951,0.364331185818,0,0.00120335200336,0.154066488147,0.0036237842869,0.00242043239996,-6.15810012817,-0.227096199989,-1.27723693848,-0.0135028641671,2.40442657471,0.0494872368872,5.3686504364,0.180357933044,27.11670303343,94.59007263182,48.58680343631,29.7666454315,1277
1.64951753514461E+018,53,1.64951753514461E+018,r1000913c5/base_footprint,0,1.64951753514461E+018,v/m1vw10zy74w/map,-13.0481057017,-0.721344046199,0,0,0,-0.713741124292,0.700409599802,0,65.6865158081,31.5188770294,66.4780731201,95.7947540283,46.1910057068,46.1910057068,65.6865158081,65.6865158081,21.366689682,0.377774864435,0,0.00275512365624,0.154862850904,0.000201265909709,0.00255385763012,-4.57227134705,-0.169678941369,-1.22109985352,-0.0129116280004,2.47009658813,0.0507612116635,8.54699516296,0.285721898079,26.94660568235,94.57365417478,48.66110229493,29.91368484496,1228
1.64951753523224E+018,54,1.64951753523224E+018,r1000913c5/base_footprint,0,1.64951753523224E+018,v/m1vw10zy74w/map,-13.0481057017,-0.721344046199,0,0,0,-0.713741124292,0.700409599802,0,65.4414901733,30.1194152832,65.3198776245,95.7947540283,46.1719055176,46.1719055176,65.4414901733,65.4414901733,25.5708637238,0.196035563946,0,0.00284237647429,0.154922753572,4.96190805279E-05,0.00289199547842,-3.17280960083,-0.11774431169,-1.22109985352,-0.0129116280004,2.48919677734,0.0511537268758,4.34282112122,0.145178407431,26.94660568237,94.57365417478,48.66110229494,29.91368484502,1228
1.64951753533233E+018,55,1.64951753533233E+018,r1000913c5/base_footprint,0,1.64951753533233E+018,v/m1vw10zy74w/map,-13.0503054991,-0.588467676106,0,0,0,-0.713233477774,0.700926534084,0,65.366645813,34.0463447571,62.4308662415,95.7362442017,46.2130470276,46.2130470276,65.366645813,65.366645813,27.1517734528,0.278472065926,0,0.00286261900328,0.1546844244,0.00126215489581,0.00160046410747,-7.12683486938,-0.26474609971,-1.20597839355,-0.0127575900406,2.46258544922,0.0505917519331,2.87915229797,0.0958729088306,26.91950988772,94.53026580815,48.67563247682,30.03092575077,1121
1.64951753543236E+018,56,1.64951753543236E+018,r1000913c5/base_footprint,0,1.64951753543236E+018,v/m1vw10zy74w/map,-13.0503054991,-0.588467676106,0,0,0,-0.713233477774,0.700926534084,0,65.631942749,31.372549057,53.7799301147,95.7362442017,46.2425003052,46.2425003052,65.631942749,65.631942749,22.6944675446,0.393125325441,0,0.00289234402589,0.154767379165,0.00235826079734,0.000534083344974,-4.45303916931,-0.165420517325,-1.20597839355,-0.0127575900406,2.43313217163,0.0499866567552,7.33645820618,0.244296774268,26.91950988769,94.53026580815,48.67563247683,30.03092575078,1121
1.64951753553234E+018,57,1.64951753553234E+018,r1000913c5/base_footprint,0,1.64951753553235E+018,v/m1vw10zy74w/map,-13.0503054991,-0.588467676106,0,0,0,-0.713233477774,0.700926534084,0,65.3563766479,34.440952301,47.8083572388,95.7362442017,46.2472572327,46.2472572327,65.3563766479,65.3563766479,27.706073761,0.282426983118,0,0.00360697624274,0.155071809888,0.00307289301418,0.000534083344974,-7.52144241333,-0.279404878616,-1.20597839355,-0.0127575900406,2.42837524414,0.0498889312148,2.32485198975,0.0774152651429,26.91950988767,94.53026580815,48.67563247684,30.03092575075,1121
1.64951753563335E+018,58,1.64951753563335E+018,r1000913c5/base_footprint,0,1.64951753563335E+018,v/m1vw10zy74w/map,-13.0479541903,-0.464140429593,0,0,0,-0.712277186708,0.701898289851,0,65.2474822998,30.4812831879,47.5214347839,95.3996505737,46.1891975403,46.1891975403,65.2474822998,65.2474822998,27.8274478912,0.233876928687,0,0.00501871109009,0.155464082956,0.00348271639086,0.00153599493206,-3.26480484009,-0.119956918061,-0.89281463623,-0.00944709032774,2.47131347656,0.0507868379354,2.01546859741,0.0675359144807,27.21647834781,94.50683593747,48.66051101686,29.84291648861,1042
1.64951753643254E+018,59,1.64951753643254E+018,r1000913c5/base_footprint,0,1.64951753643254E+018,v/m1vw10zy74w/map,-13.0453887353,-0.343884898614,0,0,0,-0.713565891988,0.700588122788,0,65.3744888306,36.7201423645,47.2611312866,95.7130050659,46.1664924622,46.1664924622,65.3744888306,65.3744888306,26.4241333008,0.246472001076,0,0.00493957847357,0.214070558548,0.0246577747166,0.0295973531902,-8.84345054626,-0.317234575748,-1.22435760498,-0.0129577219486,2.46527481079,0.0506926849484,2.95165061951,0.10047904402,27.87669181824,94.48864746092,48.63176727299,29.37578392031,871
1.64951753653521E+018,60,1.64951753653521E+018,r1000913c5/base_footprint,0,1.64951753653521E+018,v/m1vw10zy74w/map,-13.0453887353,-0.343884898614,0,0,0,-0.713565891988,0.700588122788,0,65.1969070435,28.1544685364,46.9263877869,95.7130050659,46.110912323,46.110912323,65.1969070435,65.1969070435,29.0203647614,0.183736905456,0,0.0046691945754,0.212880000472,0.0286902822554,0.0333594754338,-0.27777671814,-0.00996447913349,-1.22435760498,-0.0129577219486,2.52085494995,0.0518355630338,0.355419158936,0.0120990527794,27.87669181826,94.48864746092,48.63176727295,29.375783920336,871
1.64951753663255E+018,61,1.64951753663255E+018,r1000913c5/base_footprint,0,1.64951753663255E+018,v/m1vw10zy74w/map,-13.0453887353,-0.343884898614,0,0,0,-0.713565891988,0.700588122788,0,65.4074478149,26.3583297729,46.5984764099,95.7130050659,46.144859314,46.144859314,65.4074478149,65.4074478149,25.5972290039,0.159324452281,0,0.00415866123512,0.209104165435,0.0658915489912,0.0700502172112,1.51836204529,0.0544670820236,-1.22435760498,-0.0129577219486,2.48690795898,0.0511375181377,3.77855491638,0.128628224134,27.87669181819,94.48864746092,48.63176727298,29.37578392028,871
1.64951753673245E+018,62,1.64951753673245E+018,r1000913c5/base_footprint,0,1.64951753673245E+018,v/m1vw10zy74w/map,-13.0453887353,-0.343884898614,0,0,0,-0.713565891988,0.700588122788,0,65.2713546753,25.2898235321,46.3033370972,95.7130050659,46.1289138794,46.1289138794,65.2713546753,65.2713546753,27.8746623993,0.197556778789,0,0.0041138692759,0.203968703747,0.10602196306,0.110135830939,2.58686828613,0.0927968174219,-1.22435760498,-0.0129577219486,2.50285339355,0.0514653995633,1.501121521,0.0511006452143,27.87669181823,94.48864746092,48.63176727295,29.3757839203,871
1.64951753683244E+018,63,1.64951753683244E+018,r1000913c5/base_footprint,0,1.64951753683244E+018,v/m1vw10zy74w/map,-13.0427446413,-0.452168859472,0,0,0,-0.680940649591,0.732338604564,0,64.9144134521,26.7973861694,46.0927124023,95.6565322876,45.9271316528,45.9271316528,64.9144134521,64.9144134521,31.9170627594,0.211480811238,0,0.00536919431761,0.20197302103,0.119171284139,0.124540477991,0.62964630127,0.0229571424425,-1.17756652832,-0.0124637959525,2.71738815308,0.0558621659875,-2.2057800293,-0.0742404833436,27.42703247067,94.47896575928,48.64451980588,29.7112827301,986
1.64951753693222E+018,64,1.64951753693222E+018,r1000913c5/base_footprint,0,1.64951753693222E+018,v/m1vw10zy74w/map,-13.0343322039,-0.494128107868,0,0,0,-0.63923985597,0.76900741644,0,64.7217254639,27.389705658,46.0624237061,95.6875305176,45.8719177246,45.8719177246,64.7217254639,64.7217254639,34.90076828,0.227071344852,0,0.0074923154898,0.196549803019,0.152502536774,0.159994840622,-0.24728012085,-0.00911046471447,-1.1754989624,-0.0124375587329,2.77830886841,0.0571078285575,-5.02076721191,-0.168031021953,27.14242553715,94.5120315552,48.65022659301,29.88000106809,1052
1.64951753703214E+018,65,1.64951753703214E+018,r1000913c5/base_footprint,0,1.64951753703214E+018,v/m1vw10zy74w/map,-13.0313832433,-0.570543359101,0,0,0,-0.587797221641,0.809008297999,0,64.8352050781,28.2153530121,46.0964775085,95.9478225708,45.9652366638,45.9652366638,64.8352050781,64.8352050781,34.8030700684,0.316013842821,0,0.00701617123559,0.188823282719,0.172932758927,0.179948925972,-1.24904823303,-0.0463188514113,-1.42296600342,-0.0150538813323,2.67158508301,0.0549292676151,-4.8039932251,-0.160138040781,26.96630477907,94.52485656738,48.63682174681,29.9990768433,1126
1.64951753713237E+018,66,1.64951753713237E+018,r1000913c5/base_footprint,0,1.64951753713237E+018,v/m1vw10zy74w/map,-13.0137451117,-0.613213071596,0,0,0,-0.535881418213,0.844293258065,0,64.6545562744,25.1336898804,46.119644165,95.8051223755,46.1396217346,46.1396217346,64.6545562744,64.6545562744,39.4243850708,0.167932063341,0,0.00804012548178,0.127895385027,0.10741276294,0.115452893078,1.78804016113,0.0664162412286,-1.2658996582,-0.0133902058005,2.48429870605,0.0510921105742,-9.4435043335,-0.314984232187,26.92173004153,94.5392227173,48.62392044065,29.9808807373,1159
1.64951753723231E+018,67,1.64951753723231E+018,r1000913c5/base_footprint,0,1.64951753723231E+018,v/m1vw10zy74w/map,-12.9934229888,-0.651554799429,0,0,0,-0.471040777743,0.882111436103,0,64.9056243896,24.1341400146,46.2435302734,95.7052078247,46.1406135559,46.1406135559,64.9056243896,64.9056243896,34.5562057495,0.530722081661,0,0.00731606408954,0.0816897302866,0.0411629863083,0.0484790503979,2.78759002686,0.103544235229,-1.16598510742,-0.0123333474621,2.48330688477,0.0510717108846,-4.57532501221,-0.1526080966,26.92173004146,94.53922271728,48.62392044067,29.98088073729,1159
1.64951753733434E+018,68,1.64951753733434E+018,r1000913c5/base_footprint,0,1.64951753733434E+018,v/m1vw10zy74w/map,-12.9744732794,-0.62161128968,0,0,0,-0.413595578201,0.910460706287,0,64.9858856201,24.4468421936,46.6049613953,95.6787643433,46.1265525818,46.1265525818,64.9858856201,64.9858856201,32.8643951416,0.466705560684,0,0.00584603426978,0.0570391863585,0.00113931845408,0.00470671616495,2.51449012756,0.0932628288865,-1.13524627686,-0.0120076583698,2.51610565186,0.0517263188958,-2.78225708008,-0.0924886763096,26.96133232116,94.54351806644,48.64265823366,30.08213806152,1161
1.64951753743247E+018,69,1.64951753743247E+018,r1000913c5/base_footprint,0,1.64951753743247E+018,v/m1vw10zy74w/map,-12.9744732794,-0.62161128968,0,0,0,-0.413595578201,0.910460706287,0,64.9976196289,13.5866737366,46.6695861816,95.6787643433,45.8855781555,45.8855781555,64.9976196289,64.9976196289,30.050699234,0.159969910979,0,0.0132618648931,0.048448253423,0.00470129214227,0.00856057368219,13.3746585846,0.496068149805,-1.13524627686,-0.0120076583698,2.75708007812,0.0566802918911,0.0314388275146,0.00104509945959,26.9613323212,94.54351806644,48.64265823362,30.0821380615146,1161
1.64951753753246E+018,70,1.64951753753246E+018,r1000913c5/base_footprint,0,1.64951753753246E+018,v/m1vw10zy74w/map,-12.9786132404,-0.660442792003,0,0,0,-0.359918542586,0.93298373121,0,64.5938186646,13.260219574,46.659828186,95.7618637085,45.63854599,45.63854599,64.5938186646,64.5938186646,34.9502449036,0.310026079416,0,0.0156299043447,0.0467195548117,0.00796103850007,0.0235909409821,13.622379303,0.506735980511,-1.19610595703,-0.0126484045759,2.98569107056,0.0614033490419,-4.89354324341,-0.162810385227,26.882598877,94.56575775147,48.62423706056,30.05670166019,1203
1.64951753763233E+018,71,1.64951753763233E+018,r1000913c5/base_footprint,0,1.64951753763233E+018,v/m1vw10zy74w/map,-12.9703752529,-0.669451290932,0,0,0,-0.310612669502,0.950536569283,0,65.4653930664,19.607843399,46.2954101562,95.7223587036,45.5330238342,45.5330238342,65.4653930664,65.4653930664,17.980047226,0.522361576557,0,0.0142912864685,0.0427800193429,0.0123928906396,0.0266841761768,7.27475547791,0.270612061024,-1.15660095215,-0.0122306523845,3.09121322632,0.0635735094547,12.0766544342,0.401795744896,26.88259887691,94.56575775145,48.62423706052,30.0567016602,1203
1.64951753793221E+018,72,1.64951753793221E+018,r1000913c5/base_footprint,0,1.64951753793221E+018,v/m1vw10zy74w/map,-12.9443735055,-0.638646529197,0,0,0,-0.202740685501,0.979232461902,0,64.92628479,21.5686283112,45.9056663513,96.0336380005,45.4547233582,45.4547233582,64.92628479,64.92628479,27.9589710236,0.734893321991,0,0.0130717158318,0.0293804816902,0.0876256898046,0.0745539739728,5.39270401001,0.200016230345,-1.49011993408,-0.0157612059265,3.18793487549,0.0655378401279,2.12316703796,0.0705789923668,26.96133232121,94.54351806642,48.64265823369,30.08213806156,1161
1.64951753803216E+018,73,1.64951753803216E+018,r1000913c5/base_footprint,0,1.64951753803216E+018,v/m1vw10zy74w/map,-12.9443735055,-0.638646529197,0,0,0,-0.202740685501,0.979232461902,0,64.8690261841,32.6375694275,45.1548919678,96.0336380005,46.019733429,46.019733429,64.8690261841,64.8690261841,35.0917778015,0.281822174788,0,0.0115431947634,0.024470506236,0.0959305390716,0.0843873471022,-5.67623710632,-0.210532516241,-1.49011993408,-0.0157612059265,2.62292480469,0.0539223179221,-5.00963973999,-0.166532039642,26.96133232118,94.54351806642,48.64265823369,30.08213806151,1161
1.64951753813468E+018,74,1.64951753813468E+018,r1000913c5/base_footprint,0,1.64951753813468E+018,v/m1vw10zy74w/map,-12.8830551943,-0.660586522587,0,0,0,-0.151822749858,0.988407736021,0,64.9272537231,28.2639884949,44.6548347473,95.781463623,46.4925575256,46.4925575256,64.9272537231,64.9272537231,38.2423439026,0.459092408419,0,0.0101711992174,0.0235094260424,0.104184612632,0.0940134078264,-1.47126197815,-0.054912738502,-1.23545837402,-0.0130672724918,2.10835647583,0.0433810055256,-8.0396156311,-0.266188383102,26.79272651675,94.54600524898,48.60091400143,30.2027282715,1186
1.64951753823228E+018,75,1.64951753823228E+018,r1000913c5/base_footprint,0,1.64951753823228E+018,v/m1vw10zy74w/map,-12.8795953681,-0.65802965521,0,0,0,-0.147162028886,0.989112398696,0,65.0202941895,27.675989151,44.2073936462,95.754737854,46.8793678284,46.8793678284,65.0202941895,65.0202941895,40.6488838196,0.304458081722,0,0.0099750617519,0.0255980622023,0.11884393543,0.108868874609,-0.827318191528,-0.030814120546,-1.21702575684,-0.0128734419122,1.74554443359,0.0358981490135,-10.394197464,-0.34355661273,26.848670959472,94.53771209716,48.62491226199,30.2546863556,1154
1.64951753833234E+018,76,1.64951753833234E+018,r1000913c5/base_footprint,0,1.64951753833234E+018,v/m1vw10zy74w/map,-12.7899464895,-0.683191908345,0,0,0,-0.0924754916105,0.995714960946,0,65.4406967163,25.7473487854,43.7240180969,95.6089401245,47.2184791565,47.2184791565,65.4406967163,65.4406967163,36.2192344666,0.488611012697,0,0.00975964404643,0.0313599482179,0.13408768177,0.124328039587,1.04987716675,0.0391785763204,-1.06781005859,-0.0112946610898,1.4421043396,0.0296359844506,-5.96917152405,-0.197327569127,26.79722595215,94.54113006591,48.6605834961,30.25006294255,1193
1.64951753843222E+018,77,1.64951753843222E+018,r1000913c5/base_footprint,0,1.64951753843222E+018,v/m1vw10zy74w/map,-12.7899464895,-0.683191908345,0,0,0,-0.0924754916105,0.995714960946,0,65.4152755737,20.5882358551,43.406879425,95.6089401245,47.5391311646,47.5391311646,65.4152755737,65.4152755737,40.1398162842,0.419583201408,0,0.0116192987189,0.0445056520402,0.179182365537,0.167563065886,6.20899009705,0.231702715158,-1.06781005859,-0.0112946610898,1.12145233154,0.0230464208871,-9.88975334167,-0.326933324337,26.79722595215,94.54113006591,48.66058349614,30.25006294253,1193
1.64951753853233E+018,78,1.64951753853233E+018,r1000913c5/base_footprint,0,1.64951753853233E+018,v/m1vw10zy74w/map,-12.6796645031,-0.693438544517,0,0,0,-0.0558036415744,0.998441762742,0,65.5909805298,19.9614276886,43.1482658386,95.2454376221,47.870464325,47.870464325,65.5909805298,65.5909805298,39.246963501,0.059392657131,0,0.0126449158415,0.0512268915772,0.220156237483,0.20751132071,6.9197845459,0.257420837879,-0.69913482666,-0.00739462906495,1.0355796814,0.0211748816073,-8.60776138306,-0.280939489603,26.8812122345,94.54630279544,48.9060440064,30.63920211794,1052
1.64951753863223E+018,79,1.64951753863223E+018,r1000913c5/base_footprint,0,1.64951753863223E+018,v/m1vw10zy74w/map,-12.5585795136,-0.704064449796,0,0,0,-0.0330716986662,0.999452981759,0,65.791267395,17.7427062988,43.1424255371,94.8640899658,48.1639060974,48.1639060974,65.791267395,65.791267395,37.4381103516,0.217115581036,0,0.0135669782758,0.0553538762033,0.254665315151,0.241098329425,6.64943504333,0.272605627775,-0.520172119141,-0.00551357353106,1.41005706787,0.0284435003996,-3.88986968994,-0.115948542953,24.39214134213,94.343917846659,49.57396316527,33.54824066166,613
1.64951753873251E+018,80,1.64951753873251E+018,r1000913c5/base_footprint,0,1.64951753873251E+018,v/m1vw10zy74w/map,-12.5432937324,-0.699497599636,0,0,0,-0.0284489607005,0.999595246405,0,65.8538970947,20,43.2314949036,95.0319061279,48.4539146423,48.4539146423,65.8538970947,65.8538970947,40.0470352173,0.211284413934,0,0.0129578635097,0.0604349896312,0.292752802372,0.279794961214,4.39214134216,0.180063784122,-0.68798828125,-0.00729234376922,1.12004852295,0.0225934833288,-6.49879455566,-0.193714916706,24.39214134216,94.34391784665,49.57396316525,33.54824066164,613
1.64951753883218E+018,81,1.64951753883218E+018,r1000913c5/base_footprint,0,1.64951753883218E+018,v/m1vw10zy74w/map,-12.5432937324,-0.699497599636,0,0,0,-0.0284489607005,0.999595246405,0,66.0853347778,17.1764698029,43.5187911987,95.0319061279,48.6749229431,48.6749229431,66.0853347778,66.0853347778,38.2679519653,0.102504089475,0,0.0110759036615,0.0637452602386,0.331214904785,0.320138990879,7.21567153931,0.29581952095,-0.68798828125,-0.00729234376922,0.899040222168,0.0181353315711,-4.71971130371,-0.140684321523,24.39214134221,94.34391784665,49.573963165268,33.54824066159,613
1.64951753893268E+018,82,1.64951753893268E+018,r1000913c5/base_footprint,0,1.64951753893268E+018,v/m1vw10zy74w/map,-12.4001740341,-0.698761497376,0,0,0,-0.00943031802328,0.999955533562,0,66.1000671387,12.7134723663,43.8149490356,94.5165634155,48.8743667603,48.8743667603,66.1000671387,66.1000671387,38.3015213013,0.333018779755,0,0.00986151304096,0.0661119371653,0.349349409342,0.339487910271,11.1480979919,0.467198848724,-0.18928527832,-0.00200668652542,1.10275268555,0.0220651514828,-4.07179260254,-0.118954859674,23.8615703582,94.32727813718,49.97711944585,34.22972869876,523
1.64951753903299E+018,83,1.64951753903299E+018,r1000913c5/base_footprint,0,1.64951753903299E+018,v/m1vw10zy74w/map,-12.4001740341,-0.698761497376,0,0,0,-0.00943031802328,0.999955533562,0,66.3844604492,16.235294342,44.2081222534,94.5165634155,49.0733299255,49.0733299255,66.3844604492,66.3844604492,35.3313446045,0.312371879816,0,0.0106553789228,0.0675586909056,0.362322419882,0.351667046547,7.62627601624,0.319604963064,-0.18928527832,-0.00200668652542,0.903789520264,0.0180840659887,-1.10161590576,-0.0321830175817,23.86157035824,94.32727813718,49.977119445764,34.22972869874,523
1.6495175391322E+018,84,1.6495175391322E+018,r1000913c5/base_footprint,0,1.6495175391322E+018,v/m1vw10zy74w/map,-12.4001740341,-0.698761497376,0,0,0,-0.00943031802328,0.999955533562,0,66.9505615234,17.1764698029,44.8065910339,94.5165634155,49.3827972412,49.3827972412,66.9505615234,66.9505615234,28.4838085175,0.384919315577,0,0.0107995802537,0.0682857036591,0.368037283421,0.35723772645,6.68510055542,0.280161798,-0.18928527832,-0.00200668652542,0.59432220459,0.0118918856606,5.74592018127,0.167863443494,23.86157035832,94.32727813718,49.97711944579,34.22972869877,523
1.64951753923228E+018,85,1.64951753923228E+018,r1000913c5/base_footprint,0,1.64951753923228E+018,v/m1vw10zy74w/map,-12.4001740341,-0.698761497376,0,0,0,-0.00943031802328,0.999955533562,0,66.8395385742,17.1764698029,45.5583496094,94.5165634155,49.5893173218,49.5893173218,66.8395385742,66.8395385742,32.7126274109,0.306310236454,0,0.0114944372326,0.0696984380484,0.378293097019,0.3667986691,6.68510055542,0.280161798,-0.18928527832,-0.00200668652542,0.387802124023,0.00775959342718,1.51710128784,0.0443211607635,23.86157035832,94.32727813718,49.977119445823,34.22972869874,523
1.64951753933232E+018,86,1.64951753933232E+018,r1000913c5/base_footprint,0,1.64951753933232E+018,v/m1vw10zy74w/map,-12.2707364668,-0.693399379878,0,0,0,-0.00316429442955,0.999994993608,0,66.8946533203,18.117647171,46.1559410095,94.6404342651,49.8015861511,49.8015861511,66.8946533203,66.8946533203,34.4589881897,0.253062367439,0,0.0106381354854,0.0319424532354,0.329751163721,0.319113016129,5.82340049744,0.243239164352,-0.316963195801,-0.00336038530804,0.46798324585,0.00930947437882,0.0514831542969,0.00149181252345,23.94104766844,94.323471069299,50.26956939695,34.5104713439969,477
1.64951753943215E+018,87,1.64951753943215E+018,r1000913c5/base_footprint,0,1.64951753943215E+018,v/m1vw10zy74w/map,-12.2707364668,-0.693399379878,0,0,0,-0.00316429442955,0.999994993608,0,67.0385894775,19.6556663513,46.7040786743,94.6404342651,50.0336227417,50.0336227417,67.0385894775,67.0385894775,34.3740501404,0.125401705503,0,0.0105309076607,0.00650398386642,0.259724706411,0.249193817377,4.28538131714,0.17899723351,-0.316963195801,-0.00336038530804,0.235946655273,0.00469362782314,0.136421203613,0.0039530377835,23.94104766844,94.323471069299,50.269569396973,34.510471344013,477
1.64951753953246E+018,88,1.64951753953246E+018,r1000913c5/base_footprint,0,1.64951753953246E+018,v/m1vw10zy74w/map,-12.1192372771,-0.689299897291,0,0,0,-0.00433803697213,0.999990590673,0,67.2393493652,20.9411773682,47.4748687744,94.2189407349,50.2222595215,50.2222595215,67.2393493652,67.2393493652,31.2803096771,0.594736993313,0,0.0125678852201,0.0251402314752,0.207405984402,0.194838091731,4.40142631531,0.17367695272,0.223350524902,0.00236494187266,0.191287994385,0.00379437673837,2.53011512756,0.0748323947191,25.34260368351,94.442291259802,50.413547515885,33.81042480466,490
1.64951753963231E+018,89,1.64951753963231E+018,r1000913c5/base_footprint,0,1.64951753963231E+018,v/m1vw10zy74w/map,-11.976784253,-0.68813849643,0,0,0,-0.00656535482154,0.999978447826,0,67.3972702026,27.1708679199,48.2974319458,94.2021789551,50.4024162292,50.4024162292,67.3972702026,67.3972702026,30.3230056763,0.500427782536,0,0.00346187478863,0.0237773880363,0.195831790566,0.192369922996,-2.84376144409,-0.116896823049,0.644660949707,0.00679686293006,-2.6192855835,-0.0548161156476,1.97639083862,0.0611897148192,24.32710647581,94.846839904807,47.7831306457,32.29939651492,1543
1.64951753973292E+018,90,1.64951753973292E+018,r1000913c5/base_footprint,0,1.64951753973293E+018,v/m1vw10zy74w/map,-11.8253146309,-0.680766935121,0,0,0,-0.00745739449435,0.999972193247,0,67.5300979614,22.5023345947,55.9673728943,93.9197387695,50.5653495789,50.5653495789,67.5300979614,67.5300979614,28.675075531,0.725568234921,0,0.000189806349226,0.0147174857557,0.213793039322,0.213603228331,2.5024471283,0.100078746676,0.969970703125,0.0102220857516,-2.88037872314,-0.060404330492,3.34498596191,0.104465320706,25.004781723,94.889709472625,47.68497085576,32.02006149291,1842
1.64951753983388E+018,91,1.64951753983388E+018,r1000913c5/base_footprint,0,1.64951753983388E+018,v/m1vw10zy74w/map,-11.6799898037,-0.678266408225,0,0,0,-0.0074643894841,0.999972141057,0,67.5534210205,29.4117641449,60.0097427368,93.9775009155,50.7104148865,50.7104148865,67.5534210205,67.5534210205,30.0299377441,0.703221917152,0,0.000329179572873,0.00228474778123,0.187923237681,0.187594056129,-4.18478965759,-0.16588550806,0.922210693359,0.0097177401185,-3.0651512146,-0.0643327608705,2.020362854,0.0630372539163,25.22697448731,94.899711608859,47.6452636719,32.0503005981,1967
1.64951753993231E+018,92,1.64951753993231E+018,r1000913c5/base_footprint,0,1.64951753993231E+018,v/m1vw10zy74w/map,-11.6799898037,-0.678266408225,0,0,0,-0.0074643894841,0.999972141057,0,67.7352752686,23.4360408783,62.0486488342,93.9775009155,50.762386322,50.762386322,67.7352752686,67.7352752686,27.3178691864,0.797530889511,0,0.00108889455441,0.00667105102912,0.130323335528,0.131412222981,1.79093360901,0.0709928050637,0.922210693359,0.0097177401185,-3.11712265015,-0.0654235556722,4.73243141174,0.14765638113,25.22697448731,94.899711608859,47.64526367185,32.05030059814,1967
1.64951754003233E+018,93,1.64951754003233E+018,r1000913c5/base_footprint,0,1.64951754003233E+018,v/m1vw10zy74w/map,-11.5260572553,-0.674725779503,0,0,0,-0.0104319446322,0.999945585785,0,67.5167236328,24.4380683899,61.0071029663,93.7802124023,50.750377655,50.750377655,67.5167236328,67.5167236328,30.4118728638,0.79183024168,0,0.00353586068377,0.0211584288627,0.103585608304,0.10712146759,0.756797790527,0.0300377774984,1.15154266357,0.012130215764,-3.10568618774,-0.0651843100786,1.75823974609,0.0546544492245,25.194866180427,94.93175506587,47.64469146726,32.17011260989,2014
1.6495175401323E+018,94,1.6495175401323E+018,r1000913c5/base_footprint,0,1.6495175401323E+018,v/m1vw10zy74w/map,-11.3781752497,-0.672166354082,0,0,0,-0.0137546003489,0.99990540101,0,67.7068481445,19.4071331024,59.2680282593,93.0442276001,50.7651023865,50.7651023865,67.7068481445,67.7068481445,24.4990730286,0.797339081764,0,0.00430500460789,0.040729124099,0.11392763257,0.118232637644,5.46194458008,0.219627946615,1.86108398438,0.0196099039167,-3.09447479248,-0.0649136602879,7.8702545166,0.243139266968,24.86907768248,94.90531158448,47.67062759402,32.3693275452,2024
1.64951754023231E+018,95,1.64951754023231E+018,r1000913c5/base_footprint,0,1.64951754023231E+018,v/m1vw10zy74w/map,-11.2529497751,-0.671543502453,0,0,0,-0.0164273645398,0.999865061743,0,67.6271896362,20.0367641449,55.4083061218,93.3032836914,50.6206245422,50.6206245422,67.6271896362,67.6271896362,25.3051567078,0.648666918278,0,0.00318402354605,0.0523434951901,0.117644362152,0.120828390121,4.77430725098,0.192426487803,1.58643341064,0.0167187079787,-2.85065841675,-0.0596746988595,7.28874588013,0.223622992635,24.81107139588,94.88971710204,47.76996612545,32.59390258793,2008
1.64951754033234E+018,96,1.64951754033234E+018,r1000913c5/base_footprint,0,1.64951754033234E+018,v/m1vw10zy74w/map,-11.1043874367,-0.672454186198,0,0,0,-0.0189222430298,0.999820958331,0,67.1376266479,19.7446422577,48.2239456177,93.1373901367,50.6477088928,50.6477088928,67.1376266479,67.1376266479,33.8125953674,0.512566149235,0,0.00136311375536,0.0671550109982,0.11167960614,0.113042719662,4.98763465881,0.201664999127,1.69030761719,0.0178250409663,-2.29428482056,-0.0474482402205,-0.727844238281,-0.0219993870705,24.73227691651,94.82769775389,48.35342407224,33.084751129119,1858
1.64951754043238E+018,97,1.64951754043238E+018,r1000913c5/base_footprint,0,1.64951754043238E+018,v/m1vw10zy74w/map,-10.9503101244,-0.674178187308,0,0,0,-0.020550608436,0.999788813947,0,66.9984817505,24.304605484,47.6589546204,93.0256576538,50.7054176331,50.7054176331,66.9984817505,66.9984817505,36.5381469727,0.206351906061,0,0.00100673863199,0.074441999197,0.107913531363,0.108920268714,1.25824928284,0.0492217838764,1.65060424805,0.0174341928214,-0.896812438965,-0.0180051699281,-2.38470077515,-0.0698231384158,25.56285476684,94.67626190185,49.808605194135,34.15344619755,1043
1.64951754053467E+018,98,1.64951754053467E+018,r1000913c5/base_footprint,0,1.64951754053467E+018,v/m1vw10zy74w/map,-10.790302766,-0.674946093956,0,0,0,-0.0238597467305,0.99971531572,0,66.8782653809,24.9652614594,47.2614440918,93.316696167,50.7860565186,50.7860565186,66.8782653809,66.8782653809,40.6207046509,0.515948712826,0,0.000650633417536,0.0967732444406,0.0879300385714,0.0885806754231,0.679344177246,0.0264907237142,1.33502960205,0.0141046512872,-0.623146057129,-0.0124224461615,-6.22687911987,-0.181046426296,25.644605636646,94.65172576905,50.162910461471,34.39382553103,915
1.64951754063262E+018,99,1.64951754063262E+018,r1000913c5/base_footprint,0,1.64951754063262E+018,v/m1vw10zy74w/map,-10.790302766,-0.674946093956,0,0,0,-0.0238597467305,0.99971531572,0,67.1226196289,21.8900680542,46.8920593262,93.316696167,50.7648277283,50.7648277283,67.1226196289,67.1226196289,35.9930610657,0.494477659464,0,0.00116846081801,0.108073160052,0.081958770752,0.0831272304058,3.7545375824,0.146406531334,1.33502960205,0.0141046512872,-0.601917266846,-0.0119992494583,-1.59923553467,-0.0464977510273,25.6446056366,94.65172576905,50.162910461454,34.39382553103,915
1.64951754073239E+018,100,1.64951754073239E+018,r1000913c5/base_footprint,0,1.64951754073239E+018,v/m1vw10zy74w/map,-10.6184648174,-0.684299852153,0,0,0,-0.0249620463834,0.999688399573,0,67.6784057617,22.2011394501,46.4355583191,93.2950744629,50.7843132019,50.7843132019,67.6784057617,67.6784057617,26.1215591431,0.727199554443,0,0.00130515056662,0.143377617002,0.0632158368826,0.0645209848881,3.66641426086,0.141737952828,1.54006195068,0.0162393599749,-0.739887237549,-0.0147846080363,7.40788650513,0.220936745405,25.86755371096,94.83513641358,50.044425964351,33.52944564823,1028
1.64951754083253E+018,101,1.64951754083253E+018,r1000913c5/base_footprint,0,1.64951754083253E+018,v/m1vw10zy74w/map,-10.4489671423,-0.688159679656,0,0,0,-0.0249565305828,0.999688537286,0,67.6472396851,25.3034553528,45.9725646973,93.404838562,50.9106445312,50.9106445312,67.6472396851,67.6472396851,28.4420318604,0.720994710922,0,0.00126347853802,0.17092974484,0.0513660237193,0.0526295006275,0.46572303772,0.0180728714913,1.53863525391,0.0162058025599,-1.2551612854,-0.0252773948014,4.46537780762,0.135695204139,25.76917839052,94.94347381591,49.6554832458,32.90740966802,1220
