%time,field.header.seq,field.header.stamp,field.header.frame_id,field.pose.header.seq,field.pose.header.stamp,field.pose.header.frame_id,field.pose.pose.position.x,field.pose.pose.position.y,field.pose.pose.position.z,field.pose.pose.orientation.x,field.pose.pose.orientation.y,field.pose.pose.orientation.z,field.pose.pose.orientation.w,field.label,field.main_output,field.scan_score,field.pose_score,field.cov_score,field.lhood_map_score,field.lhood_robot_score,field.lhood_map_score_all,field.lhood_robot_score_all,field.point_angle_diff,field.average_orientation,field.map_average_orientation,field.sensor_div,field.odom_div_x,field.odom_div_w,field.imu_div_w,field.kdtree_div,field.kdtree_div_p,field.cov_div,field.cov_div_p,field.likelihood_div,field.likelihood_div_p,field.normal_diff_div,field.normal_diff_div_p,field.kdtree_average,field.cov_average,field.likelihood_average,field.normal_diff_average,field.map_update_count
1.64951816005193E+018,0,1.64951816005193E+018,r1000913c5/base_footprint,0,1.64951816005193E+018,v/m1vw10zy74w/map,-2.81363794735,-0.930989910567,0,0,0,0.957012445806,0.290046855821,0,63.0419082642,15.8437099457,100,95.078414917,42.6569328308,42.6569328308,63.0419082642,63.0419082642,28.2228183746,0.31512477994,0,0.00577116152272,0.162128806114,0.229153931141,0.234925091267,-6.39544773102,-0.676891446114,-1.32373809814,-0.0141191687435,3.46311187744,0.0750890821218,5.7769985199,0.16991263628,9.44826221468,93.75467681886,46.12004470824,33.9998168945,766
1.6495181601517E+018,1,1.6495181601517E+018,r1000913c5/base_footprint,0,1.6495181601517E+018,v/m1vw10zy74w/map,-2.89849730089,-0.879384186317,0,0,0,0.971718141247,0.236143714655,0,62.3727073669,14.9849720001,44.3753585815,94.9093093872,42.7839431763,42.7839431763,62.3727073669,62.3727073669,41.0313720703,1.60017418861,0,0.0061559965834,0.161488115788,0.230561375618,0.236717373133,-5.99734401703,-0.667288839817,-1.0972366333,-0.0116961132735,3.32748794556,0.0721618905663,-6.50587844849,-0.188436940312,8.98762798307,93.8120727539,46.11143112186,34.52549362181,769
1.64951816025171E+018,2,1.64951816025171E+018,r1000913c5/base_footprint,0,1.64951816025171E+018,v/m1vw10zy74w/map,-2.89849730089,-0.879384186317,0,0,0,0.971718141247,0.236143714655,0,62.4963340759,14.7485084534,45.0588951111,94.9093093872,42.9301834106,42.9301834106,62.4963340759,62.4963340759,40.3855018616,1.28444194794,0,0.00617735087872,0.159388959408,0.231178373098,0.237355723977,-5.76088047028,-0.640978991985,-1.0972366333,-0.0116961132735,3.18124771118,0.068990431726,-5.86000823975,-0.169729888439,8.98762798312,93.8120727539,46.11143112178,34.52549362185,769
1.64951816035148E+018,3,1.64951816035148E+018,r1000913c5/base_footprint,0,1.64951816035148E+018,v/m1vw10zy74w/map,-3.00667847391,-0.834314463496,0,0,0,0.982323000512,0.187193810432,0,63.2096176147,12.6050424576,46.1117324829,94.9624328613,43.0193099976,43.0193099976,63.2096176147,63.2096176147,28.700220108,1.50737011433,0,0.00578980194405,0.159654766321,0.257754713297,0.263544529676,-4.09052085876,-0.480416983366,-1.09448242188,-0.0116598093882,3.05018615723,0.0662083700299,6.27459907532,0.179403334856,8.51452159884,93.86795043942,46.06949615483,34.97481918332,772
1.64951816045169E+018,4,1.64951816045169E+018,r1000913c5/base_footprint,0,1.64951816045169E+018,v/m1vw10zy74w/map,-3.00667847391,-0.834314463496,0,0,0,0.982323000512,0.187193810432,0,62.7721595764,11.764705658,46.8018112183,94.9624328613,42.9315681458,42.9315681458,62.7721595764,62.7721595764,35.6268386841,1.55313360691,0,0.00496453233063,0.160929217935,0.274788588285,0.279753118753,-3.25018405914,-0.381722450256,-1.09448242188,-0.0116598093882,3.13792800903,0.068112924695,-0.652019500732,-0.0186425410211,8.51452159886,93.86795043942,46.06949615483,34.974819183368,772
1.64951816055151E+018,5,1.64951816055151E+018,r1000913c5/base_footprint,0,1.64951816055151E+018,v/m1vw10zy74w/map,-3.12572320339,-0.795083475117,0,0,0,0.990020059557,0.140926511613,0,62.6334152222,13.1845846176,51.3996582031,94.900718689,42.7611694336,42.7611694336,62.6334152222,62.6334152222,36.0617523193,1.1899459362,0,0.00334131461568,0.15987226367,0.27775773406,0.281099051237,-5.13765144348,-0.638460814953,-1.02959442139,-0.0109681701288,3.25729751587,0.0707824006677,-0.758762359619,-0.0214928630739,8.04693317412,93.87112426761,46.01846694947,35.302989959681,766
1.64951816065224E+018,6,1.64951816065224E+018,r1000913c5/base_footprint,0,1.64951816065224E+018,v/m1vw10zy74w/map,-3.12572320339,-0.795083475117,0,0,0,0.990020059557,0.140926511613,0,62.5120048523,10.9697933197,54.2948722839,94.900718689,42.6769447327,42.6769447327,62.5120048523,62.5120048523,37.33751297,1.18268787861,0,0.00158660276793,0.160317376256,0.245614677668,0.247201278806,-2.92286014557,-0.363226592541,-1.02959442139,-0.0109681701288,3.3415222168,0.0726126357913,-2.03452301025,-0.0576303303242,8.04693317413,93.87112426761,46.0184669495,35.30298995975,766
1.6495181617519E+018,7,1.6495181617519E+018,r1000913c5/base_footprint,0,1.6495181617519E+018,v/m1vw10zy74w/map,-4.26531711632,-0.731623649136,0,0,0,-0.999955069504,0.00947939730693,0,62.5088386536,3.21234869957,70.2975540161,95.3707504272,42.7962913513,42.7962913513,62.5088386536,62.5088386536,40.3755340576,-0.0135974856094,0,0.00465915538371,0.0432261228561,0.0765540227294,0.0718948692083,6.23188877106,0.659861505032,-1.36347198486,-0.0145038980991,0.712615966797,0.0163786225021,-8.11597442627,-0.2515835464,9.44423747063,94.00727844234,43.508907318097,32.25955963133,1409
1.64951816185169E+018,8,1.64951816185169E+018,r1000913c5/base_footprint,0,1.64951816185169E+018,v/m1vw10zy74w/map,-4.41098491138,-0.731773732471,0,0,0,-0.999974421255,0.00715240067923,0,62.6480827332,6.69371175766,60.3725585938,95.0898132324,42.6863174438,42.6863174438,62.6480827332,62.6480827332,35.6700820923,0.0977219194174,0,0.00253292708658,0.0560800135136,0.0971358865499,0.0946029573679,2.76159715652,0.292068421841,-1.10019683838,-0.0117055149749,0.938194274902,0.0215061269701,-3.09666442871,-0.0950672253966,9.45530891418,93.98961639402,43.624511718702,32.57341766359,1390
1.64951816195157E+018,9,1.64951816195157E+018,r1000913c5/base_footprint,0,1.64951816195157E+018,v/m1vw10zy74w/map,-4.41911123383,-0.730231357585,0,0,0,-0.9999726477,0.00739620525125,0,62.7146606445,8.31643009186,47.4853668213,95.3671264648,42.5390663147,42.5390663147,62.7146606445,62.7146606445,33.879699707,0.190558537841,0,0.00479924026877,0.0698486715555,0.0960810035467,0.0912817567587,1.13887882233,0.120448611677,-1.3775100708,-0.0146559812129,1.08544540405,0.0248815491796,-1.30628204346,-0.0401027016342,9.45530891419,93.989616394,43.62451171875,32.57341766354,1390
1.64951816205158E+018,10,1.64951816205158E+018,r1000913c5/base_footprint,0,1.64951816205158E+018,v/m1vw10zy74w/map,-4.55462206294,-0.733812612091,0,0,0,-0.999994005983,0.00346236885369,0,62.5018615723,4.41176462173,46.8757171631,95.0413513184,42.4143257141,42.4143257141,62.5018615723,62.5018615723,35.1901092529,0.260807156563,0,0.00541361514479,0.081801392138,0.0864605382085,0.081046923995,5.07260560989,0.534838438034,-1.07421112061,-0.0114317741245,1.46937561035,0.0334834009409,-2.14016723633,-0.064755551517,9.48437023162,93.96714019779,43.88370132445,33.04994201657,1328
1.64951816215207E+018,11,1.64951816215207E+018,r1000913c5/base_footprint,0,1.64951816215207E+018,v/m1vw10zy74w/map,-4.73231267134,-0.7315138814,0,0,0,-0.999998775784,0.00156474584617,0,62.4104309082,3.36134457588,46.139087677,94.8807144165,42.3628921509,42.3628921509,62.4104309082,62.4104309082,35.7020225525,0.158228233457,0,0.00518817827106,0.0940075740218,0.0822216197848,0.0770334452391,6.32731533051,0.653064072132,-0.841896057129,-0.0089526437223,1.91556930542,0.0432618744671,-2.07036209106,-0.0615599118173,9.68865990639,94.038818359371,44.27846145632,33.63166046144,1211
1.64951816225321E+018,12,1.64951816225321E+018,r1000913c5/base_footprint,0,1.64951816225321E+018,v/m1vw10zy74w/map,-4.89372782788,-0.7301684641,0,0,0,-0.999999806651,0.000621851147637,0,63.0067100525,12.4281291962,45.5466117859,95.2222366333,42.5732192993,42.5732192993,63.0067100525,63.0067100525,28.4700679779,0.574448823929,0,0.00526705337688,0.107432238758,0.0788250193,0.0735579654574,-2.34472560883,-0.232533156872,-1.26445007324,-0.0134576400742,4.06037521362,0.0870697423816,8.19638252258,0.223539024591,10.08340358737,93.95778656006,46.63359451292,36.66645050048,819
1.64951816235283E+018,13,1.64951816235283E+018,r1000913c5/base_footprint,0,1.64951816235283E+018,v/m1vw10zy74w/map,-5.00147988782,-0.730748036185,0,0,0,-0.999998802562,0.00154753790637,0,63.1158943176,13.9596138,45.0443916321,95.4543685913,42.7726135254,42.7726135254,63.1158943176,63.1158943176,29.4938716888,0.306169211864,0,0.00487772049382,0.115710996091,0.0762880370021,0.0714103206992,-3.42535495758,-0.32516336441,-1.6167755127,-0.0172295067459,4.72592163086,0.0994961559772,7.74290275574,0.207936987281,10.53425884242,93.8375930786,47.49853515626,37.23677444454,740
1.64951816245148E+018,14,1.64951816245148E+018,r1000913c5/base_footprint,0,1.64951816245148E+018,v/m1vw10zy74w/map,-5.16863852018,-0.728964482789,0,0,0,-0.999999563841,0.000933979966218,0,63.3019638062,15.2249135971,44.6620101929,95.2707748413,43.0063819885,43.0063819885,63.3019638062,63.3019638062,28.0083942413,0.360345572233,0,0.00493389926851,0.126732543111,0.0718435645103,0.0669096708298,-4.0124797821,-0.35785984993,-1.33394622803,-0.0142004601657,4.55982971191,0.0958627909422,8.91367912292,0.241418704391,11.212433815,93.93682861327,47.56621170041,36.92207336422,734
1.64951816265166E+018,15,1.64951816265166E+018,r1000913c5/base_footprint,0,1.64951816265166E+018,v/m1vw10zy74w/map,-5.16863852018,-0.728964482789,0,0,0,-0.999999563841,0.000933979966218,0,63.3613128662,10.8996543884,44.429485321,95.2707748413,43.1050109863,43.1050109863,63.3613128662,63.3613128662,28.0052871704,0.0944766029716,0,0.00534254079685,0.133246853948,0.0672049373388,0.0618623942137,0.312779426575,0.0278957653791,-1.33394622803,-0.0142004601657,4.46120071411,0.0937892794609,8.91678619385,0.241502851248,11.212433814975,93.93682861327,47.56621170041,36.92207336425,734
1.64951816275163E+018,16,1.64951816275163E+018,r1000913c5/base_footprint,0,1.64951816275164E+018,v/m1vw10zy74w/map,-5.29719311035,-0.729347904383,0,0,0,-0.999999137896,0.00131309110591,0,63.4881629944,13.4453783035,44.2083892822,95.2345581055,43.2916526794,43.2916526794,63.4881629944,63.4881629944,27.6073303223,0.132813870907,0,0.00496610114351,0.144575506449,0.0632927641273,0.0583266653121,-1.64235591888,-0.139147058129,-1.25090789795,-0.0133098457009,4.33338165283,0.09098957479,8.66469192505,0.238880857825,11.80302238462,93.98365020755,47.62503433223,36.27202224735,741
1.64951816285222E+018,17,1.64951816285222E+018,r1000913c5/base_footprint,0,1.64951816285223E+018,v/m1vw10zy74w/map,-5.33966274273,-0.729841629004,0,0,0,-0.999999833341,0.000577337023369,0,63.912399292,8.4033613205,44.1045646667,95.4482192993,43.4560585022,43.4560585022,63.912399292,63.912399292,22.5158348083,0.182573989034,0,0.00498863589019,0.148327618837,0.0627200677991,0.0577314347029,3.64030838013,0.30225905776,-1.43151855469,-0.0152262160555,4.17999649048,0.0877485871315,13.6352653503,0.377174288034,12.04366970063,94.01670074461,47.63605499268,36.1511001586,749
1.64951816295192E+018,18,1.64951816295192E+018,r1000913c5/base_footprint,0,1.64951816295192E+018,v/m1vw10zy74w/map,-5.49917785585,-0.727842643224,0,0,0,-0.999999943695,0.000335573069214,0,63.5845603943,7.92838859558,44.1220436096,95.0094680786,43.3503074646,43.3503074646,63.5845603943,63.5845603943,25.6953468323,0.353343307972,0,0.00554970279336,0.168813914061,0.0627935230732,0.0572438240051,4.32133483887,0.352770000696,-1.01109313965,-0.01075649634,4.17861175537,0.0879172459245,10.272228241,0.285596907139,12.24972343445,93.99837493895,47.52891921997,35.9675750733,766
1.64951816305205E+018,19,1.64951816305205E+018,r1000913c5/base_footprint,0,1.64951816305205E+018,v/m1vw10zy74w/map,-5.64378694861,-0.72556135335,0,0,0,0.999999702451,0.000771426321377,0,63.1436157227,14.1972579956,44.3544921875,94.9710617065,43.470916748,43.470916748,63.1436157227,63.1436157227,34.7966537476,0.136326909065,0,0.0076923025772,0.202500894666,0.0507224090397,0.0430301055312,-1.56540870667,-0.123925536871,-0.911926269531,-0.00969524402171,4.14196014404,0.0869924351573,1.06622695923,0.0297306552529,12.63184928893,94.059135436969,47.61287689204,35.86288070683,765
1.64951816315237E+018,20,1.64951816315237E+018,r1000913c5/base_footprint,0,1.64951816315237E+018,v/m1vw10zy74w/map,-5.8174835438,-0.727574314297,0,0,0,0.999998617388,0.00166289550787,0,62.8610038757,10.4477615356,44.7272338867,94.7074050903,43.5365104675,43.5365104675,62.8610038757,62.8610038757,39.6429100037,0.0427477099001,0,0.0120588392019,0.224218696356,0.0324038676918,0.0203450284898,2.34040641785,0.183013424277,-0.673400878906,-0.00716124847531,3.97473144531,0.0836587548256,-3.30760955811,-0.0910301953554,12.78816795345,94.034004211394,47.51124191281,36.33530044559,753
1.64951816325157E+018,21,1.64951816325157E+018,r1000913c5/base_footprint,0,1.64951816325157E+018,v/m1vw10zy74w/map,-5.980355253,-0.724582763012,0,0,0,0.999983027525,0.00582620473289,0,62.8942565918,15.1846780777,45.2029190063,94.9978561401,43.9262695312,43.9262695312,62.8942565918,62.8942565918,44.299369812,0.172195211053,0,0.0115820337087,0.235250040889,0.020077733323,0.00849569868296,-1.86112117767,-0.139686509967,-0.944808959961,-0.0100454902276,3.69504547119,0.0775922611356,-7.33270263672,-0.198359847069,13.32355690003,94.053047180139,47.62131500239,36.96666717528,769
1.64951816335162E+018,22,1.64951816335162E+018,r1000913c5/base_footprint,0,1.64951816335162E+018,v/m1vw10zy74w/map,-6.14628328541,-0.72202494442,0,0,0,0.999996710003,0.00256514767895,0,63.2355728149,12.8872919083,45.7867050171,94.6572113037,44.5107421875,44.5107421875,63.2355728149,63.2355728149,43.2416381836,0.152581855655,0,0.00638115918264,0.252992331982,0.0262071210891,0.0198259614408,1.46313476562,0.101957581937,-0.570205688477,-0.00606040842831,3.15838241577,0.066256351769,-5.62730407715,-0.149605304003,14.35042667392,94.087005615223,47.66912460327,37.61433410645,801
1.64951816605152E+018,23,1.64951816605152E+018,r1000913c5/base_footprint,0,1.64951816605152E+018,v/m1vw10zy74w/map,-6.71592925136,-0.720789177128,0,0,0,-0.999930895962,0.0117559899947,0,64.2109985352,18.6851215363,46.4317855835,95.6311721802,44.9809913635,44.9809913635,64.2109985352,64.2109985352,34.2689094543,0.413669168949,0,0.00138349086046,0.276482820511,0.0123918065801,0.0110083157197,-1.89501571655,-0.112865023315,-1.28606414795,-0.0136314872652,2.23149108887,0.047264855355,2.50829315186,0.0682023912668,16.79010581975,94.34510803225,47.21248245237,36.77720260616,984
1.64951816615201E+018,24,1.64951816615201E+018,r1000913c5/base_footprint,0,1.64951816615201E+018,v/m1vw10zy74w/map,-6.71592925136,-0.720789177128,0,0,0,-0.999930895962,0.0117559899947,0,64.5244064331,31.372549057,46.8863258362,95.6311721802,45.192615509,45.192615509,64.5244064331,64.5244064331,30.9131755829,-0.0190761815757,0,0.00769384112209,0.150566846132,0.00918081123382,0.0168746523559,-14.5824432373,-0.868514060974,-1.28606414795,-0.0136314872652,2.01986694336,0.0427824780345,5.86402702332,0.159447342157,16.7901058197,94.34510803225,47.21248245236,36.77720260622,984
1.64951816625179E+018,25,1.64951816625179E+018,r1000913c5/base_footprint,0,1.64951816625179E+018,v/m1vw10zy74w/map,-6.85034250041,-0.720429374051,0,0,0,-0.999913126921,0.0131809943191,0,64.6895675659,25.0604343414,50.7612419128,95.8181304932,45.2000656128,45.2000656128,64.6895675659,64.6895675659,28.6937274933,0.0493342988193,0,0.00394363421947,0.00626870756969,0.00401780568063,7.41711846786E-05,-8.44213676453,-0.508002519608,-1.33609771729,-0.014141288586,1.25495910645,0.0270144958049,7.26323509216,0.201998010278,16.61829757687,94.48203277591,46.45502471925,35.95696258546,1257
1.64951816635252E+018,26,1.64951816635252E+018,r1000913c5/base_footprint,0,1.64951816635252E+018,v/m1vw10zy74w/map,-6.99448642373,-0.723400221237,0,0,0,-0.9999209465,0.0125738120676,0,64.7743453979,22.1095333099,59.3774528503,96.1599807739,45.1600608826,45.1600608826,64.7743453979,64.7743453979,27.966337204,0.297632962465,0,0.00207512266934,0.0256902091205,0.00342476251535,0.00134963984601,-5.6557559967,-0.343736022711,-1.62520599365,-0.0171916205436,1.1926612854,0.0257301237434,7.80038261414,0.218090519309,16.4537773132,94.53477478025,46.352722168,35.76671981814,1256
1.6495181664517E+018,27,1.6495181664517E+018,r1000913c5/base_footprint,0,1.6495181664517E+018,v/m1vw10zy74w/map,-6.99448642373,-0.723400221237,0,0,0,-0.9999209465,0.0125738120676,0,64.6744155884,24.0717563629,64.649772644,96.1599807739,44.9858970642,44.9858970642,64.6744155884,64.6744155884,27.8841285706,0.311810493469,0,0.00256509426981,0.0210284572095,0.00383877032436,0.00127367605455,-7.61797904968,-0.462992727757,-1.62520599365,-0.0171916205436,1.36682510376,0.0294874832034,7.88259124756,0.220388993621,16.45377731322,94.53477478025,46.35272216796,35.76671981816,1256
1.6495181665517E+018,28,1.6495181665517E+018,r1000913c5/base_footprint,0,1.6495181665517E+018,v/m1vw10zy74w/map,-7.13724459644,-0.729983503079,0,0,0,-0.999927872032,0.0120104426946,0,64.7690734863,22.4211425781,65.82396698,96.3257217407,45.0778884888,45.0778884888,64.7690734863,64.7690734863,27.7704582214,0.280677288771,0,0.00244005350396,0.0170457437634,0.00398370716721,0.001543653314,-6.35968017578,-0.395958960056,-1.81658935547,-0.0192213095725,1.15153884888,0.0249092169106,7.93776702881,0.222295194864,16.06146240232,94.50913238523,46.22942733768,35.70822525021,1241
1.64951816665164E+018,29,1.64951816665164E+018,r1000913c5/base_footprint,0,1.64951816665164E+018,v/m1vw10zy74w/map,-7.28170414737,-0.751115344844,0,0,0,-0.99995762689,0.00920567344228,0,64.5323028564,23.9274654388,63.4735336304,96.9137268066,45.336265564,45.336265564,64.5323028564,64.5323028564,36.9395980835,0.330463886261,0,0.00417849700898,0.0108789196238,0.0127475783229,0.00856908131391,-8.00030517578,-0.502305805683,-2.40878295898,-0.0254884324968,0.963371276855,0.0208073183894,-1.07518005371,-0.0299790184945,15.92716026302,94.50494384762,46.299636840855,35.86441802979,1235
1.64951816675175E+018,30,1.64951816675175E+018,r1000913c5/base_footprint,0,1.64951816675175E+018,v/m1vw10zy74w/map,-7.42166071463,-0.759471647136,0,0,0,-0.999989574911,0.00456618764714,0,64.1502609253,23.3115463257,62.2927284241,96.6444015503,45.5189323425,45.5189323425,64.1502609253,64.1502609253,44.8196525574,0.789938211441,0,0.00512489583343,0.00758789526299,0.00955651607364,0.00443161977455,-7.30552482605,-0.456423521042,-2.09198760986,-0.0221251640469,0.926174163818,0.0199412647635,-8.68880462646,-0.240481615067,16.00602149965,94.55241394044,46.445106506318,36.13084793094,1220
1.6495181668529E+018,31,1.6495181668529E+018,r1000913c5/base_footprint,0,1.64951816685291E+018,v/m1vw10zy74w/map,-7.57024113965,-0.758233846428,0,0,0,0.999981993566,0.0060010451626,0,64.8137283325,24.1261730194,62.4004554749,96.5633544922,45.9228363037,45.9228363037,64.8137283325,64.8137283325,36.9475631714,0.272880882025,0,0.00530058098957,6.13238808E-05,0.00235252385028,0.00294805713929,-8.23793315887,-0.518492519855,-2.08163452148,-0.0220321398228,0.753574371338,0.0161446519196,-0.671314239502,-0.0185056142509,15.88823986053,94.48171997072,46.676410675038,36.276248931898,1147
1.64951816695218E+018,32,1.64951816695218E+018,r1000913c5/base_footprint,0,1.64951816695218E+018,v/m1vw10zy74w/map,-7.57024113965,-0.758233846428,0,0,0,0.999981993566,0.0060010451626,0,65.5662231445,29.0657444,63.5543212891,96.5633544922,46.3151130676,46.3151130676,65.5662231445,65.5662231445,27.6392688751,0.806875288486,0,0.00545889884233,0.00325553352013,0.000338586745784,0.00512031232938,-13.1775045395,-0.829387307167,-2.08163452148,-0.0220321398228,0.361297607422,0.00774047523737,8.63698005676,0.238089114428,15.8882398605,94.48171997072,46.676410675022,36.27624893186,1147
1.6495181670536E+018,33,1.6495181670536E+018,r1000913c5/base_footprint,0,1.6495181670536E+018,v/m1vw10zy74w/map,-7.72942906998,-0.752990155546,0,0,0,0.999925352102,0.0122184378344,0,65.2712554932,27.3356399536,64.6813201904,96.3978042603,46.6652183533,46.6652183533,65.2712554932,65.2712554932,36.133808136,0.548679292202,0,0.00582628929988,0.0224421378225,0.00584943033755,0.0116757191718,-11.3299617767,-0.707871377468,-2.07706451416,-0.0220212917775,0.901332855225,0.0189488790929,0.945507049561,0.0254995822906,16.0056781769,94.32073974614,47.566551208525,37.079315185561,925
1.64951816715241E+018,34,1.64951816715241E+018,r1000913c5/base_footprint,0,1.64951816715241E+018,v/m1vw10zy74w/map,-7.72942906998,-0.752990155546,0,0,0,0.999925352102,0.0122184378344,0,65.8211517334,24.3697471619,66.6130981445,96.3978042603,46.9808387756,46.9808387756,65.8211517334,65.8211517334,29.6444530487,0.718671619892,0,0.00799144338816,0.0438505858183,0.0120794288814,0.0200708713382,-8.36406898499,-0.522568881512,-2.07706451416,-0.0220212917775,0.585712432861,0.012313535437,7.43486213684,0.200512394309,16.00567817691,94.32073974614,47.566551208461,37.07931518554,925
1.64951816725186E+018,35,1.64951816725186E+018,r1000913c5/base_footprint,0,1.64951816725186E+018,v/m1vw10zy74w/map,-7.88624952677,-0.733881274237,0,0,0,0.999911857741,0.0132769254068,0,65.927406311,28.3887462616,67.9690322876,95.8849411011,47.2327575684,47.2327575684,65.927406311,65.927406311,28.6062393188,0.657205700874,0,0.0093597965315,0.0553427003324,0.0167612880468,0.026121083647,-11.4685211182,-0.677799582481,-1.66299438477,-0.0176497567445,0.964794158936,0.0200174935162,8.89646148682,0.237221881747,16.9202251434,94.22194671633,48.197551727336,37.50270080562,803
1.64951816735182E+018,36,1.64951816735182E+018,r1000913c5/base_footprint,0,1.64951816735182E+018,v/m1vw10zy74w/map,-8.02843554761,-0.728690781679,0,0,0,0.999917272624,0.0128626555949,0,65.7225189209,30.1194152832,68.92527771,95.7452011108,47.5410575867,47.5410575867,65.7225189209,65.7225189209,35.1208648682,0.761844336987,0,0.00681532220915,0.0938302874565,0.0154718346894,0.0222871564329,-12.3768157959,-0.697576224804,-1.47270202637,-0.0156217562035,0.640659332275,0.0132967308164,2.29150772095,0.0612499974668,17.7425994873,94.27249908443,48.181716918975,37.41237258915,824
1.64951816745147E+018,37,1.64951816745147E+018,r1000913c5/base_footprint,0,1.64951816745147E+018,v/m1vw10zy74w/map,-8.02843554761,-0.728690781679,0,0,0,0.999917272624,0.0128626555949,0,65.9411315918,35.2088661194,67.2296600342,95.7452011108,47.7949256897,47.7949256897,65.9411315918,65.9411315918,33.9275474548,0.232377409935,0,0.00859166122973,0.112513385713,0.0141069004312,0.0226985625923,-17.4662666321,-0.984425485134,-1.47270202637,-0.0156217562035,0.386791229248,0.00802775938064,3.48482513428,0.0931463316083,17.7425994873,94.27249908443,48.181716918948,37.41237258908,824
1.64951816755167E+018,38,1.64951816755167E+018,r1000913c5/base_footprint,0,1.64951816755167E+018,v/m1vw10zy74w/map,-8.16251493692,-0.731731968866,0,0,0,0.999973434358,0.00728907253099,0,66.2856445312,34.6405220032,65.5115737915,95.5520172119,48.1954307556,48.1954307556,66.2856445312,66.2856445312,31.3562908173,0.189969837666,0,0.00740483915433,0.128278434277,0.0236488431692,0.0310536827892,-16.1864109039,-0.877116799355,-1.16742706299,-0.0123688308522,-0.370559692383,-0.0077482634224,5.19941520691,0.142232656479,18.4541110993,94.38459014891,47.824871063217,36.55570602421,929
1.64951816765151E+018,39,1.64951816765151E+018,r1000913c5/base_footprint,0,1.64951816765151E+018,v/m1vw10zy74w/map,-8.16251493692,-0.731731968866,0,0,0,0.999973434358,0.00728907253099,0,66.4966201782,35.2941169739,63.0868377686,95.5520172119,48.4987449646,48.4987449646,66.4966201782,66.4966201782,30.8344860077,0.266733288765,0,0.00949497055262,0.140579640865,0.0384683720767,0.0479633398354,-16.8400058746,-0.912534117699,-1.16742706299,-0.0123688308522,-0.673873901367,-0.0140904486179,5.72122001648,0.156506896019,18.4541110993,94.38459014891,47.824871063233,36.55570602418,929
1.64951816775206E+018,40,1.64951816775206E+018,r1000913c5/base_footprint,0,1.64951816775206E+018,v/m1vw10zy74w/map,-8.32944719506,-0.724705103843,0,0,0,-0.999958407001,0.00912054103162,0,66.544380188,38.5813140869,60.0756225586,95.8502502441,48.916519165,48.916519165,66.544380188,66.544380188,35.5604133606,0.0647045522928,0,0.0081535037607,0.151574105024,0.0436759367585,0.0518294423819,-20.5809707642,-1.14336550236,-1.34230804443,-0.0142031246796,-2.1565322876,-0.0461191795766,-0.114643096924,-0.00323432381265,18.0003433227,94.50794219967,46.7599868774,35.445770263676,1181
1.64951816785357E+018,41,1.64951816785357E+018,r1000913c5/base_footprint,0,1.64951816785357E+018,v/m1vw10zy74w/map,-8.32944719506,-0.724705103843,0,0,0,-0.999958407001,0.00912054103162,0,67.1341552734,30.0937767029,60.5501060486,95.8502502441,49.2777633667,49.2777633667,67.1341552734,67.1341552734,28.8459434509,0.0631003528833,0,0.00713034812361,0.160254999995,0.0428350791335,0.0499654263258,-12.0934333801,-0.671844601631,-1.34230804443,-0.0142031246796,-2.51777648926,-0.053844679147,6.59982681274,0.18619504571,18.0003433228,94.50794219967,46.75998687744,35.44577026364,1181
1.64951816795185E+018,42,1.64951816795185E+018,r1000913c5/base_footprint,0,1.64951816795185E+018,v/m1vw10zy74w/map,-8.32944719506,-0.724705103843,0,0,0,-0.999958407001,0.00912054103162,0,66.9037475586,26.1485614777,60.6310539246,95.8502502441,49.3310089111,49.3310089111,66.9037475586,66.9037475586,33.5683746338,0.137797966599,0,0.0057247467339,0.169731363654,0.0371424369514,0.0428671836853,-8.14821815491,-0.452670156956,-1.34230804443,-0.0142031246796,-2.57102203369,-0.0549833774567,1.87739562988,0.0529652945697,18.00034332279,94.50794219967,46.75998687741,35.44577026368,1181
1.64951816805253E+018,43,1.64951816805253E+018,r1000913c5/base_footprint,0,1.64951816805253E+018,v/m1vw10zy74w/map,-8.47215865167,-0.730232001052,0,0,0,-0.998589188858,0.0531002061768,0,66.3325271606,15.1260499954,63.5412521362,95.5404586792,48.8071937561,48.8071937561,66.3325271606,66.3325271606,37.0777931213,0.333904623985,0,0.00504899350926,0.178120359778,0.0335549227893,0.0386039167643,3.05347728729,0.167962417006,-1.00366210938,-0.0106166293845,-2.13596343994,-0.045766171068,-1.8769569397,-0.0533213727176,18.17952728269,94.53679656982,46.67123031616,35.2008361816,1190
1.64951816815181E+018,44,1.64951816815181E+018,r1000913c5/base_footprint,0,1.64951816815181E+018,v/m1vw10zy74w/map,-8.47215865167,-0.730232001052,0,0,0,-0.998589188858,0.0531002061768,0,66.1993560791,15.966386795,65.6847229004,95.5404586792,48.3507614136,48.3507614136,66.1993560791,66.1993560791,34.5454940796,-0.0292019154876,0,0.00454855477437,0.186482042074,0.038124255836,0.0426728092134,2.21314048767,0.121738068759,-1.00366210938,-0.0106166293845,-1.67953109741,-0.0359864346683,0.655342102051,0.0186172313988,18.17952728267,94.53679656982,46.67123031619,35.200836181651,1190
1.64951816825165E+018,45,1.64951816825165E+018,r1000913c5/base_footprint,0,1.64951816825165E+018,v/m1vw10zy74w/map,-8.59239975595,-0.751681281263,0,0,0,-0.994892766578,0.10093752033,0,65.6437454224,17.9784584045,67.9744186401,95.3997879028,47.9163894653,47.9163894653,65.6437454224,65.6437454224,39.3487854004,0.227026715875,0,0.00331560405903,0.193741053343,0.0436501167715,0.0469657219946,0.201375961304,0.0110768862069,-0.842552185059,-0.00891049951315,-1.2774772644,-0.0273908022791,-4.49684143066,-0.129026994109,18.179834365804,94.557235717741,46.6389122009,34.85194396974,1176
1.64951816835316E+018,46,1.64951816835316E+018,r1000913c5/base_footprint,0,1.64951816835316E+018,v/m1vw10zy74w/map,-8.59239975595,-0.751681281263,0,0,0,-0.994892766578,0.10093752033,0,65.80443573,15.2612094879,69.2381362915,95.3997879028,47.4086647034,47.4086647034,65.80443573,65.80443573,30.9729118347,-0.0173840411007,0,0.00183470977936,0.248072654009,0.0395614206791,0.0413961298764,2.91862487793,0.160541892052,-0.842552185059,-0.00891049951315,-0.769752502441,-0.0165045130998,3.87903213501,0.111300311983,18.17983436583,94.557235717741,46.638912200959,34.85194396971,1176
1.64951816845164E+018,47,1.64951816845164E+018,r1000913c5/base_footprint,0,1.64951816845164E+018,v/m1vw10zy74w/map,-8.67621385841,-0.771063767292,0,0,0,-0.987271507882,0.159043923886,0,65.6583328247,16.2082099915,69.3996658325,95.9641036987,46.9498138428,46.9498138428,65.6583328247,65.6583328247,30.6787338257,0.191253498197,0,0.00327641400509,0.266670525074,0.0423300750554,0.0390536598861,2.03906822205,0.111746430397,-1.40213775635,-0.0148277133703,-0.399120330811,-0.00857388600707,3.99756622314,0.11528237164,18.24727821355,94.56196594235,46.550693511989,34.67630004884,1182
1.64951816855174E+018,48,1.64951816855174E+018,r1000913c5/base_footprint,0,1.64951816855174E+018,v/m1vw10zy74w/map,-8.67621385841,-0.771063767292,0,0,0,-0.987271507882,0.159043923886,0,65.3339385986,13.8359565735,67.8218841553,95.9641036987,46.5625801086,46.5625801086,65.3339385986,65.3339385986,32.3356933594,-0.0136641375721,0,0.000465293589514,0.287033706903,0.0623183064163,0.0627835988998,4.41132164001,0.241752311587,-1.40213775635,-0.0148277133703,-0.0118865966797,-0.000255347345956,2.34060668945,0.0674987435341,18.24727821351,94.56196594235,46.5506935119203,34.67630004885,1182
1.64951816875179E+018,49,1.64951816875179E+018,r1000913c5/base_footprint,0,1.64951816875179E+018,v/m1vw10zy74w/map,-8.69131338475,-0.782049839211,0,0,0,-0.977344576332,0.211654386003,0,65.5832061768,15.8437099457,65.5025253296,96.6939315796,46.2406272888,46.2406272888,65.5832061768,65.5832061768,26.9992218018,0.228621304035,0,0.000738394912332,0.287820309401,0.0634109899402,0.0641493871808,2.36785316467,0.13001921773,-2.139793396,-0.0226303525269,0.304328918457,0.00653838645667,7.59515762329,0.219548895955,18.21156311037,94.5541381836,46.544956207257,34.59437942509,1176
1.64951816885165E+018,50,1.64951816885165E+018,r1000913c5/base_footprint,0,1.64951816885165E+018,v/m1vw10zy74w/map,-8.68975826894,-0.781194598898,0,0,0,-0.962043541327,0.272895995925,0,64.9170532227,14.2857141495,59.5588264465,96.8098602295,45.9215660095,45.9215660095,64.9170532227,64.9170532227,35.9614448547,0.175203084946,0,0.0012266257545,0.286284506321,0.0526025630534,0.0513759367168,3.92584896088,0.215569034219,-2.2557220459,-0.0238564070314,0.623390197754,0.0133932922035,-1.36706542969,-0.0395169816911,18.21156311038,94.5541381836,46.544956207254,34.59437942501,1176
1.64951816895154E+018,51,1.64951816895154E+018,r1000913c5/base_footprint,0,1.64951816895154E+018,v/m1vw10zy74w/map,-8.69052271693,-0.778798973861,0,0,0,-0.94650968921,0.322675391425,0,64.8337249756,17.3776378632,52.2850914001,96.7784957886,45.5133781433,45.5133781433,64.8337249756,64.8337249756,32.9399719238,0.0833145305514,0,0.0015366912121,0.278735369444,0.022620704025,0.0210840124637,0.833925247192,0.0457909740508,-2.22435760498,-0.02352469787,1.03157806396,0.0221630465239,1.65440750122,0.0478230156004,18.211563110392,94.55413818362,46.54495620726,34.59437942502,1176
1.64951816905268E+018,52,1.64951816905268E+018,r1000913c5/base_footprint,0,1.64951816905268E+018,v/m1vw10zy74w/map,-8.68562458795,-0.769227560918,0,0,0,-0.925848381045,0.377895190913,0,64.6079711914,14.3598613739,47.0270576477,96.6334609985,45.0539512634,45.0539512634,64.6079711914,64.6079711914,31.5197029114,0.0550723150373,0,0.00221022963524,0.277137845755,0.0173082519323,0.0150980232283,3.85170173645,0.211497589946,-2.07932281494,-0.0219908170402,1.49100494385,0.0320336520672,3.07467651367,0.0888779237866,18.21156311035,94.55413818356,46.54495620725,34.59437942507,1176
1.64951816915161E+018,53,1.64951816915161E+018,r1000913c5/base_footprint,0,1.64951816915161E+018,v/m1vw10zy74w/map,-8.67987083643,-0.761497589709,0,0,0,-0.901261803465,0.433274926132,0,64.3505859375,20.4152240753,46.1461486816,96.4846420288,44.7397346497,44.7397346497,64.3505859375,64.3505859375,32.2232284546,0.266937255859,0,0.00365071580745,0.270368725061,0.00556588638574,0.00191517057829,-2.16794586182,-0.118809275329,-1.92267608643,-0.0203324463218,1.8109588623,0.0389029420912,2.45307159424,0.0707420259714,18.24727821348,94.56196594237,46.550693512,34.67630004884,1182
1.64951816925182E+018,54,1.64951816925182E+018,r1000913c5/base_footprint,0,1.64951816925182E+018,v/m1vw10zy74w/map,-8.67981727445,-0.759462096175,0,0,0,-0.878757233889,0.477269026742,0,64.0073013306,18.8948307037,45.062538147,96.4074783325,44.6543960571,44.6543960571,64.0073013306,64.0073013306,37.2030410767,0.0335349924862,0,0.00326124834828,0.265667021275,0.00897783506662,0.0122390827164,-0.647552490234,-0.0354876220226,-1.84551239014,-0.0195164345205,1.89629745483,0.0407361797988,-2.52674102783,-0.0728665143251,18.247278213466,94.56196594236,46.55069351193,34.67630004887,1182
1.64951816935195E+018,55,1.64951816935195E+018,r1000913c5/base_footprint,0,1.64951816935195E+018,v/m1vw10zy74w/map,-8.67981727445,-0.759462096175,0,0,0,-0.878757233889,0.477269026742,0,63.8135986328,19.7860965729,43.9809570312,96.4074783325,44.5950164795,44.5950164795,63.8135986328,63.8135986328,40.0483207703,-0.0439273156226,0,0.00310411443934,0.260195583105,0.0217483118176,0.0248524267226,-1.53881835938,-0.0843313932419,-1.84551239014,-0.0195164345205,1.95567703247,0.0420117713511,-5.37202072144,-0.154919087887,18.24727821352,94.56196594236,46.55069351197,34.67630004886,1182
1.64951816945196E+018,56,1.64951816945196E+018,r1000913c5/base_footprint,0,1.64951816945196E+018,v/m1vw10zy74w/map,-8.68169599842,-0.757954111861,0,0,0,-0.847772231933,0.530360483787,0,63.8775749207,18.0827884674,42.8851127625,96.2305450439,44.5866279602,44.5866279602,63.8775749207,63.8775749207,38.1692237854,0.00989592447877,0,0.00279783597216,0.248803943396,0.0418323427439,0.044630177319,0.144111633301,0.00790653564036,-1.68846893311,-0.0178594440222,2.0492477417,0.0439414456487,-3.48667526245,-0.100531116128,18.226900100701,94.54207611079,46.6358757019,34.68254852295,1166
1.6495181695521E+018,57,1.6495181695521E+018,r1000913c5/base_footprint,0,1.6495181695521E+018,v/m1vw10zy74w/map,-8.66948213513,-0.800211681658,0,0,0,-0.810404680945,0.585870508817,0,63.9134941101,14.8375768661,41.9762420654,96.4648132324,44.5772171021,44.5772171021,63.9134941101,63.9134941101,38.2643318176,0.144354596734,0,0.00350251211785,0.233970403671,0.0584819614887,0.061984475702,3.40970134735,0.186860814691,-1.90284729004,-0.0201227553189,1.97347640991,0.0423941351473,-3.5880317688,-0.103472165763,18.24727821345,94.56196594236,46.55069351201,34.6763000488,1182
1.6495181696515E+018,58,1.6495181696515E+018,r1000913c5/base_footprint,0,1.6495181696515E+018,v/m1vw10zy74w/map,-8.67109019851,-0.801293977309,0,0,0,-0.780402644023,0.625277309041,0,63.9813957214,13.0434780121,41.2229423523,96.3140487671,44.5122489929,44.5122489929,63.9813957214,63.9813957214,35.7977180481,0.12387881428,0,0.00509650120512,0.213525027037,0.0787592455745,0.0838557481766,5.20380020142,0.285182267427,-1.75208282471,-0.0185284093022,2.03844451904,0.0437897779047,-1.12141799927,-0.0323396101594,18.24727821352,94.56196594239,46.55069351194,34.67630004883,1182
1.64951816975355E+018,59,1.64951816975355E+018,r1000913c5/base_footprint,0,1.64951816975355E+018,v/m1vw10zy74w/map,-8.66849713932,-0.804182372416,0,0,0,-0.774698896609,0.632330308931,0,63.6756706238,15.8437099457,40.4594573975,96.3482818604,44.52161026,44.52161026,63.6756706238,63.6756706238,41.5251197815,0.195609763265,0,0.00321029010229,0.193524435163,0.0953155755997,0.0985258668661,2.40356826782,0.131722018123,-1.78631591797,-0.0188904274255,2.02908325195,0.0435886792839,-6.84881973267,-0.197507217526,18.24727821352,94.56196594243,46.55069351195,34.67630004883,1182
1.64951816985185E+018,60,1.64951816985185E+018,r1000913c5/base_footprint,0,1.64951816985185E+018,v/m1vw10zy74w/map,-8.68309195443,-0.764655623976,0,0,0,-0.743892827779,0.668298930703,0,63.6698112488,11.9763011932,39.8967704773,96.2713470459,44.4903106689,44.4903106689,63.6698112488,63.6698112488,41.0156021118,-0.0525349862874,0,0.00179207290057,0.177434563637,0.0999438688159,0.101735942066,6.27097702026,0.343666434288,-1.70938110352,-0.0180768352002,2.06038284302,0.0442610569298,-6.33930206299,-0.182813674212,18.24727821346,94.56196594238,46.55069351192,34.67630004881,1182
1.64951817075202E+018,61,1.64951817075202E+018,r1000913c5/base_footprint,0,1.64951817075202E+018,v/m1vw10zy74w/map,-8.68281197174,-0.766629738132,0,0,0,-0.739445587435,0.67321632721,0,64.2359542847,17.8200683594,39.9357414246,96.2935180664,44.4537811279,44.4537811279,64.2359542847,64.2359542847,30.5102958679,0.0849419608712,0,0.000819015549496,0.0695135295391,0.185162469745,0.185981482267,0.427209854126,0.0234122499824,-1.73155212402,-0.0183112956583,2.09691238403,0.0450457818806,4.16600418091,0.120139814913,18.247278213526,94.56196594238,46.55069351193,34.67630004881,1182
1.64951817085176E+018,62,1.64951817085176E+018,r1000913c5/base_footprint,0,1.64951817085176E+018,v/m1vw10zy74w/map,-8.68281197174,-0.766629738132,0,0,0,-0.739445587435,0.67321632721,0,63.6280784607,12.8226833344,39.7447471619,96.2935180664,44.2364578247,44.2364578247,63.6280784607,63.6280784607,39.1049919128,0.061436329037,0,0.000953591486905,0.0218508746475,0.183511674404,0.182558089495,5.42459487915,0.297282397747,-1.73155212402,-0.0183112956583,2.31423568726,0.0497143119574,-4.42869186401,-0.127715229988,18.24727821355,94.56196594238,46.55069351196,34.67630004879,1182
1.64951817095183E+018,63,1.64951817095183E+018,r1000913c5/base_footprint,0,1.64951817095183E+018,v/m1vw10zy74w/map,-8.68281197174,-0.766629738132,0,0,0,-0.739445587435,0.67321632721,0,63.6232757568,12.6050424576,39.8657875061,96.2935180664,44.003528595,44.003528595,63.6232757568,63.6232757568,36.6758422852,0.100264064968,0,0.00562486471608,0.0872124284506,0.191765964031,0.186141103506,5.64223575592,0.309209704399,-1.73155212402,-0.0183112956583,2.54716491699,0.0547180883586,-1.99954223633,-0.0576630793512,18.24727821352,94.56196594238,46.55069351199,34.67630004887,1182
1.64951817105296E+018,64,1.64951817105296E+018,r1000913c5/base_footprint,0,1.64951817105297E+018,v/m1vw10zy74w/map,-8.68281197174,-0.766629738132,0,0,0,-0.739445587435,0.67321632721,0,63.4239501953,15.966386795,40.1761436462,96.2935180664,43.7717475891,43.7717475891,63.4239501953,63.4239501953,37.7604103088,0.211567416787,0,0.00247141253203,0.107481613755,0.214007511735,0.211536094546,2.28089141846,0.124998994172,-1.73155212402,-0.0183112956583,2.77894592285,0.0596971958876,-3.08411026001,-0.0889400020242,18.24727821346,94.56196594238,46.55069351195,34.67630004879,1182
1.64951817135181E+018,65,1.64951817135181E+018,r1000913c5/base_footprint,0,1.64951817135181E+018,v/m1vw10zy74w/map,-8.68281197174,-0.766629738132,0,0,0,-0.739445587435,0.67321632721,0,63.2817153931,13.8959932327,40.7381134033,96.2935180664,43.5851516724,43.5851516724,63.2817153931,63.2817153931,38.3054084778,0.203107237816,0,0.00110144109931,0.10367873311,0.222517699003,0.221416249871,4.35128498077,0.238462135196,-1.73155212402,-0.0183112956583,2.9655418396,0.0637056455016,-3.62910842896,-0.104656741023,18.24727821347,94.56196594238,46.550693512,34.67630004884,1182
1.64951817145172E+018,66,1.64951817145172E+018,r1000913c5/base_footprint,0,1.64951817145172E+018,v/m1vw10zy74w/map,-8.67334209337,-0.935129127426,0,0,0,-0.71142644633,0.702760564818,0,63.1149902344,12.4087591171,41.4660148621,96.1579818726,43.3295555115,43.3295555115,63.1149902344,63.1149902344,38.0581245422,0.11490315944,0,0.000187328725588,0.10204590112,0.222256019711,0.222068697214,5.73806858063,0.316202282906,-1.55376434326,-0.0164238382131,2.8751411438,0.062226165086,-3.32456207275,-0.0957161262631,18.14682769773,94.60421752934,46.2046966553,34.73356246945,1170
1.64951817155176E+018,67,1.64951817155176E+018,r1000913c5/base_footprint,0,1.64951817155176E+018,v/m1vw10zy74w/map,-8.67334209337,-0.935129127426,0,0,0,-0.71142644633,0.702760564818,0,62.7998275757,14.7485084534,42.2316398621,96.1579818726,43.171962738,43.171962738,62.7998275757,62.7998275757,42.0290603638,0.135011717677,0,0.000345545791788,0.100356191397,0.220364525914,0.220018982887,3.39831924438,0.187267944217,-1.55376434326,-0.0164238382131,3.03273391724,0.0656369179487,-7.29549789429,-0.210041746497,18.14682769778,94.60421752934,46.20469665524,34.73356246951,1170
1.64951817165156E+018,68,1.64951817165156E+018,r1000913c5/base_footprint,0,1.64951817165156E+018,v/m1vw10zy74w/map,-8.67334209337,-0.935129127426,0,0,0,-0.71142644633,0.702760564818,0,62.7070617676,7.38423013687,43.0895195007,96.1579818726,43.0044136047,43.0044136047,62.7070617676,62.7070617676,41.8892822266,0.092068605125,0,0.00118098245002,0.0985437557101,0.215823784471,0.214642807841,10.7625980377,0.593084275723,-1.55376434326,-0.0164238382131,3.20028305054,0.0692631527781,-7.15571975708,-0.206017449498,18.14682817457,94.60421752934,46.20469665524,34.73356246952,1170
1.64951817175211E+018,69,1.64951817175211E+018,r1000913c5/base_footprint,0,1.64951817175211E+018,v/m1vw10zy74w/map,-8.67334209337,-0.935129127426,0,0,0,-0.71142644633,0.702760564818,0,62.8873214722,13.224864006,44.0058479309,96.1579818726,42.7656745911,42.7656745911,62.8873214722,62.8873214722,36.0662536621,0.2069247365,0,0.00161358038895,0.0953049436212,0.203947365284,0.202333793044,4.92196369171,0.271229982376,-1.55376434326,-0.0164238382131,3.43902206421,0.0744301378727,-1.33269119263,-0.038368973881,18.14682769771,94.60421752934,46.20469665531,34.73356246947,1170
1.64951817185197E+018,70,1.64951817185197E+018,r1000913c5/base_footprint,0,1.64951817185197E+018,v/m1vw10zy74w/map,-8.67334209337,-0.935129127426,0,0,0,-0.71142644633,0.702760564818,0,62.3915710449,12.1909637451,44.8944511414,96.1579818726,42.5144691467,42.5144691467,62.3915710449,62.3915710449,42.276725769,0.183359280229,0,0.001810300746,0.0937022045255,0.197890549898,0.196080252528,5.95586395264,0.328204125166,-1.55376434326,-0.0164238382131,3.69022750854,0.079866938293,-7.54316329956,-0.217172175646,18.14682769774,94.60421752934,46.20469665524,34.73356246944,1170
1.64951817195244E+018,71,1.64951817195244E+018,r1000913c5/base_footprint,0,1.64951817195244E+018,v/m1vw10zy74w/map,-8.67334209337,-0.935129127426,0,0,0,-0.71142644633,0.702760564818,0,62.5510520935,13.0434780121,45.9650917053,96.1579818726,42.4007034302,42.4007034302,62.5510520935,62.5510520935,38.1773948669,0.29601085186,0,0.00222450634465,0.0905327126384,0.185705140233,0.183480635285,5.10334968567,0.281225442886,-1.55376434326,-0.0164238382131,3.8039932251,0.082329146564,-3.44383239746,-0.0991499871016,18.14682769777,94.60421752934,46.2046966553,34.73356246944,1170
1.64951817205255E+018,72,1.64951817205255E+018,r1000913c5/base_footprint,0,1.64951817205255E+018,v/m1vw10zy74w/map,-8.67450448318,-1.0665443972,0,0,0,-0.723401162026,0.690427953359,0,62.5473899841,11.3257246017,46.9458007812,96.2744979858,42.327796936,42.327796936,62.5473899841,62.5473899841,37.875377655,0.157585710287,0,0.00343568460084,0.0874561369419,0.173803478479,0.170367792249,6.62469387054,0.369055122137,-1.59456634521,-0.0168416500092,3.48458862305,0.0760621502995,-3.07844161987,-0.0884687528014,17.95041847224,94.67993164059,45.81238555905,34.79693603513,1025
1.64951817215171E+018,73,1.64951817215171E+018,r1000913c5/base_footprint,0,1.64951817215171E+018,v/m1vw10zy74w/map,-8.67450448318,-1.0665443972,0,0,0,-0.723401162026,0.690427953359,0,63.3158950806,19.3277301788,46.8975219727,96.2744979858,42.362159729,42.362159729,63.3158950806,63.3158950806,24.4134235382,0.310166358948,0,0.00379190896638,0.0859192237258,0.166112288833,0.162320390344,-1.37731170654,-0.0767286717892,-1.59456634521,-0.0168416500092,3.45022583008,0.0753120779991,10.3835124969,0.298403054476,17.95041847226,94.67993164059,45.81238555908,34.7969360351,1025
1.64951817225164E+018,74,1.64951817225164E+018,r1000913c5/base_footprint,0,1.64951817225164E+018,v/m1vw10zy74w/map,-8.67450448318,-1.0665443972,0,0,0,-0.723401162026,0.690427953359,0,63.440700531,19.6354598999,46.5424613953,96.2744979858,42.4470710754,42.4470710754,63.440700531,63.440700531,23.0839500427,0.362548708916,0,0.00539565831423,0.0827801376581,0.150733649731,0.145337983966,-1.68504142761,-0.0938719883561,-1.59456634521,-0.0168416500092,3.36531448364,0.0734586194158,11.7129859924,0.336609691381,17.95041847229,94.67993164059,45.81238555904,34.7969360351,1025
1.64951817235178E+018,75,1.64951817235178E+018,r1000913c5/base_footprint,0,1.64951817235178E+018,v/m1vw10zy74w/map,-8.67450448318,-1.0665443972,0,0,0,-0.723401162026,0.690427953359,0,63.3493118286,15.6186609268,45.996635437,96.2744979858,42.498916626,42.498916626,63.3493118286,63.3493118286,25.2889041901,0.338369876146,0,0.00561675848439,0.0798555240035,0.137579247355,0.131962493062,2.33175754547,0.129899904132,-1.59456634521,-0.0168416500092,3.31346893311,0.0723269209266,9.50803184509,0.273243367672,17.95041847227,94.67993164059,45.81238555911,34.79693603519,1025
1.64951817245163E+018,76,1.64951817245163E+018,r1000913c5/base_footprint,0,1.64951817245163E+018,v/m1vw10zy74w/map,-8.67450448318,-1.0665443972,0,0,0,-0.723401162026,0.690427953359,0,63.5182914734,19.3747425079,45.2726745605,96.2744979858,42.5748977661,42.5748977661,63.5182914734,63.5182914734,23.0678539276,0.121492519975,0,0.00524182198569,0.0785639509559,0.133714511991,0.128472685814,-1.42432403564,-0.0793476775289,-1.59456634521,-0.0168416500092,3.23748779297,0.070668399334,11.7290821075,0.337072253227,17.95041847226,94.67993164059,45.81238555907,34.7969360351,1025
1.64951817255209E+018,77,1.64951817255209E+018,r1000913c5/base_footprint,0,1.64951817255209E+018,v/m1vw10zy74w/map,-8.67450448318,-1.0665443972,0,0,0,-0.723401162026,0.690427953359,0,63.5549964905,23.2026138306,44.585319519,96.2744979858,42.5660171509,42.5660171509,63.5549964905,63.5549964905,22.3112697601,0.241177707911,0,0.00490886345506,0.0771666392684,0.130917981267,0.126009121537,-5.25219535828,-0.292594581842,-1.59456634521,-0.0168416500092,3.2463684082,0.0708622410893,12.485666275,0.358815103769,17.95041847232,94.67993164059,45.8123855591,34.7969360351,1025
1.6495181726521E+018,78,1.6495181726521E+018,r1000913c5/base_footprint,0,1.6495181726521E+018,v/m1vw10zy74w/map,-8.67772648107,-1.2146695059,0,0,0,-0.722932061529,0.690919122918,0,63.5194549561,21.8428630829,44.0245704651,95.9356079102,42.6185073853,42.6185073853,63.5194549561,63.5194549561,22.2978782654,0.197392448783,0,0.00435554748401,0.0709504783154,0.124891281128,0.120535731316,-5.04948425293,-0.300683051348,-0.792953491211,-0.00833436381072,-0.0491218566895,-0.00115392450243,13.0180931091,0.368617713451,16.79337882997,95.142654418989,42.5693855286105,35.3159713745,391
1.64951817275172E+018,79,1.64951817275172E+018,r1000913c5/base_footprint,0,1.64951817275172E+018,v/m1vw10zy74w/map,-8.67772648107,-1.2146695059,0,0,0,-0.722932061529,0.690919122918,0,63.5788764954,22.6655693054,43.1764526367,95.9356079102,42.733581543,42.733581543,63.5788764954,63.5788764954,22.4710540771,0.193447068334,0,0.00294904434122,0.0634994953871,0.121769294143,0.118820250034,-5.87219047546,-0.349672973156,-0.792953491211,-0.00833436381072,-0.164196014404,-0.00385713856667,12.8449172974,0.363714128733,16.79337882994,95.142654418989,42.569385528596,35.3159713745,391
1.64951817285166E+018,80,1.64951817285166E+018,r1000913c5/base_footprint,0,1.64951817285166E+018,v/m1vw10zy74w/map,-8.68233054948,-1.36030493406,0,0,0,-0.711887769007,0.702293246685,0,63.4637794495,21.0314254761,42.6148262024,95.6123123169,42.8259773254,42.8259773254,63.4637794495,63.4637794495,24.3768501282,0.247750610113,0,0.00333812949248,0.0561778731644,0.110935151577,0.107597023249,-5.2771282196,-0.334964364767,-0.446807861328,-0.00469506112859,-1.59676361084,-0.0387289375067,11.9020385742,0.328070640564,15.7542972565,95.165504455572,41.22921371456,36.2788887024,324
1.6495181729517E+018,81,1.6495181729517E+018,r1000913c5/base_footprint,0,1.6495181729517E+018,v/m1vw10zy74w/map,-8.68233054948,-1.36030493406,0,0,0,-0.711887769007,0.702293246685,0,63.0524291992,25.9563961029,41.6240310669,95.6123123169,42.8860359192,42.8860359192,63.0524291992,63.0524291992,32.4297714233,0.167146474123,0,0.00296991271898,0.0497884787619,0.0930605605245,0.0900906473398,-10.2020988464,-0.647575616837,-0.446807861328,-0.00469506112859,-1.65682220459,-0.0401856377721,3.84911727905,0.106097996235,15.7542972565,95.165504455572,41.22921371461,36.27888870235,324
1.64951817625188E+018,82,1.64951817625188E+018,r1000913c5/base_footprint,0,1.64951817625188E+018,v/m1vw10zy74w/map,-8.67349744191,-2.28210001891,0,0,0,-0.706632814195,0.707580430695,0,63.3410148621,19.6754570007,41.0934104919,95.181892395,42.8546714783,42.8546714783,63.3410148621,63.3410148621,25.3469982147,0.319231629372,0,0.00203716894612,0.0365149788558,0.0103373788297,0.0123745482415,-7.84811878204,-0.663557469845,0.219139099121,0.00229703076184,-2.42485427856,-0.0599768795073,2.77986717224,0.0988331660628,11.82733821866,95.401031494121,40.42981719974,28.12686538694,194
1.64951817745201E+018,83,1.64951817745201E+018,r1000913c5/base_footprint,0,1.64951817745202E+018,v/m1vw10zy74w/map,-8.67559892276,-2.41361017632,0,0,0,-0.708022426107,0.706189949043,0,62.8216781616,14.9321269989,40.7317733765,94.9563598633,42.7768974304,42.7768974304,62.8216781616,62.8216781616,33.0431594849,1.55939888954,0,2.69171559921E-05,0.128110945225,0.00486955419183,0.00489647127688,-3.86035442352,-0.348666340113,0.394828796387,0.00414078542963,-2.5180015564,-0.0625452250242,-6.41597747803,-0.240955933928,11.07177257538,95.351188659687,40.258895874,26.62718200687,155
1.64951817755204E+018,84,1.64951817755204E+018,r1000913c5/base_footprint,0,1.64951817755204E+018,v/m1vw10zy74w/map,-8.67559892276,-2.41361017632,0,0,0,-0.708022426107,0.706189949043,0,62.1239891052,1.35746610165,40.6937561035,94.9563598633,42.3684387207,42.3684387207,62.1239891052,62.1239891052,41.1902008057,1.6090413332,0,0.000465088611236,0.164245948195,0.00582622922957,0.00536114023998,9.71430683136,0.877394020557,0.394828796387,0.00414078542963,-2.10954284668,-0.0523994229734,-14.5630187988,-0.546923041344,11.07177293301,95.351188659687,40.25889587402,26.6271820069,155
1.64951817765169E+018,85,1.64951817765169E+018,r1000913c5/base_footprint,0,1.6495181776517E+018,v/m1vw10zy74w/map,-8.67559892276,-2.41361017632,0,0,0,-0.708022426107,0.706189949043,0,62.0108108521,4.07239818573,40.9309654236,94.9563598633,42.0577507019,42.0577507019,62.0108108521,62.0108108521,39.8720245361,1.17972624302,0,0.00102935999166,0.179301038384,0.00586538948119,0.0068947491236,6.99937438965,0.632181942463,0.394828796387,0.00414078542963,-1.79885482788,-0.0446821711957,-13.2448425293,-0.497418105602,11.07177257538,95.351188659687,40.25889587402,26.6271820068,155
1.64951817775176E+018,86,1.64951817775176E+018,r1000913c5/base_footprint,0,1.64951817775176E+018,v/m1vw10zy74w/map,-8.67559892276,-2.41361017632,0,0,0,-0.708022426107,0.706189949043,0,61.900642395,1.96078431606,40.9250183105,94.9563598633,41.8034896851,41.8034896851,61.900642395,61.900642395,39.1090126038,1.34490573406,0,0.00186278589536,0.184489816427,0.00602644542232,0.00788923166692,9.11098861694,0.822902441025,0.394828796387,0.00414078542963,-1.54459381104,-0.03836652264,-12.4818305969,-0.468762725592,11.071772933,95.351188659687,40.25889587406,26.6271820069,155
1.64951817785164E+018,87,1.64951817785164E+018,r1000913c5/base_footprint,0,1.64951817785164E+018,v/m1vw10zy74w/map,-8.67559892276,-2.41361017632,0,0,0,-0.708022426107,0.706189949043,0,61.5668067932,2.11046242714,40.8870048523,94.9563598633,41.4880256653,41.4880256653,61.5668067932,61.5668067932,41.7110519409,1.29784429073,0,0.00227468204685,0.188540056348,0.00732138147578,0.00959606375545,8.96131038666,0.809383511543,0.394828796387,0.00414078542963,-1.22912979126,-0.0305306389928,-15.0838699341,-0.566483914852,11.0717728138,95.351188659687,40.25889587404,26.6271820068,155
1.64951817805698E+018,88,1.64951817805698E+018,r1000913c5/base_footprint,0,1.64951817805698E+018,v/m1vw10zy74w/map,-8.67559892276,-2.41361017632,0,0,0,-0.708022426107,0.706189949043,0,61.2311096191,3.49264717102,41.1242141724,94.9563598633,41.3400039673,41.3400039673,61.2311096191,61.2311096191,46.1549911499,1.65591347218,0,0.00239756377414,0.192420348525,0.0106198610738,0.0130174243823,7.57912540436,0.684544920921,0.394828796387,0.00414078542963,-1.08110809326,-0.0268538929522,-19.5278091431,-0.733378767967,11.07177257538,95.351188659687,40.25889587404,26.6271820068,155
1.64951817815164E+018,89,1.64951817815164E+018,r1000913c5/base_footprint,0,1.64951817815164E+018,v/m1vw10zy74w/map,-8.67559892276,-2.41361017632,0,0,0,-0.708022426107,0.706189949043,0,61.7959480286,6.60080814362,41.6366500854,94.9563598633,41.3243255615,41.3243255615,61.7959480286,61.7959480286,35.8185157776,1.35142552853,0,0.00328977149911,0.192310407758,0.0141112310812,0.0174010023475,4.47096443176,0.403816491365,0.394828796387,0.00414078542963,-1.0654296875,-0.026464452967,-9.19133377075,-0.345186114311,11.07177257538,95.351188659687,40.258895874,26.62718200685,155
1.64951817835169E+018,90,1.64951817835169E+018,r1000913c5/base_footprint,0,1.64951817835169E+018,v/m1vw10zy74w/map,-8.67559892276,-2.41361017632,0,0,0,-0.708022426107,0.706189949043,0,62.0161819458,16.0899658203,42.4243125916,94.9563598633,41.4183616638,41.4183616638,62.0161819458,62.0161819458,32.8698997498,1.45015001297,0,0.00360846170224,0.187791526318,0.0181988254189,0.0218072868884,-5.01819324493,-0.453242093325,0.394828796387,0.00414078542963,-1.15946578979,-0.0288002379239,-6.24271774292,-0.234449058771,11.07177257537,95.351188659687,40.25889587401,26.62718200688,155
1.64951817845159E+018,91,1.64951817845159E+018,r1000913c5/base_footprint,0,1.64951817845159E+018,v/m1vw10zy74w/map,-8.67559892276,-2.41361017632,0,0,0,-0.708022426107,0.706189949043,0,61.8084716797,12.6297578812,43.4872016907,94.9563598633,41.3824081421,41.3824081421,61.8084716797,61.8084716797,36.2204360962,1.44255876541,0,0.00360577250831,0.185523793101,0.0190750956535,0.022680869326,-1.55798530579,-0.14071688056,0.394828796387,0.00414078542963,-1.12351226807,-0.0279071796685,-9.59325408936,-0.360280483961,11.07177257541,95.351188659687,40.25889587403,26.62718200684,155
1.64951817855166E+018,92,1.64951817855166E+018,r1000913c5/base_footprint,0,1.64951817855166E+018,v/m1vw10zy74w/map,-8.67559892276,-2.41361017632,0,0,0,-0.708022426107,0.706189949043,0,62.2307357788,10.23965168,44.5422286987,94.9563598633,41.4471321106,41.4471321106,62.2307357788,62.2307357788,29.3186912537,1.56664061546,0,0.00365290162154,0.179762452841,0.0205418486148,0.0241947490722,0.832120895386,0.0751569718122,0.394828796387,0.00414078542963,-1.18823623657,-0.0295148734003,-2.69150924683,-0.101081266999,11.071772575386,95.351188659687,40.25889587403,26.62718200687,155
1.64951817865166E+018,93,1.64951817865166E+018,r1000913c5/base_footprint,0,1.64951817865166E+018,v/m1vw10zy74w/map,-8.67559892276,-2.41361017632,0,0,0,-0.708022426107,0.706189949043,0,62.0398254395,13.5472373962,44.9672851562,94.9563598633,41.4137802124,41.4137802124,62.0398254395,62.0398254395,32.3948860168,1.57968437672,0,0.00383750558831,0.176411256194,0.0214746873826,0.0253121927381,-2.47546482086,-0.223583430052,0.394828796387,0.00414078542963,-1.15488433838,-0.0286864377558,-5.76770401001,-0.216609627008,11.07177257534,95.351188659687,40.25889587402,26.62718200679,155
1.64951817875166E+018,94,1.64951817875166E+018,r1000913c5/base_footprint,0,1.64951817875166E+018,v/m1vw10zy74w/map,-8.69981084883,-2.24626206461,0,0,0,-0.715776270069,0.698329672294,0,62.1085357666,15.0818223953,45.529384613,94.9165496826,41.4318008423,41.4318008423,62.1085357666,62.1085357666,31.2093677521,1.60941576958,0,0.00457442179322,0.166384130716,0.0271983556449,0.0317727774382,-2.97723579407,-0.245959311724,0.497421264648,0.00521329604089,-0.983554840088,-0.0243163779378,-2.50531005859,-0.08728069067,12.10458660123,95.413970947248,40.448246002212,28.70405769351,206
1.64951817895205E+018,95,1.64951817895205E+018,r1000913c5/base_footprint,0,1.64951817895205E+018,v/m1vw10zy74w/map,-8.70158890367,-2.24485768499,0,0,0,-0.715810279123,0.698294811883,0,61.9121437073,14.4385023117,46.2285346985,95.30809021,41.4151382446,41.4151382446,61.9121437073,61.9121437073,35.9740142822,1.58839261532,0,0.00433615176007,0.162505552173,0.030417021364,0.0347531735897,-2.33391571045,-0.192812502384,0.105880737305,0.00110969843809,-0.966892242432,-0.0239044297487,-7.26995658875,-0.253272771835,12.10458660125,95.413970947305,40.448246002168,28.70405769345,206
1.64951817905176E+018,96,1.64951817905176E+018,r1000913c5/base_footprint,0,1.64951817905176E+018,v/m1vw10zy74w/map,-8.70158890367,-2.24485768499,0,0,0,-0.715810279123,0.698294811883,0,62.2824020386,9.36819171906,47.0647277832,95.30809021,41.4151039124,41.4151039124,62.2824020386,62.2824020386,29.3090133667,1.40908229351,0,0.00406266562641,0.15955285728,0.0308311413974,0.0348938070238,2.7363948822,0.226062640548,0.105880737305,0.00110969843809,-0.966857910156,-0.0239035803825,-0.604955673218,-0.0210756156594,12.10458660126,95.413970947305,40.448246002244,28.704057693482,206
1.64951817915211E+018,97,1.64951817915211E+018,r1000913c5/base_footprint,0,1.64951817915211E+018,v/m1vw10zy74w/map,-8.70158890367,-2.24485768499,0,0,0,-0.715810279123,0.698294811883,0,61.9701652527,10.4859333038,61.3654937744,95.30809021,41.2909851074,41.2909851074,61.9701652527,61.9701652527,33.588809967,1.35177052021,0,0.00451915664598,0.151295185089,0.0310552120209,0.0355743691325,1.61865329742,0.133722305298,0.105880737305,0.00110969843809,-0.842739105225,-0.0208349972963,-4.88475227356,-0.170176371932,12.10458660122,95.413970947305,40.448246002175,28.70405769344,206
1.64951817925157E+018,98,1.64951817925157E+018,r1000913c5/base_footprint,0,1.64951817925157E+018,v/m1vw10zy74w/map,-8.70158890367,-2.24485768499,0,0,0,-0.715810279123,0.698294811883,0,62.2339668274,12.6297578812,79.3564758301,95.30809021,41.3832092285,41.3832092285,62.2339668274,62.2339668274,29.8364086151,1.52903616428,0,0.0041659581475,0.142009750009,0.0315169617534,0.0356829166412,-0.525171279907,-0.0433861389756,0.105880737305,0.00110969843809,-0.934963226318,-0.0231150500476,-1.13235092163,-0.0394491590559,12.104586601293,95.413970947305,40.448246002182,28.70405769347,206
1.64951817935249E+018,99,1.64951817935249E+018,r1000913c5/base_footprint,0,1.6495181793525E+018,v/m1vw10zy74w/map,-8.70158890367,-2.24485768499,0,0,0,-0.715810279123,0.698294811883,0,62.4872322083,8.78090381622,86.5204544067,95.30809021,41.4405403137,41.4405403137,62.4872322083,62.4872322083,25.8967704773,1.5379704237,0,0.00289683463052,0.136699065566,0.027651892975,0.0305487271398,3.32368278503,0.274580448866,0.105880737305,0.00110969843809,-0.992294311523,-0.0245324429125,2.80728721619,0.0978010594845,12.10458660125,95.413970947305,40.448246002177,28.70405769349,206
1.64951817945228E+018,100,1.64951817945228E+018,r1000913c5/base_footprint,0,1.64951817945228E+018,v/m1vw10zy74w/map,-8.68379274565,-2.09884928505,0,0,0,-0.717287111902,0.696777725749,0,62.1892623901,5.53885793686,92.4512176514,94.7576065063,41.4417419434,41.4417419434,62.1892623901,62.1892623901,29.2914867401,1.5170853138,0,0.00378437596373,0.131728202105,0.0257381610572,0.0295225363225,7.1597237587,0.563820719719,0.606414794922,0.00635894760489,-0.872650146484,-0.0215102210641,1.03713226318,0.0341964885592,12.69858169556,95.364021301222,40.569091796916,30.32861900328,256
1.64951817955218E+018,101,1.64951817955218E+018,r1000913c5/base_footprint,0,1.64951817955218E+018,v/m1vw10zy74w/map,-8.68379274565,-2.09884928505,0,0,0,-0.717287111902,0.696777725749,0,62.6341018677,10.6912841797,92.2063522339,94.7576065063,41.5399055481,41.5399055481,62.6341018677,62.6341018677,22.3445243835,1.33315527439,0,0.00480322167277,0.121632605791,0.0258538927883,0.0306571144611,2.00729751587,0.158072575927,0.606414794922,0.00635894760489,-0.970813751221,-0.0239298865199,7.98409461975,0.263252824545,12.69858169557,95.364021301222,40.569091796879,30.32861900325,256
