%time,field.header.seq,field.header.stamp,field.header.frame_id,field.pose.header.seq,field.pose.header.stamp,field.pose.header.frame_id,field.pose.pose.position.x,field.pose.pose.position.y,field.pose.pose.position.z,field.pose.pose.orientation.x,field.pose.pose.orientation.y,field.pose.pose.orientation.z,field.pose.pose.orientation.w,field.label,field.main_output,field.scan_score,field.pose_score,field.cov_score,field.lhood_map_score,field.lhood_robot_score,field.lhood_map_score_all,field.lhood_robot_score_all,field.point_angle_diff,field.average_orientation,field.map_average_orientation,field.sensor_div,field.odom_div_x,field.odom_div_w,field.imu_div_w,field.kdtree_div,field.kdtree_div_p,field.cov_div,field.cov_div_p,field.likelihood_div,field.likelihood_div_p,field.normal_diff_div,field.normal_diff_div_p,field.kdtree_average,field.cov_average,field.likelihood_average,field.normal_diff_average,field.map_update_count
1.64950156938546E+018,0,1.64950156938546E+018,r1000913c5/base_footprint,0,1.64950156938546E+018,v/m1vw10zy74w/map,-10.0454249852,-0.72927131634,0,0,0,-0.999800899537,0.0199539791546,0,62.4137687683,10.8734407425,100,95.4901123047,42.5530319214,42.5530319214,62.4137687683,62.4137687683,39.8893318176,0.0658086538315,0,0.000492060033139,0.741747260094,0.079452380538,0.0789603218436,13.6413125992,0.556453168392,-0.621307373047,-0.00654912181199,6.40139389038,0.130762308836,-7.2975769043,-0.223908677697,24.5147533417,94.868804931653,48.95442581178,32.5917549133,1203
1.64950156948515E+018,1,1.64950156948515E+018,r1000913c5/base_footprint,0,1.64950156948515E+018,v/m1vw10zy74w/map,-10.1537596236,-0.735818948772,0,0,0,-0.99939380302,0.0348141707591,0,63.1165504456,34.3563499451,77.2156906128,95.659576416,43.2890319824,43.2890319824,63.1165504456,63.1165504456,35.7981033325,0.224681973457,0,0.000921499158721,0.737318813801,0.127036526799,0.12611502409,-9.6385345459,-0.389942824841,-0.785377502441,-0.00827809330076,5.60483169556,0.114632621408,-3.20489883423,-0.0983302742243,24.7178153992,94.874198913559,48.89386367796,32.59320449827,1201
1.64950156958549E+018,2,1.64950156958549E+018,r1000913c5/base_footprint,0,1.64950156958549E+018,v/m1vw10zy74w/map,-10.161250206,-0.736053860156,0,0,0,-0.99537988783,0.0960149931213,0,63.5496520996,36.453414917,79.7472839355,95.5649032593,44.0579376221,44.0579376221,63.5496520996,63.5496520996,35.9656333923,0.0852572619915,0,0.00305626820773,0.71201890707,0.138812854886,0.135756582022,-11.7355995178,-0.474783033133,-0.690704345703,-0.00728021282703,4.83592605591,0.0989066064358,-3.37242889404,-0.103470310569,24.7178153992,94.874198913597,48.89386367801,32.59320449826,1201
1.64950156968569E+018,3,1.64950156968569E+018,r1000913c5/base_footprint,0,1.64950156968569E+018,v/m1vw10zy74w/map,-10.161250206,-0.736053860156,0,0,0,-0.99537988783,0.0960149931213,0,63.7629432678,25.6055355072,82.9925537109,95.5649032593,44.2911148071,44.2911148071,63.7629432678,63.7629432678,34.644695282,0.136311367154,0,0.00326471310109,0.693552911282,0.12142150104,0.118156783283,-0.887720108032,-0.035914182663,-0.690704345703,-0.00728021282703,4.60274887085,0.0941375568509,-2.05149078369,-0.062942288816,24.717815399168,94.874198913597,48.89386367795,32.59320449831,1201
1.64950156978595E+018,4,1.64950156978595E+018,r1000913c5/base_footprint,0,1.64950156978595E+018,v/m1vw10zy74w/map,-10.1601229725,-0.734407405145,0,0,0,-0.987302375727,0.158852191941,0,63.8915710449,27.0072994232,85.521194458,95.5327682495,44.4758720398,44.4758720398,63.8915710449,63.8915710449,34.2090911865,0.0713380798697,0,0.00481603946537,0.659674048424,0.095159702003,0.0903436616063,-2.28948402405,-0.0926248505712,-0.658569335938,-0.00694150105119,4.41799163818,0.0903588160872,-1.61588668823,-0.0495774112642,24.71781539915,94.874198913562,48.89386367798,32.59320449827,1201
1.64950156988531E+018,5,1.64950156988531E+018,r1000913c5/base_footprint,0,1.64950156988531E+018,v/m1vw10zy74w/map,-10.1628480984,-0.735976597318,0,0,0,-0.976047914526,0.217555667702,0,64.2997436523,30.0937767029,87.0651092529,95.307975769,44.8174171448,44.8174171448,64.2997436523,64.2997436523,29.7413883209,0.26089155674,0,0.004934433382,0.636410295963,0.0785937011242,0.0736592710018,-5.37596130371,-0.217493385077,-0.433776855469,-0.00457212654874,4.0764465332,0.083373375237,2.85181617737,0.0874972641468,24.71781539919,94.874198913531,48.893863678,32.59320449827,1201
1.64950156998532E+018,6,1.64950156998532E+018,r1000913c5/base_footprint,0,1.64950156998532E+018,v/m1vw10zy74w/map,-10.1683631661,-0.731100956057,0,0,0,-0.960682448405,0.277649479246,0,64.2162246704,29.0780143738,88.2030715942,95.4679718018,44.8945388794,44.8945388794,64.2162246704,64.2162246704,32.6536865234,0.39438483119,0,0.00485619995743,0.616716563702,0.0734498053789,0.0685936063528,-4.36019897461,-0.176399037242,-0.593772888184,-0.00625852867961,3.99932479858,0.0817960500717,-0.0604820251465,-0.00185566360597,24.71781539919,94.874198913616,48.89386367798,32.5932044982535,1201
1.64950157008532E+018,7,1.64950157008532E+018,r1000913c5/base_footprint,0,1.64950157008532E+018,v/m1vw10zy74w/map,-10.1758088365,-0.729382442611,0,0,0,-0.942314895583,0.334727706594,0,64.4567565918,30.7467670441,85.4468002319,95.412651062,44.9448013306,44.9448013306,64.4567565918,64.4567565918,28.6677761078,0.170789971948,0,0.00544562423602,0.593757867813,0.0695345699787,0.0640889406204,-6.0289516449,-0.243911191821,-0.538452148438,-0.00567543273792,3.94906234741,0.0807680562139,3.9254283905,0.120437018573,24.7178153992,94.874198913562,48.89386367801,32.5932044983,1201
1.64950157018524E+018,8,1.64950157018524E+018,r1000913c5/base_footprint,0,1.64950157018524E+018,v/m1vw10zy74w/map,-10.1801988549,-0.725949111738,0,0,0,-0.903611341013,0.428353293896,0,64.5032272339,33.2498970032,82.6089019775,95.7645263672,45.0730171204,45.0730171204,64.5032272339,64.5032272339,30.4827480316,0.222544386983,0,0.00696392217651,0.432116299868,0.0397840328515,0.032820109278,-8.532081604,-0.345179438591,-0.890327453613,-0.00938429497182,3.82084655762,0.0781457275152,2.11045646667,0.0647514238954,24.7178153992,94.874198913587,48.89386367802,32.59320449827,1201
1.64950157028619E+018,9,1.64950157028619E+018,r1000913c5/base_footprint,0,1.64950157028619E+018,v/m1vw10zy74w/map,-10.1773595215,-0.723880861846,0,0,0,-0.899792411348,0.436318251372,0,64.733581543,34.5484657288,78.6637573242,96.0020828247,45.1185302734,45.1185302734,64.733581543,64.733581543,27.6831493378,0.192149356008,0,0.0058031915687,0.330011367798,0.0218032728881,0.0160000808537,-9.83065032959,-0.397715181112,-1.12788391113,-0.0118882050738,3.77533340454,0.0772148743272,4.91005516052,0.150646597147,24.71781539921,94.87419891357,48.89386367794,32.59320449832,1201
1.64950157038556E+018,10,1.64950157038556E+018,r1000913c5/base_footprint,0,1.64950157038556E+018,v/m1vw10zy74w/map,-10.1763837376,-0.720267001127,0,0,0,-0.841939240149,0.539572345378,0,64.7717895508,33.0065345764,75.0594024658,95.8870849609,45.0865402222,45.0865402222,64.7717895508,64.7717895508,26.2359886169,0.147777169943,0,0.00566233787686,0.218016773462,0.00382623565383,0.00948857329786,-8.28871917725,-0.335333794355,-1.01288604736,-0.0106760961935,3.80732345581,0.0778691470623,6.35721588135,0.195047274232,24.71781539915,94.87419891354,48.89386367801,32.59320449825,1201
1.64950157048613E+018,11,1.64950157048613E+018,r1000913c5/base_footprint,0,1.64950157048613E+018,v/m1vw10zy74w/map,-10.1763837376,-0.720267001127,0,0,0,-0.841939240149,0.539572345378,0,64.7373886108,30.8426074982,67.9180221558,95.8870849609,45.0609931946,45.0609931946,64.7373886108,64.7373886108,26.5791816711,0.321416050196,0,0.00489271059632,0.178310006857,0.0184680502862,0.0233607608825,-6.124792099,-0.247788563371,-1.01288604736,-0.0106760961935,3.8328704834,0.078391648829,6.01402282715,0.1845176965,24.7178153992,94.87419891354,48.893863678,32.59320449825,1201
1.64950157058625E+018,12,1.64950157058625E+018,r1000913c5/base_footprint,0,1.64950157058625E+018,v/m1vw10zy74w/map,-10.1768777204,-0.722040466884,0,0,0,-0.807296317772,0.590146299922,0,64.6883010864,30.1960792542,65.6290054321,95.4836044312,45.0622291565,45.0622291565,64.6883010864,64.6883010864,26.0235939026,0.305651009083,0,0.00477881822735,0.159310296178,0.0374570526183,0.0422358699143,-5.47826385498,-0.221632197499,-0.609405517578,-0.00642330059782,3.83163452148,0.078366369009,6.5696105957,0.201563820243,24.71781539922,94.874198913622,48.89386367798,32.5932044983,1201
1.64950157068556E+018,13,1.64950157068556E+018,r1000913c5/base_footprint,0,1.64950157068556E+018,v/m1vw10zy74w/map,-10.1702817205,-0.717682873897,0,0,0,-0.77392672939,0.633275151522,0,64.4414978027,26.5692863464,60.0120277405,95.0654067993,44.9439239502,44.9439239502,64.4414978027,64.4414978027,27.6828422546,0.519265472889,0,0.00499652512372,0.146869435906,0.058970477432,0.0639670044184,-1.85147094727,-0.0749043151736,-0.191207885742,-0.00201538344845,3.94993972778,0.0807860046625,4.91036224365,0.150656014681,24.71781539913,94.874198913558,48.89386367798,32.59320449825,1201
1.64950157238527E+018,14,1.64950157238527E+018,r1000913c5/base_footprint,0,1.64950157238527E+018,v/m1vw10zy74w/map,-10.1749647004,-0.716316413141,0,0,0,-0.741996747771,0.670403480224,0,64.1850280762,22.0880413055,55.9251060486,94.6749420166,44.7912521362,44.7912521362,64.1850280762,64.1850280762,29.2448139191,0.445227146149,0,0.00218840362504,0.000372100010281,0.230069041252,0.227880626917,2.62977409363,0.106391847134,0.199256896973,0.00210022227839,4.10261154175,0.0839085131884,3.34839057922,0.102732785046,24.71781539913,94.874198913573,48.89386367795,32.59320449832,1201
1.64950157248527E+018,15,1.64950157248527E+018,r1000913c5/base_footprint,0,1.64950157248527E+018,v/m1vw10zy74w/map,-10.1749647004,-0.716316413141,0,0,0,-0.741996747771,0.670403480224,0,63.6499938965,15.2941179276,49.6925430298,94.6749420166,44.5981292725,44.5981292725,63.6499938965,63.6499938965,36.7896766663,0.244308724999,0,0.00274503068067,0.0560902990401,0.181040033698,0.178295001388,9.42369747162,0.381251215935,0.199256896973,0.00210022227839,4.29573440552,0.0878583565354,-4.19647216797,-0.128752976656,24.71781539922,94.874198913573,48.89386367802,32.59320449833,1201
1.64950157258539E+018,16,1.64950157258539E+018,r1000913c5/base_footprint,0,1.64950157258539E+018,v/m1vw10zy74w/map,-10.1778384374,-0.727182615964,0,0,0,-0.704448263247,0.709755341233,0,63.3280792236,17.6470584869,45.1294555664,95.114112854,44.50831604,44.50831604,63.3280792236,63.3280792236,43.1952209473,0.397588372231,0,0.000967073079664,0.121251896024,0.19759491086,0.1966278404,7.07075691223,0.286059141159,-0.23991394043,-0.00252875848673,4.38554763794,0.0896952599287,-10.602016449,-0.325283020735,24.71781539913,94.87419891357,48.89386367794,32.5932044983,1201
1.6495015726854E+018,17,1.6495015726854E+018,r1000913c5/base_footprint,0,1.6495015726854E+018,v/m1vw10zy74w/map,-10.1778384374,-0.727182615964,0,0,0,-0.704448263247,0.709755341233,0,63.6825866699,28.1484413147,44.3049812317,95.114112854,44.5279541016,44.5279541016,63.6825866699,63.6825866699,37.0261955261,0.274981737137,0,0.00138269574381,0.12468406558,0.201973065734,0.200590372086,-3.43062591553,-0.138791635633,-0.23991394043,-0.00252875848673,4.36590957642,0.0892936065793,-4.43299102783,-0.136009678245,24.71781539917,94.87419891357,48.89386367802,32.59320449827,1201
1.64950157278556E+018,18,1.64950157278556E+018,r1000913c5/base_footprint,0,1.64950157278556E+018,v/m1vw10zy74w/map,-10.1736846893,-0.836873380575,0,0,0,-0.678938747445,0.734194917728,0,63.8947296143,22.09856987,43.9984893799,95.6016235352,44.6184005737,44.6184005737,63.8947296143,63.8947296143,35.9394340515,0.449884206057,0,0.00191806128714,0.121328614652,0.211000323296,0.209082260728,2.89122200012,0.115696124732,-0.688293457031,-0.00725181028247,4.20405578613,0.0861090570688,-3.60500335693,-0.111491166055,24.98979187012,94.913330078169,48.82245635983,32.33443069457,1225
1.64950157288622E+018,19,1.64950157288622E+018,r1000913c5/base_footprint,0,1.64950157288622E+018,v/m1vw10zy74w/map,-10.1736846893,-0.836873380575,0,0,0,-0.678938747445,0.734194917728,0,63.7103424072,16.7303276062,43.8293418884,95.6016235352,44.6383781433,44.6383781433,63.7103424072,63.7103424072,39.474193573,0.623790681362,0,0.00322990189306,0.109628230333,0.21287958324,0.209649682045,8.25946426392,0.33051353693,-0.688293457031,-0.00725181028247,4.18407821655,0.0856998711824,-7.13976287842,-0.220809921622,24.98979187012,94.913330078169,48.82245635985,32.33443069458,1225
1.64950157298612E+018,20,1.64950157298612E+018,r1000913c5/base_footprint,0,1.64950157298612E+018,v/m1vw10zy74w/map,-10.1707111218,-0.95383627864,0,0,0,-0.678963659936,0.73417187939,0,63.7174835205,20.5087432861,44.0673599243,95.3753204346,44.4529190063,44.4529190063,63.7174835205,63.7174835205,36.5279693604,0.337186992168,0,0.00367293413728,0.103631049395,0.192860409617,0.189187467098,4.87723922729,0.192123323679,-0.427597045898,-0.00450349971652,4.255859375,0.0873735621572,-4.45560455322,-0.138923481107,25.38598251339,94.947723388702,48.7087783813,32.07236480718,1188
1.64950157308528E+018,21,1.64950157308528E+018,r1000913c5/base_footprint,0,1.64950157308528E+018,v/m1vw10zy74w/map,-10.1668559118,-1.06603906996,0,0,0,-0.697404245549,0.716677973912,0,63.90184021,18.4313716888,44.2784767151,95.2663192749,44.1976280212,44.1976280212,63.90184021,63.90184021,30.0600337982,0.544282078743,0,0.00426623085514,0.097435131669,0.16683422029,0.162567988038,7.72935295105,0.295456379652,-0.187347412109,-0.00197043991648,4.32120513916,0.0890624299645,1.64978599548,0.052027605474,26.16072463985,95.078971862791,48.51883316036,31.70981979368,1007
1.64950157318536E+018,22,1.64950157318536E+018,r1000913c5/base_footprint,0,1.64950157318536E+018,v/m1vw10zy74w/map,-10.1675198761,-1.06427051998,0,0,0,-0.697214487794,0.716862579586,0,63.6313362122,22.6213970184,44.5919723511,95.3758544922,43.9906158447,43.9906158447,63.6313362122,63.6313362122,33.0876731873,0.354189932346,0,0.00401122495532,0.08987300843,0.12809099257,0.124079763889,3.53932762146,0.135291650891,-0.296882629395,-0.00312248454429,4.52821731567,0.093329064548,-1.37785339355,-0.0434519462287,26.16072463986,95.078971862805,48.51883316037,31.70981979375,1007
1.64950157328526E+018,23,1.64950157328526E+018,r1000913c5/base_footprint,0,1.64950157328526E+018,v/m1vw10zy74w/map,-10.1648891448,-1.17582293081,0,0,0,-0.710907494481,0.703285528282,0,63.5098609924,28.627450943,46.6307106018,95.2259597778,43.9522209167,43.9522209167,63.5098609924,63.5098609924,34.3199386597,0.321239411831,0,0.00316576217301,0.0825869217515,0.108032599092,0.104866839945,-1.06238555908,-0.0385410152376,0.0173950195312,0.000182637624675,4.25361251831,0.0882385447621,-3.61038208008,-0.11756542325,27.56506538392,95.2433547973312,48.20583343501,30.70955657962,741
1.64950157338529E+018,24,1.64950157338529E+018,r1000913c5/base_footprint,0,1.64950157338529E+018,v/m1vw10zy74w/map,-10.1648891448,-1.17582293081,0,0,0,-0.710907494481,0.703285528282,0,63.5064277649,30.5171737671,47.6958732605,95.2259597778,44.045589447,44.045589447,63.5064277649,63.5064277649,35.3901443481,0.346167385578,0,0.00289150630124,0.0778878927231,0.0981171429157,0.0952256396413,-2.95210838318,-0.107096001506,0.0173950195312,0.000182637624675,4.16024398804,0.0863016694784,-4.68058776855,-0.152414694428,27.56506538392,95.2433547973312,48.20583343504,30.70955657955,741
1.64950157348528E+018,25,1.64950157348528E+018,r1000913c5/base_footprint,0,1.64950157348528E+018,v/m1vw10zy74w/map,-10.1649890393,-1.2941851963,0,0,0,-0.716059376998,0.698039374687,0,63.8527526855,31.1145515442,48.0675811768,95.5526809692,44.1653747559,44.1653747559,63.8527526855,63.8527526855,31.626121521,0.559820413589,0,0.00228406093083,0.0687432661653,0.0630215853453,0.0607375241816,-0.42603302002,-0.0138824889436,0.297813415527,0.00310706184246,2.87485122681,0.0611147396266,-3.36295318604,-0.118987128139,30.68851852418,95.850494384727,47.04022598271,28.26316833496,327
1.64950157358566E+018,26,1.64950157358566E+018,r1000913c5/base_footprint,0,1.64950157358566E+018,v/m1vw10zy74w/map,-10.1649890393,-1.2941851963,0,0,0,-0.716059376998,0.698039374687,0,63.930683136,31.3067512512,45.853805542,95.5526809692,44.2850761414,44.2850761414,63.930683136,63.930683136,31.5161800385,0.452947825193,0,0.00228100083768,0.0641692131758,0.0215634386986,0.019282437861,-0.618232727051,-0.0201454088092,0.297813415527,0.00310706184246,2.75514984131,0.0585700795054,-3.25301170349,-0.115097202361,30.688518524149,95.850494384727,47.04022598271,28.26316833501,327
1.64950157368587E+018,27,1.64950157368587E+018,r1000913c5/base_footprint,0,1.64950157368588E+018,v/m1vw10zy74w/map,-10.16847226,-1.41240719728,0,0,0,-0.718568106061,0.695456596023,0,64.1001205444,31.9727897644,44.8472557068,95.1704940796,44.3817405701,44.3817405701,64.1001205444,64.1001205444,28.1343784332,0.454910516739,0,0.00130365532823,0.0580631643534,0.0140410596505,0.0153447147459,-0.622085571289,-0.019842794165,0.673988342285,0.00703210383654,2.54314804077,0.0541961453855,-0.307289123535,-0.0110428053886,31.350704193111,95.844482421885,46.92488861087,27.827089309665,319
1.64950157928673E+018,28,1.64950157928673E+018,r1000913c5/base_footprint,0,1.64950157928673E+018,v/m1vw10zy74w/map,-10.1678806828,-2.48895199186,0,0,0,-0.708582795757,0.705627679132,0,63.8352279663,32.773109436,44.4197463989,95.6051025391,44.5721359253,44.5721359253,63.8352279663,63.8352279663,36.5233612061,0.456866443157,0,0.00258183595724,0.13968296349,0.0487531200051,0.0513349547982,-9.12537002563,-0.385887622833,0.366271972656,0.00381647096947,1.75790786743,0.0379431508482,-9.42095947266,-0.347606062889,23.64773941037,95.971374511756,46.33004379273,27.10240173344,158
1.64950157938543E+018,29,1.64950157938543E+018,r1000913c5/base_footprint,0,1.64950157938543E+018,v/m1vw10zy74w/map,-10.1678806828,-2.48895199186,0,0,0,-0.708582795757,0.705627679132,0,63.0157356262,0.569259941578,43.7776069641,95.6051025391,43.9284706116,43.9284706116,63.0157356262,63.0157356262,44.3226089478,1.40577638149,0,0.00282151065767,0.159596219659,0.0485790036619,0.0514005124569,23.0784797668,0.975927531719,0.366271972656,0.00381647096947,2.40157318115,0.0518361963332,-17.2202072144,-0.635375678539,23.647739708378,95.971374511756,46.33004379275,27.1024017334,158
1.64950157948538E+018,30,1.64950157948538E+018,r1000913c5/base_footprint,0,1.64950157948538E+018,v/m1vw10zy74w/map,-10.1678806828,-2.48895199186,0,0,0,-0.708582795757,0.705627679132,0,62.9836387634,4.3137254715,43.1054344177,95.6051025391,43.4322929382,43.4322929382,62.9836387634,62.9836387634,39.5416374207,1.29866182804,0,0.00389756099321,0.198410779238,0.0537987984717,0.0576963610947,19.3340148926,0.817584037781,0.366271972656,0.00381647096947,2.89775085449,0.0625458285213,-12.4392356873,-0.458971709013,23.6477403641,95.971374511756,46.33004379269,27.1024017334,158
1.64950157958526E+018,31,1.64950157958526E+018,r1000913c5/base_footprint,0,1.64950157958526E+018,v/m1vw10zy74w/map,-10.1678806828,-2.48895199186,0,0,0,-0.708582795757,0.705627679132,0,62.6040153503,6.99523067474,42.488948822,95.6051025391,43.091091156,43.091091156,62.6040153503,62.6040153503,42.6898880005,1.2167069912,0,0.00381542905234,0.201716944575,0.0628067851067,0.0666222125292,16.652507782,0.704190254211,0.366271972656,0.00381647096947,3.23895263672,0.0699104145169,-15.5874862671,-0.575133025646,23.64773845674,95.971374511756,46.33004379272,27.1024017334,158
1.64950157968547E+018,32,1.64950157968547E+018,r1000913c5/base_footprint,0,1.64950157968547E+018,v/m1vw10zy74w/map,-10.1607696918,-2.37985897433,0,0,0,-0.713419838535,0.70073685074,0,62.5324172974,6.66666650772,41.9072570801,95.6026611328,42.9419822693,42.9419822693,62.5324172974,62.5324172974,42.3594779968,1.14845561981,0,0.00380648765713,0.198597431183,0.0668195709586,0.0706260576844,17.9162082672,0.728808522224,0.389305114746,0.00405560107902,3.40483474731,0.0734642595053,-15.3179016113,-0.56645745039,24.58287477492,95.991966247546,46.34681701661,27.0415763855,183
1.64950157978521E+018,33,1.64950157978521E+018,r1000913c5/base_footprint,0,1.64950157978521E+018,v/m1vw10zy74w/map,-10.1607696918,-2.37985897433,0,0,0,-0.713419838535,0.70073685074,0,62.7309761047,7.12074279785,41.6993370056,95.6026611328,42.8859405518,42.8859405518,62.7309761047,62.7309761047,38.1801834106,1.16837322712,0,0.0035062727984,0.192556172609,0.0667614936829,0.0702677667141,17.4621315002,0.710337281227,0.389305114746,0.00405560107902,3.46087646484,0.0746734440327,-11.1386070251,-0.411906719208,24.58287429805,95.991966247546,46.34681701664,27.0415763855,183
1.64950157988518E+018,34,1.64950157988518E+018,r1000913c5/base_footprint,0,1.64950157988518E+018,v/m1vw10zy74w/map,-10.1470192467,-2.25540218231,0,0,0,-0.716774598877,0.697304936455,0,62.7674446106,6.95886182785,41.5756340027,95.3590316772,42.8986549377,42.8986549377,62.7674446106,62.7674446106,36.7839775085,1.38628745079,0,0.00339520606212,0.187846839428,0.0666513741016,0.0700465813279,19.174282074,0.733715057373,0.640823364258,0.00667525362223,3.57867050171,0.0769982039928,-9.8340587616,-0.36490124464,26.13314390185,95.999855041458,46.47732543941,26.9499187469,220
1.64950157998532E+018,35,1.64950157998532E+018,r1000913c5/base_footprint,0,1.64950157998532E+018,v/m1vw10zy74w/map,-10.1480093615,-2.25303233225,0,0,0,-0.716887230314,0.697189141491,0,63.1847114563,12.7134723663,41.8539924622,95.538772583,42.9345932007,42.9345932007,63.1847114563,63.1847114563,30.3084068298,1.23008859158,0,0.00300868204795,0.181584656239,0.06245470047,0.065463386476,13.4196720123,0.51351159811,0.461082458496,0.00480294972658,3.54273223877,0.0762249603868,-3.35848808289,-0.124619603157,26.1331443786,95.999855041496,46.47732543947,26.94991874691,220
1.64950158008617E+018,36,1.64950158008617E+018,r1000913c5/base_footprint,0,1.64950158008617E+018,v/m1vw10zy74w/map,-10.1480093615,-2.25303233225,0,0,0,-0.716887230314,0.697189141491,0,62.7672615051,12.910618782,42.2720794678,95.538772583,42.9034729004,42.9034729004,62.7672615051,62.7672615051,37.4863815308,1.35873675346,0,0.00306931557134,0.169159024954,0.0562125183642,0.0592818334699,13.2225255966,0.50596767664,0.461082458496,0.00480294972658,3.57385253906,0.0768945366144,-10.5364627838,-0.390964537859,26.1331443786,95.999855041496,46.47732543946,26.949918747,220
1.64950158018585E+018,37,1.64950158018585E+018,r1000913c5/base_footprint,0,1.64950158018585E+018,v/m1vw10zy74w/map,-10.1502027861,-2.14241470074,0,0,0,-0.71881170185,0.695204816787,0,63.1340789795,8.57999229431,42.7937507629,96.0374755859,42.8825531006,42.8825531006,63.1340789795,63.1340789795,32.4530601501,1.38068270683,0,0.00284391641617,0.151056200266,0.0504727549851,0.0533166714013,18.4249477386,0.682280659676,-0.0803833007812,-0.00083770044148,3.73404312134,0.0801011547446,-5.39898490906,-0.199562728405,27.00494003291,95.9570922851188,46.61659622194,27.05407524104,249
1.64950158028638E+018,38,1.64950158028638E+018,r1000913c5/base_footprint,0,1.64950158028638E+018,v/m1vw10zy74w/map,-10.1502027861,-2.14241470074,0,0,0,-0.71881170185,0.695204816787,0,63.114074707,13.2730016708,43.5914421082,96.0374755859,42.89686203,42.89686203,63.114074707,63.114074707,32.9676856995,1.38192391396,0,0.0022650193423,0.138563781977,0.0476113408804,0.0498763620853,13.7319383621,0.508497297764,-0.0803833007812,-0.00083770044148,3.71973419189,0.0797942057252,-5.91361045837,-0.218584835529,27.0049400329,95.9570922851188,46.61659622189,27.05407524113,249
1.6495015803851E+018,39,1.6495015803851E+018,r1000913c5/base_footprint,0,1.6495015803851E+018,v/m1vw10zy74w/map,-10.1431856011,-2.02797268336,0,0,0,-0.719853413838,0.694126114323,0,63.1188735962,11.764705658,44.5145683289,96.0342788696,42.8986206055,42.8986206055,63.1188735962,63.1188735962,32.8888015747,1.41285955906,0,0.0020182246808,0.13152693212,0.0440486744046,0.0460668988526,15.8982505798,0.574712634087,-0.0908050537109,-0.000946443236899,3.68799972534,0.0791643559933,-5.6231174469,-0.206234231591,27.6629562378,95.9434738158891,46.58662033084,27.2656841278,285
1.64950158048519E+018,40,1.64950158048519E+018,r1000913c5/base_footprint,0,1.64950158048519E+018,v/m1vw10zy74w/map,-10.1432169311,-2.03142700535,0,0,0,-0.720137700551,0.693831169843,0,63.0788421631,11.3827352524,45.5265846252,96.3335037231,42.9249954224,42.9249954224,63.0788421631,63.0788421631,34.9713859558,1.33127832413,0,0.00169512734283,0.126648247242,0.0414019078016,0.0430970340967,16.2802200317,0.588520586491,-0.390029907227,-0.00406520534307,3.66162490845,0.0785982087255,-7.705701828,-0.2826153934,27.6629552841,95.943473815873,46.58662033085,27.2656841278,285
1.64950158058525E+018,41,1.64950158058525E+018,r1000913c5/base_footprint,0,1.64950158058525E+018,v/m1vw10zy74w/map,-10.1432169311,-2.03142700535,0,0,0,-0.720137700551,0.693831169843,0,63.2677001953,13.1103420258,54.7789306641,96.3335037231,43.0194244385,43.0194244385,63.2677001953,63.2677001953,32.5917892456,1.27873063087,0,0.00165606371593,0.118016667664,0.036619104445,0.038275167346,14.552614212,0.526068627834,-0.390029907227,-0.00406520534307,3.56719589233,0.0765712559223,-5.3261051178,-0.195340961218,27.6629562378,95.943473815873,46.58662033083,27.2656841278,285
1.64950158068527E+018,42,1.64950158068527E+018,r1000913c5/base_footprint,0,1.64950158068527E+018,v/m1vw10zy74w/map,-10.1432169311,-2.03142700535,0,0,0,-0.720137700551,0.693831169843,0,63.3016319275,10.4364328384,66.581817627,96.3335037231,43.1155433655,43.1155433655,63.3016319275,63.3016319275,33.0191307068,1.24261295795,0,0.0015237450134,0.11028649658,0.0333699807525,0.0348937287927,17.226524353,0.622729003429,-0.390029907227,-0.00406520534307,3.47107696533,0.0745080262423,-5.75344657898,-0.211014196277,27.6629571914,95.943473815873,46.58662033083,27.26568412782,285
1.64950158078562E+018,43,1.64950158078562E+018,r1000913c5/base_footprint,0,1.64950158078562E+018,v/m1vw10zy74w/map,-10.1399158361,-1.92352002212,0,0,0,-0.719137051987,0.694868261227,0,63.2281608582,15.5354452133,73.3014984131,96.1950683594,43.1732215881,43.1732215881,63.2281608582,63.2281608582,34.4661178589,1.15292680264,0,0.00146063498687,0.102947682142,0.0300967562944,0.031557392329,13.1613416672,0.458634674549,-0.28589630127,-0.00298090674914,3.41645812988,0.0733307898045,-7.18819236755,-0.263516813517,28.6967868805,95.90917205813,46.58967971798,27.27792549135,310
1.64950158088629E+018,44,1.64950158088629E+018,r1000913c5/base_footprint,0,1.64950158088629E+018,v/m1vw10zy74w/map,-10.1399158361,-1.92352002212,0,0,0,-0.719137051987,0.694868261227,0,63.2010574341,17.7239532471,76.8742446899,96.1950683594,43.2951164246,43.2951164246,63.2010574341,63.2010574341,36.2704467773,1.11432433128,0,0.00129159307107,0.0961238592863,0.0271761156619,0.0284677073359,10.9728336334,0.382371515036,-0.28589630127,-0.00298090674914,3.29456329346,0.070714443922,-8.99252128601,-0.329662948847,28.6967868805,95.90917205813,46.58967971806,27.27792549129,310
1.64950158098641E+018,45,1.64950158098641E+018,r1000913c5/base_footprint,0,1.64950158098641E+018,v/m1vw10zy74w/map,-10.1388162184,-1.81544292675,0,0,0,-0.718633346046,0.695389181646,0,63.4087295532,15.966386795,80.2791442871,96.0079193115,43.4545631409,43.4545631409,63.4087295532,63.4087295532,33.5806541443,1.04617977142,0,0.00110903277528,0.0888883247972,0.0241548828781,0.0252639167011,14.0122642517,0.46740809083,-0.119804382324,-0.00124941847753,3.24662017822,0.0695190131664,-5.98983383179,-0.217095166445,29.9786510467,95.888114929176,46.70118331912,27.59082031251,310
1.64950158108717E+018,46,1.64950158108717E+018,r1000913c5/base_footprint,0,1.64950158108717E+018,v/m1vw10zy74w/map,-10.1390280879,-1.82119507785,0,0,0,-0.718753962005,0.695264512327,0,63.5096893311,21.308921814,81.1508331299,96.0439834595,43.6455307007,43.6455307007,63.5096893311,63.5096893311,33.9556350708,1.03738725185,0,0.00106674793642,0.0839745774865,0.023825686425,0.0248924344778,8.66972923279,0.289196789265,-0.155868530273,-0.00162552506663,3.05565261841,0.0654298737645,-6.3648147583,-0.230685949326,29.97865104679,95.888114929227,46.70118331911,27.5908203125,310
1.64950158118525E+018,47,1.64950158118525E+018,r1000913c5/base_footprint,0,1.64950158118525E+018,v/m1vw10zy74w/map,-10.1390280879,-1.82119507785,0,0,0,-0.718753962005,0.695264512327,0,63.4388389587,20.7843132019,81.9026260376,96.0439834595,43.7809791565,43.7809791565,63.4388389587,63.4388389587,36.6937904358,0.945939660072,0,0.00101083994377,0.0789317041636,0.0238815955818,0.0248924344778,9.19433784485,0.306696176529,-0.155868530273,-0.00162552506663,2.9202041626,0.0625295564532,-9.10297012329,-0.329927504063,29.97865104675,95.888114929227,46.7011833191,27.59082031251,310
1.64950158128513E+018,48,1.64950158128513E+018,r1000913c5/base_footprint,0,1.64950158128513E+018,v/m1vw10zy74w/map,-10.1401242589,-1.70798442226,0,0,0,-0.71959072735,0.694398433979,0,63.3662528992,20,81.7770004272,95.9817581177,43.9342155457,43.9342155457,63.3662528992,63.3662528992,39.4312934875,0.959003090858,0,0.00100673688576,0.0724376738071,0.0238856971264,0.0248924344778,11.6839313507,0.368765205145,-0.108169555664,-0.00112825189717,2.97048950195,0.0633303076029,-11.9261169434,-0.433595359325,31.6839313507,95.873588562036,46.90470504765,27.5051765441,316
1.64950158138515E+018,49,1.64950158138515E+018,r1000913c5/base_footprint,0,1.64950158138515E+018,v/m1vw10zy74w/map,-10.1401242589,-1.70798442226,0,0,0,-0.71959072735,0.694398433979,0,63.8187294006,24.7058830261,81.982460022,95.9817581177,44.1274604797,44.1274604797,63.8187294006,63.8187294006,33.3737640381,0.858679354191,0,0.000901272287592,0.0674282684922,0.0236173048615,0.024518577382,6.97804832458,0.220239341259,-0.108169555664,-0.00112825189717,2.77724456787,0.0592103637755,-5.8685874939,-0.213363021612,31.68393135068,95.873588562036,46.90470504757,27.5051765442,316
1.64950158148525E+018,50,1.64950158148525E+018,r1000913c5/base_footprint,0,1.64950158148525E+018,v/m1vw10zy74w/map,-10.1401242589,-1.70798442226,0,0,0,-0.71959072735,0.694398433979,0,63.5868835449,18.7306499481,82.2091674805,95.9817581177,44.2495803833,44.2495803833,63.5868835449,63.5868835449,38.8658905029,0.745439708233,0,0.001089088968,0.0615083947778,0.023805340752,0.0248944293708,12.9532814026,0.408828109503,-0.108169555664,-0.00112825189717,2.65512466431,0.0566067881882,-11.3607139587,-0.413039118052,31.6839313507,95.873588562036,46.90470504761,27.5051765442,316
1.64950158158507E+018,51,1.64950158158507E+018,r1000913c5/base_footprint,0,1.64950158158507E+018,v/m1vw10zy74w/map,-10.1311987012,-1.60839542245,0,0,0,-0.718877173669,0.695137115379,0,63.6726913452,18.7306499481,82.8472671509,96.0183486938,44.373966217,44.373966217,63.6726913452,63.6726913452,38.7964859009,0.743556320667,0,0.000902018917259,0.0586097799242,0.0242588389665,0.0251608584076,13.0904216766,0.411375880241,-0.150535583496,-0.00157024117652,2.52313995361,0.0538016110659,-11.1917686462,-0.405429571867,31.8210716247,95.867813110304,46.89710617061,27.6047172547,325
1.64950158168576E+018,52,1.64950158168576E+018,r1000913c5/base_footprint,0,1.64950158168576E+018,v/m1vw10zy74w/map,-10.1300504123,-1.59125745296,0,0,0,-0.719150179922,0.694854674532,0,63.7130088806,18.7306499481,84.2361068726,96.1048431396,44.458278656,44.458278656,63.7130088806,63.7130088806,39.292678833,0.658942222595,0,0.00115773931611,0.0556518658996,0.0245105549693,0.0256682951003,13.0904216766,0.411375880241,-0.237030029297,-0.00247246725485,2.43882751465,0.0520037971437,-11.6879615784,-0.42340451479,31.8210716247,95.867813110303,46.89710617065,27.6047172546,325
1.64950158178591E+018,53,1.64950158178591E+018,r1000913c5/base_footprint,0,1.64950158178591E+018,v/m1vw10zy74w/map,-10.1300504123,-1.59125745296,0,0,0,-0.719150179922,0.694854674532,0,63.5813903809,20,85.0033569336,96.1048431396,44.5817832947,44.5817832947,63.5813903809,63.5813903809,42.9956512451,0.703723609447,0,0.00116258393973,0.0478827357292,0.0245057102293,0.0256682951003,11.8210716248,0.371485650539,-0.237030029297,-0.00247246725485,2.31532287598,0.0493702702224,-15.3909339905,-0.557547271252,31.8210716248,95.867813110303,46.89710617068,27.6047172546,325
1.64950158188522E+018,54,1.64950158188522E+018,r1000913c5/base_footprint,0,1.64950158188522E+018,v/m1vw10zy74w/map,-10.1300504123,-1.59125745296,0,0,0,-0.719150179922,0.694854674532,0,63.9678840637,19.2156867981,86.0047607422,96.1048431396,44.6982727051,44.6982727051,63.9678840637,63.9678840637,37.2968254089,0.573156654835,0,0.00115206139162,0.0464507304132,0.0245162341744,0.0256682951003,12.6053848267,0.39613327384,-0.237030029297,-0.00247246725485,2.19883346558,0.0468863360584,-9.6921081543,-0.351103335619,31.8210716248,95.867813110303,46.89710617068,27.6047172546,325
1.64950158208534E+018,55,1.64950158208534E+018,r1000913c5/base_footprint,0,1.64950158208534E+018,v/m1vw10zy74w/map,-10.1269976551,-1.47636696354,0,0,0,-0.720938359996,0.692999192703,0,63.7734680176,25.278219223,87.8619308472,96.2457885742,44.795337677,44.795337677,63.7734680176,63.7734680176,42.3520240784,0.705703318119,0,0.00131658883765,0.043568700552,0.0248858463019,0.0262024365366,6.48507881165,0.20416893065,-0.393165588379,-0.00410177186131,2.13333129883,0.0454590208828,-14.6440181732,-0.528512179852,31.76329803465,95.852622985821,46.92866897583,27.7080059052,316
1.64950158218547E+018,56,1.64950158218547E+018,r1000913c5/base_footprint,0,1.64950158218547E+018,v/m1vw10zy74w/map,-10.1269976551,-1.47636696354,0,0,0,-0.720938359996,0.692999192703,0,63.9566917419,22.3529415131,89.6063995361,96.2457885742,44.9058036804,44.9058036804,63.9566917419,63.9566917419,40.2470321655,0.610627830029,0,0.00122348230798,0.0421803817153,0.024978954345,0.0262024365366,9.41035652161,0.296265095472,-0.393165588379,-0.00410177186131,2.02286529541,0.0431051068008,-12.5390262604,-0.452541619539,31.76329803471,95.852622985821,46.92866897581,27.7080059051,316
1.64950158228741E+018,57,1.64950158228741E+018,r1000913c5/base_footprint,0,1.64950158228741E+018,v/m1vw10zy74w/map,-10.1269976551,-1.47636696354,0,0,0,-0.720938359996,0.692999192703,0,63.9740982056,20.252664566,91.6263046265,96.2457885742,44.9185791016,44.9185791016,63.9740982056,63.9740982056,40.0717048645,0.411977678537,0,0.00122822169214,0.0392618738115,0.0249742139131,0.0262024365366,11.5106334686,0.362387865782,-0.393165588379,-0.00410177186131,2.01008987427,0.0428328774869,-12.3636989594,-0.446213960648,31.7632980346,95.852622985821,46.92866897587,27.7080059051,316
1.64950158248661E+018,58,1.64950158248661E+018,r1000913c5/base_footprint,0,1.64950158248661E+018,v/m1vw10zy74w/map,-10.1269976551,-1.47636696354,0,0,0,-0.720938359996,0.692999192703,0,64.016204834,24.4253997803,92.5123901367,96.2457885742,44.9419517517,44.9419517517,64.016204834,64.016204834,39.566204071,0.60273450613,0,0.00123731291387,0.0378271266818,0.0249651223421,0.0262024365366,7.33789825439,0.231018140912,-0.393165588379,-0.00410177186131,1.98671722412,0.0423348285258,-11.8581981659,-0.42797011137,31.76329803469,95.852622985821,46.92866897582,27.7080059051,316
1.64950158258656E+018,59,1.64950158258656E+018,r1000913c5/base_footprint,0,1.64950158258656E+018,v/m1vw10zy74w/map,-10.1269976551,-1.47636696354,0,0,0,-0.720938359996,0.692999192703,0,64.4489974976,22.0880413055,93.453125,96.2457885742,44.9623260498,44.9623260498,64.4489974976,64.4489974976,31.9960441589,0.55618339777,0,0.00125162606128,0.0348206870258,0.0249508097768,0.0262024365366,9.67525672913,0.304604917765,-0.393165588379,-0.00410177186131,1.96634292603,0.0419006757438,-4.28803825378,-0.154758095741,31.76329803463,95.852622985821,46.92866897583,27.70800590512,316
1.64950158268665E+018,60,1.64950158268665E+018,r1000913c5/base_footprint,0,1.64950158268665E+018,v/m1vw10zy74w/map,-10.1222440733,-1.37496115115,0,0,0,-0.720207576716,0.693758637021,0,64.2712478638,22.6213970184,94.6180953979,96.3465957642,45.0452880859,45.0452880859,64.2712478638,64.2712478638,36.4544258118,0.484864592552,0,0.00125209335238,0.0333716310561,0.0249503422529,0.0262024365366,8.52677345276,0.273748785257,-0.515274047852,-0.00537688564509,1.90223312378,0.0405182875693,-8.42209243774,-0.300442069769,31.14817047116,95.831321716348,46.94752120968,28.03233337406,322
1.6495015827853E+018,61,1.6495015827853E+018,r1000913c5/base_footprint,0,1.6495015827853E+018,v/m1vw10zy74w/map,-10.1222440733,-1.37496115115,0,0,0,-0.720207576716,0.693758637021,0,64.3968505859,21.5686283112,93.3690414429,96.3465957642,44.9927597046,44.9927597046,64.3968505859,64.3968505859,33.6262741089,0.617589771748,0,0.00124584697187,0.0287322103977,0.0249565895647,0.0262024365366,9.57954216003,0.30754750967,-0.515274047852,-0.00537688564509,1.95476150513,0.041637159884,-5.59394073486,-0.19955316186,31.14817047123,95.831321716348,46.94752120973,28.03233337404,322
1.64950158288528E+018,62,1.64950158288528E+018,r1000913c5/base_footprint,0,1.64950158288528E+018,v/m1vw10zy74w/map,-10.1222440733,-1.37496115115,0,0,0,-0.720207576716,0.693758637021,0,64.1886367798,16.5085391998,90.9823379517,96.3465957642,44.8218727112,44.8218727112,64.1886367798,64.1886367798,35.5284919739,0.443728506565,0,0.00151927687693,0.0220702774823,0.0248778816313,0.0263971574605,14.6396312714,0.469999730587,-0.515274047852,-0.00537688564509,2.12564849854,0.0452771186829,-7.49615859985,-0.267411142588,31.1481704712,95.831321716348,46.94752120974,28.03233337405,322
1.64950158298527E+018,63,1.64950158298527E+018,r1000913c5/base_footprint,0,1.64950158298527E+018,v/m1vw10zy74w/map,-10.1172504908,-1.26824060333,0,0,0,-0.719834849936,0.694145365768,0,64.0928192139,19.0221538544,88.9724121094,96.0546798706,44.6416320801,44.6416320801,64.0928192139,64.0928192139,34.2556877136,0.480530172586,0,0.00149579695426,0.00018037740665,0.0245550312102,0.0260508283973,11.6483459473,0.379789888859,-0.203239440918,-0.00212035886943,2.39653396606,0.0509487129748,-6.0034122467,-0.212493047118,30.6704998017,95.851440429682,47.03816604616,28.2522754669,326
1.64950158308527E+018,64,1.64950158308527E+018,r1000913c5/base_footprint,0,1.64950158308527E+018,v/m1vw10zy74w/map,-10.1172504908,-1.26824060333,0,0,0,-0.719834849936,0.694145365768,0,63.998134613,20.0603313446,87.7512741089,96.0546798706,44.4960594177,44.4960594177,63.998134613,63.998134613,34.3878936768,0.505949616432,0,0.000944759231061,0.068630464375,0.0234392117709,0.0243839714676,10.610168457,0.345940500498,-0.203239440918,-0.00212035886943,2.54210662842,0.0540434904397,-6.13561820984,-0.217172533274,30.6704998016,95.851440429682,47.03816604612,28.25227546696,326
1.64950158318699E+018,65,1.64950158318699E+018,r1000913c5/base_footprint,0,1.64950158318699E+018,v/m1vw10zy74w/map,-10.1125978719,-1.15334019224,0,0,0,-0.719813059896,0.694167961522,0,63.6638908386,17.3492183685,86.9620666504,95.7429580688,44.3939208984,44.3939208984,63.6638908386,63.6638908386,38.1789512634,0.597635149956,0,0.000835700077005,0.0809945091605,0.023548271507,0.0243839714676,9.01345825195,0.341902256012,-0.586494445801,-0.00616347463802,3.94666290283,0.0816428437829,-6.62005805969,-0.209768384695,26.36267662045,95.156463622999,48.34058380123,31.55889320371,936
1.64950158338675E+018,66,1.64950158338675E+018,r1000913c5/base_footprint,0,1.64950158338675E+018,v/m1vw10zy74w/map,-10.1128009119,-1.15801207867,0,0,0,-0.719824028236,0.694156587791,0,63.3903121948,17.5721244812,86.5876159668,96.0470581055,44.2220458984,44.2220458984,63.3903121948,63.3903121948,42.3418655396,0.501543223858,0,0.000390803907067,0.102568387985,0.0234715137631,0.0238623172045,8.79055213928,0.333446860313,-0.890594482422,-0.00935926381499,4.11853790283,0.0851983502507,-10.7829723358,-0.34167778492,26.36267662048,95.156463623078,48.34058380123,31.5588932038,936
1.64950158348525E+018,67,1.64950158348525E+018,r1000913c5/base_footprint,0,1.64950158348525E+018,v/m1vw10zy74w/map,-10.1128009119,-1.15801207867,0,0,0,-0.719824028236,0.694156587791,0,63.7226715088,19.5445919037,86.3322143555,96.0470581055,44.0559692383,44.0559692383,63.7226715088,63.7226715088,34.565776825,0.542950034142,0,0.000390825065551,0.137788489461,0.0177382845432,0.0173474606127,6.8180847168,0.258626431227,-0.890594482422,-0.00935926381499,4.28461456299,0.0886339023709,-3.00688362122,-0.0952784866095,26.3626766205,95.156463623078,48.34058380129,31.55889320378,936
1.64950158358521E+018,68,1.64950158358521E+018,r1000913c5/base_footprint,0,1.64950158358521E+018,v/m1vw10zy74w/map,-10.1073139087,-1.04441572938,0,0,0,-0.720364857802,0.693595322681,0,63.6416244507,17.2675514221,86.3586196899,95.936126709,43.8658561707,43.8658561707,63.6416244507,63.6416244507,33.572063446,0.475322693586,0,0.000533962214831,0.153154820204,0.0061114882119,0.00557752605528,8.38712692261,0.326923877001,-0.920433044434,-0.00968716852367,4.73327255249,0.0973941832781,-1.61368179321,-0.0504932254553,25.65467834471,95.015693664566,48.59912872319,31.95838165279,1089
1.64950158368525E+018,69,1.64950158368525E+018,r1000913c5/base_footprint,0,1.64950158368525E+018,v/m1vw10zy74w/map,-10.1073139087,-1.04441572938,0,0,0,-0.720364857802,0.693595322681,0,63.2485351562,18.8384208679,86.399230957,95.936126709,43.7374992371,43.7374992371,63.2485351562,63.2485351562,39.2614326477,0.383350551128,0,0.000125975289848,0.153359681368,0.00337349250913,0.00349946785718,6.81625747681,0.265692561865,-0.920433044434,-0.00968716852367,4.86162948608,0.100035324693,-7.30305099487,-0.22851754725,25.65467834471,95.015693664566,48.59912872318,31.95838165283,1089
1.64950158378537E+018,70,1.64950158378537E+018,r1000913c5/base_footprint,0,1.64950158378537E+018,v/m1vw10zy74w/map,-10.1023766948,-0.927518185038,0,0,0,-0.720203906154,0.6937624475,0,63.3055305481,18.0938205719,86.4786682129,96.0163040161,43.5707092285,43.5707092285,63.3055305481,63.3055305481,36.722782135,0.360734522343,0,0.000237612766796,0.152202904224,0.00330010987818,0.00353772263043,7.13468933105,0.282802641392,-1.05269622803,-0.0110852597281,5.15316390991,0.105762608349,-4.65832519531,-0.14528003335,25.22850990295,94.96360778807,48.72387313841,32.06445693969,1179
1.64950158388541E+018,71,1.64950158388541E+018,r1000913c5/base_footprint,0,1.64950158388541E+018,v/m1vw10zy74w/map,-10.0958999311,-0.813854031658,0,0,0,-0.719885699887,0.694092630056,0,63.2442779541,19.5445919037,86.3469390869,95.8698730469,43.4562187195,43.4562187195,63.2442779541,63.2442779541,36.0616760254,0.567886054516,0,0.000193014304386,0.150886818767,0.00202065426856,0.00221366854385,5.27577590942,0.212558329105,-0.963691711426,-0.0101541513577,5.33212280273,0.109290920198,-3.73028182983,-0.115376457572,24.82036781312,94.906181335474,48.78834152223,32.33139419557,1215
1.64950158398569E+018,72,1.64950158398569E+018,r1000913c5/base_footprint,0,1.6495015839857E+018,v/m1vw10zy74w/map,-10.0949399288,-0.81345354795,0,0,0,-0.719883392484,0.694095023196,0,63.383644104,19.7506809235,87.4381332397,95.9869995117,43.3443717957,43.3443717957,63.383644104,63.383644104,32.7668037415,0.440071642399,0,0.000625060871243,0.150693774223,0.000770434678998,0.000145373836858,5.06968688965,0.204255104065,-1.08081817627,-0.0113882804289,5.44396972656,0.111583411694,-0.435409545898,-0.0134670818225,24.82036781315,94.90618133543,48.78834152226,32.331394195602,1215
1.64950158408569E+018,73,1.64950158408569E+018,r1000913c5/base_footprint,0,1.6495015840857E+018,v/m1vw10zy74w/map,-10.0959186463,-0.709225192655,0,0,0,-0.720198348216,0.693768217222,0,63.4010543823,22.0880413055,87.1102218628,95.963508606,43.4218559265,43.4218559265,63.4010543823,63.4010543823,33.205696106,0.470860123634,0,0.000906326458789,0.151773273945,0.0022074887529,0.00130116241053,2.57497787476,0.104406431317,-1.07867431641,-0.0113682476804,5.46965789795,0.111873358488,-0.678108215332,-0.020847171545,24.66301918026,94.88483428959,48.89151382445,32.527587890668,1199
1.64950158418574E+018,74,1.64950158418574E+018,r1000913c5/base_footprint,0,1.64950158418574E+018,v/m1vw10zy74w/map,-10.0959186463,-0.709225192655,0,0,0,-0.720198348216,0.693768217222,0,63.5695037842,25.779706955,87.0029144287,95.963508606,43.5588645935,43.5588645935,63.5695037842,63.5695037842,31.6532669067,0.469278931618,0,0.000952651724219,0.153035581112,0.00244532572106,0.00149267411325,-1.11668777466,-0.0452778227627,-1.07867431641,-0.0113682476804,5.33264923096,0.109071061015,0.874320983887,0.0268793664873,24.66301918034,94.88483428959,48.89151382446,32.527587890587,1199
1.64950158428558E+018,75,1.64950158428558E+018,r1000913c5/base_footprint,0,1.64950158428558E+018,v/m1vw10zy74w/map,-10.0941816131,-0.592193178113,0,0,0,-0.720763133186,0.693181437893,0,63.7631607056,25.6965942383,87.9375,96.1477584839,43.673374176,43.673374176,63.7631607056,63.7631607056,30.0674781799,0.4303586483,0,0.000827836454846,0.152935415506,0.00194150407333,0.00111366761848,-1.36175346375,-0.0559590049088,-1.3087310791,-0.013799498789,5.26205825806,0.107530638576,2.65467834473,0.0811278522015,24.33484077455,94.8390274048,48.93543243406,32.72215652463,1120
1.64950158438523E+018,76,1.64950158438523E+018,r1000913c5/base_footprint,0,1.64950158438523E+018,v/m1vw10zy74w/map,-10.0941816131,-0.592193178113,0,0,0,-0.720763133186,0.693181437893,0,63.9867286682,25.490196228,88.8988723755,96.1477584839,43.7607040405,43.7607040405,63.9867286682,63.9867286682,26.9863815308,0.31575486064,0,0.000743901997339,0.15269626677,0.00119113130495,0.000447229307611,-1.15535545349,-0.0474774204195,-1.3087310791,-0.013799498789,5.17472839355,0.105746045709,5.7357749939,0.175287187099,24.33484077451,94.8390274048,48.93543243405,32.7221565247,1120
1.64950158518537E+018,77,1.64950158518537E+018,r1000913c5/base_footprint,0,1.64950158518537E+018,v/m1vw10zy74w/map,-10.0925845535,-0.493909472461,0,0,0,-0.719159640295,0.694844883245,0,63.9091720581,21.0314254761,89.4647293091,96.2191543579,43.8407974243,43.8407974243,63.9091720581,63.9091720581,29.5044651031,0.188041523099,0,0.000796664971858,0.211362138391,0.0321403965354,0.0329370610416,3.46187591553,0.141339704394,-1.35754394531,-0.0143107837066,5.13283157349,0.104808069766,3.18054008484,0.0973088443279,24.49330139163,94.86161041259,48.97362899779,32.68500518794,1025
1.64950158528534E+018,78,1.64950158528534E+018,r1000913c5/base_footprint,0,1.64950158528534E+018,v/m1vw10zy74w/map,-10.0925845535,-0.493909472461,0,0,0,-0.719159640295,0.694844883245,0,64.0962905884,15.2941179276,90.5989379883,96.2191543579,43.7300491333,43.7300491333,64.0962905884,64.0962905884,24.9402103424,-0.146726667881,0,2.09797453863E-05,0.211006402969,0.0461349263787,0.0461559072137,9.19918346405,0.375579565763,-1.35754394531,-0.0143107837066,5.2435798645,0.107069455087,7.74479484558,0.236952528358,24.49330139165,94.86161041259,48.9736289978,32.68500518798,1025
1.64950158538525E+018,79,1.64950158538525E+018,r1000913c5/base_footprint,0,1.64950158538525E+018,v/m1vw10zy74w/map,-10.0925845535,-0.493909472461,0,0,0,-0.719159640295,0.694844883245,0,64.232208252,16.862745285,91.9136810303,96.2191543579,43.5523796082,43.5523796082,64.232208252,64.232208252,20.574962616,0.12811909616,0,0.000164812867297,0.210333004594,0.0471663437784,0.047001529485,7.63055610657,0.311536461115,-1.35754394531,-0.0143107837066,5.42124938965,0.110697321594,12.110042572,0.370507597923,24.49330139157,94.86161041259,48.97362899785,32.685005188,1025
1.64950158548525E+018,80,1.64950158548525E+018,r1000913c5/base_footprint,0,1.64950158548525E+018,v/m1vw10zy74w/map,-10.0925845535,-0.493909472461,0,0,0,-0.719159640295,0.694844883245,0,63.7829322815,14.086687088,93.4652099609,96.2191543579,43.4017448425,43.4017448425,63.7829322815,63.7829322815,27.0350456238,0.121197231114,0,0.00050030235434,0.208514750004,0.0525850951672,0.0520847924054,10.4066143036,0.424875944853,-1.35754394531,-0.0143107837066,5.57188415527,0.113773152232,5.64995956421,0.172860905528,24.4933013916,94.86161041259,48.97362899777,32.68500518801,1025
1.64950158558553E+018,81,1.64950158558553E+018,r1000913c5/base_footprint,0,1.64950158558553E+018,v/m1vw10zy74w/map,-10.0925845535,-0.493909472461,0,0,0,-0.719159640295,0.694844883245,0,63.7078170776,17.2675514221,93.1588897705,96.2191543579,43.209312439,43.209312439,63.7078170776,63.7078170776,26.3088226318,0.131102845073,0,0.000582889013458,0.207893744111,0.0549955591559,0.0544126667082,7.22574996948,0.295009225607,-1.35754394531,-0.0143107837066,5.76431655884,0.117702461779,6.37618255615,0.195079743862,24.49330139158,94.86161041259,48.97362899784,32.68500518795,1025
1.64950158568579E+018,82,1.64950158568579E+018,r1000913c5/base_footprint,0,1.64950158568579E+018,v/m1vw10zy74w/map,-10.0925845535,-0.493909472461,0,0,0,-0.719159640295,0.694844883245,0,63.863155365,14.8606815338,92.9541473389,96.2191543579,43.103515625,43.103515625,63.863155365,63.863155365,22.3701248169,0.113663248718,0,0.000719420379028,0.206198751926,0.0611324422061,0.0604130215943,9.63261985779,0.393275678158,-1.35754394531,-0.0143107837066,5.8701133728,0.119862742722,10.3148803711,0.315584480762,24.49330139159,94.86161041259,48.9736289978,32.685005188,1025
1.64950158578606E+018,83,1.64950158578606E+018,r1000913c5/base_footprint,0,1.64950158578606E+018,v/m1vw10zy74w/map,-10.0914339437,-0.498619152837,0,0,0,-0.679438837345,0.733732148885,0,63.5189285278,13.8792772293,92.8670806885,96.485496521,43.0225753784,43.0225753784,63.5189285278,63.5189285278,28.6508483887,0.190077885985,0,0.00138355605304,0.202708125114,0.0839127749205,0.0825292170048,10.6140241623,0.433343946934,-1.6238861084,-0.0171184744686,5.95105361938,0.121515475214,4.03415679932,0.12342530489,24.4933013916,94.8616104126,48.97362899778,32.68500518802,1025
1.64950158588528E+018,84,1.64950158588528E+018,r1000913c5/base_footprint,0,1.64950158588528E+018,v/m1vw10zy74w/map,-10.0871883431,-0.548627816394,0,0,0,-0.641388444847,0.767216307711,0,63.6526412964,11.1803665161,93.1463012695,96.4669876099,42.7812423706,42.7812423706,63.6526412964,63.6526412964,23.571023941,0.0946005582809,0,0.00158001575619,0.198017060757,0.108501240611,0.106921225786,13.2025623322,0.541467428207,-1.6095123291,-0.0169676914811,6.16848754883,0.126016780734,9.1853427887,0.28041395545,24.3829288483,94.8574752808,48.94972991943,32.7563667297,1075
1.64950158598528E+018,85,1.64950158598528E+018,r1000913c5/base_footprint,0,1.64950158598528E+018,v/m1vw10zy74w/map,-10.0743937818,-0.59583070823,0,0,0,-0.596980101365,0.802256043028,0,63.2127799988,11.372549057,92.4943084717,96.310585022,42.5697860718,42.5697860718,63.2127799988,63.2127799988,28.6417579651,0.0780275762081,0,0.00400726310909,0.184912994504,0.132484540343,0.128477275372,12.8381061554,0.53026676178,-1.45620727539,-0.0153520302847,6.40725326538,0.130821570754,4.19622421265,0.127785682678,24.2106552124,94.85437774661,48.97703933718,32.83798217775,1115
1.64950158608524E+018,86,1.64950158608524E+018,r1000913c5/base_footprint,0,1.64950158608524E+018,v/m1vw10zy74w/map,-10.0568562291,-0.637675502412,0,0,0,-0.545167142431,0.838327374486,0,62.2635726929,5.88235282898,91.5730438232,96.029800415,42.409236908,42.409236908,62.2635726929,62.2635726929,42.9826889038,-0.0313683822751,0,0.00487562920898,0.148324623704,0.0923815220594,0.0875058919191,18.4573841095,0.758323073387,-1.16658782959,-0.0122975790873,6.58612442017,0.134423434734,-10.2022361755,-0.311229258776,24.33973693848,94.86321258541,48.99536132817,32.7804527283,1158
1.64950158618517E+018,87,1.64950158618517E+018,r1000913c5/base_footprint,0,1.64950158618517E+018,v/m1vw10zy74w/map,-10.0386540743,-0.665785722453,0,0,0,-0.489906013388,0.871775256615,0,62.5748062134,5.37084388733,89.3480911255,96.1292572021,42.2030944824,42.2030944824,62.5748062134,62.5748062134,35.5121879578,0.0902763828635,0,0.00381924561225,0.0977973118424,0.0227662436664,0.0189469978213,19.0137290955,0.779744207859,-1.27663421631,-0.0134591348469,6.76804733276,0.138204813004,-2.80531692505,-0.0857714861631,24.38457298283,94.85262298579,48.97114181516,32.70687103275,1184
1.64950158628525E+018,88,1.64950158628525E+018,r1000913c5/base_footprint,0,1.64950158628525E+018,v/m1vw10zy74w/map,-10.029325897,-0.669294413439,0,0,0,-0.439031715186,0.898471564971,0,62.9149093628,2.52100849152,82.1806640625,95.759262085,42.1663589478,42.1663589478,62.9149093628,62.9149093628,27.6616477966,0.153000801802,0,0.00106244743802,0.0836714729667,0.0257304087281,0.0246679615229,21.5199699402,0.895137071609,-0.890579223633,-0.00938749406487,6.77460479736,0.138424023986,5.27961730957,0.16027367115,24.04097843172,94.868682861367,48.94096374516,32.94126510617,1186
1.64950158638546E+018,89,1.64950158638546E+018,r1000913c5/base_footprint,0,1.64950158638546E+018,v/m1vw10zy74w/map,-10.0274597537,-0.67514115383,0,0,0,-0.388744315272,0.921345677443,0,62.5773735046,1.96078431606,75.3324813843,95.030380249,42.0050239563,42.0050239563,62.5773735046,62.5773735046,29.3709259033,0.15847016871,0,0.00116812996566,0.0774231478572,0.0463487543166,0.0451806224883,22.0801925659,0.918439865112,-0.161697387695,-0.00170443381649,6.93593978882,0.141720533371,3.57033920288,0.108385004103,24.04097688196,94.868682861305,48.94096374512,32.94126510618,1186
1.64950158648634E+018,90,1.64950158648634E+018,r1000913c5/base_footprint,0,1.64950158648634E+018,v/m1vw10zy74w/map,-10.0274597537,-0.67514115383,0,0,0,-0.388744315272,0.921345677443,0,62.4806632996,3.6658141613,68.8642883301,95.030380249,41.9610443115,41.9610443115,62.4806632996,62.4806632996,30.6366710663,0.0689850524068,0,0.00220375647768,0.0736607760191,0.0427189916372,0.0405152365565,20.375164032,0.847518146038,-0.161697387695,-0.00170443381649,6.97991943359,0.142619162798,2.30459403992,0.069960705936,24.0409781933,94.868682861305,48.94096374509,32.94126510622,1186
1.64950158678526E+018,91,1.64950158678526E+018,r1000913c5/base_footprint,0,1.64950158678526E+018,v/m1vw10zy74w/map,-10.0198842624,-0.667753481244,0,0,0,-0.284999688125,0.958527609289,0,62.5018157959,5.01089334488,62.8829498291,94.908454895,41.9782714844,41.9782714844,62.5018157959,62.5018157959,30.0030975342,0.135511189699,0,0.000689395936206,0.0114820776507,0.0671781301498,0.0664887279272,19.03008461,0.791568696499,-0.0397720336914,-0.000419232499553,6.96269226074,0.142267167568,2.93816757202,0.0891941338778,24.04097795488,94.8686828613086,48.94096374514,32.94126510622,1186
1.64950158688538E+018,92,1.64950158688538E+018,r1000913c5/base_footprint,0,1.64950158688538E+018,v/m1vw10zy74w/map,-10.0198842624,-0.667753481244,0,0,0,-0.284999688125,0.958527609289,0,62.5514411926,16.0899658203,52.5904045105,94.908454895,42.6723556519,42.6723556519,62.5514411926,62.5514411926,36.6059188843,-0.0832850858569,0,0.00090747262584,0.00938336923718,0.0586280077696,0.0595354810357,7.95101165771,0.330727458,-0.0397720336914,-0.000419232499553,6.26860809326,0.12808509171,-3.66465377808,-0.111248120666,24.04097747801,94.8686828613086,48.94096374516,32.94126510622,1186
1.64950158698508E+018,93,1.64950158698508E+018,r1000913c5/base_footprint,0,1.64950158698508E+018,v/m1vw10zy74w/map,-9.97897726924,-0.687591864585,0,0,0,-0.231230449942,0.972899007616,0,63.6458816528,14.1972579956,44.9472808838,94.8094482422,43.0682792664,43.0682792664,63.6458816528,63.6458816528,20.8255825043,-0.0230129808187,0,0.00151805847418,0.00522430567071,0.0621775276959,0.0636955872178,9.71152877808,0.406190782785,0.0558929443359,0.000589181901887,5.82985687256,0.119224518538,12.1413516998,0.368288785219,23.90878677368,94.8653411865359,48.89813613896,32.9669342041,1181
1.64950158708519E+018,94,1.64950158708519E+018,r1000913c5/base_footprint,0,1.64950158708519E+018,v/m1vw10zy74w/map,-9.97897726924,-0.687591864585,0,0,0,-0.231230449942,0.972899007616,0,64.0161056519,16.8509502411,44.2287712097,94.8094482422,43.6456604004,43.6456604004,64.0161056519,64.0161056519,20.3972072601,0.0251302253455,0,0.00171974219847,0.0010440609185,0.0659236609936,0.067643404007,7.05783653259,0.295198440552,0.0558929443359,0.000589181901887,5.25247573853,0.107416689396,12.569726944,0.381282866001,23.90878677369,94.8653411865359,48.89813613893,32.9669342041,1181
1.64950158718596E+018,95,1.64950158718596E+018,r1000913c5/base_footprint,0,1.64950158718596E+018,v/m1vw10zy74w/map,-9.93184639503,-0.707085325545,0,0,0,-0.174514562781,0.98465459293,0,63.7165489197,16.2210330963,43.6766929626,94.5249404907,44.102306366,44.102306366,63.7165489197,63.7165489197,29.6967754364,-0.134772464633,0,0.00182972114999,0.00175741314888,0.0677222758532,0.0695519968867,7.46906089783,0.315282016993,0.354583740234,0.00373719981872,4.86414718628,0.0993363186717,3.41869544983,0.103235594928,23.69009399413,94.879524230934,48.96645355228,33.11547088623,1191
1.64950158728632E+018,96,1.64950158728632E+018,r1000913c5/base_footprint,0,1.64950158728632E+018,v/m1vw10zy74w/map,-9.93184639503,-0.707085325545,0,0,0,-0.174514562781,0.98465459293,0,64.0527496338,17.1122989655,43.2622756958,94.5249404907,44.4049568176,44.4049568176,64.0527496338,64.0527496338,26.9138374329,0.0554296523333,0,0.00289189745672,0.00447226548567,0.104898862541,0.107790760696,6.57779502869,0.277660161257,0.354583740234,0.00373719981872,4.56149673462,0.0931555479765,6.20163345337,0.18727299571,23.69009399419,94.879524230934,48.96645355222,33.11547088627,1191
1.64950158738606E+018,97,1.64950158738606E+018,r1000913c5/base_footprint,0,1.64950158738606E+018,v/m1vw10zy74w/map,-9.86470392954,-0.722060175868,0,0,0,-0.121604280772,0.992578661315,0,64.0255126953,18.1985301971,42.9971046448,94.7309417725,44.7394599915,44.7394599915,64.0255126953,64.0255126953,31.7583084106,0.435611188412,0,0.00240772939287,0.000560884189326,0.139115080237,0.141522809863,5.36750221252,0.227764353156,0.165870666504,0.00174790550955,4.2564125061,0.0868728756905,1.31338119507,0.0397131554782,23.56603240962,94.896812439004,48.9958724976,33.07168960567,1207
1.64950158748523E+018,98,1.64950158748523E+018,r1000913c5/base_footprint,0,1.64950158748523E+018,v/m1vw10zy74w/map,-9.7770692987,-0.737110513277,0,0,0,-0.071725614914,0.997424401228,0,64.3433456421,17.3776378632,43.1970596313,94.4074325562,45.0838356018,45.0838356018,64.3433456421,64.3433456421,28.5919780731,0.175519272685,0,0.00103684468195,0.010816254653,0.17880704999,0.179843902588,5.5961971283,0.243590027094,0.437355041504,0.00461127143353,3.92094039917,0.0800113901496,4.86847114563,0.145499274135,22.9738349915,94.844787597704,49.00477600097,33.46044921873,1183
1.64950158758522E+018,99,1.64950158758522E+018,r1000913c5/base_footprint,0,1.64950158758522E+018,v/m1vw10zy74w/map,-9.65781850064,-0.688371362194,0,0,0,-0.0391741986477,0.999232396473,0,64.7434539795,22.4598922729,43.4333076477,94.7489395142,45.6307525635,45.6307525635,64.7434539795,64.7434539795,28.5261058807,0.291451632977,0,0.000551922479644,0.0182178542018,0.203666672111,0.203114748001,-0.114154815674,-0.00510857254267,-0.0506896972656,-0.000535275961738,3.59991836548,0.0731234848499,5.40242576599,0.159229576588,22.345737457226,94.6982498169344,49.23067092898,33.92853164669,1023
1.64950158768522E+018,100,1.64950158768522E+018,r1000913c5/base_footprint,0,1.64950158768522E+018,v/m1vw10zy74w/map,-9.54826487016,-0.692465014165,0,0,0,-0.0169144396193,0.999856940633,0,64.3932723999,17.2794113159,43.6889724731,94.3853149414,46.0848655701,46.0848655701,64.3932723999,64.3932723999,38.424785614,0.151759192348,0,0.00191629095934,0.0263840127736,0.263907939196,0.261991649866,4.00560951233,0.188189134002,0.134567260742,0.00142369267996,3.43947982788,0.0694502815604,-3.68449401855,-0.106058232486,21.28502082823,94.519882202142,49.52434539798,34.74029159545,885
1.64950158778534E+018,101,1.64950158778534E+018,r1000913c5/base_footprint,0,1.64950158778534E+018,v/m1vw10zy74w/map,-9.4314902399,-0.693688415856,0,0,0,-0.0124232615874,0.999922828308,0,64.612449646,20.3334884644,44.0132484436,94.595123291,46.3811035156,46.3811035156,64.612449646,64.612449646,38.4342308044,0.103151515126,0,0.00324198696762,0.031028740108,0.297679156065,0.294437140226,0.021427154541,0.00105267716572,-0.153755187988,-0.00162804918364,3.19291305542,0.0644069910049,-3.5034942627,-0.100298322737,20.354915618941,94.441368103012,49.57401657102,34.9307365417,804
