%time,field.header.seq,field.header.stamp,field.header.frame_id,field.pose.header.seq,field.pose.header.stamp,field.pose.header.frame_id,field.pose.pose.position.x,field.pose.pose.position.y,field.pose.pose.position.z,field.pose.pose.orientation.x,field.pose.pose.orientation.y,field.pose.pose.orientation.z,field.pose.pose.orientation.w,field.label,field.main_output,field.scan_score,field.pose_score,field.cov_score,field.lhood_map_score,field.lhood_robot_score,field.lhood_map_score_all,field.lhood_robot_score_all,field.point_angle_diff,field.average_orientation,field.map_average_orientation,field.sensor_div,field.odom_div_x,field.odom_div_w,field.imu_div_w,field.kdtree_div,field.kdtree_div_p,field.cov_div,field.cov_div_p,field.likelihood_div,field.likelihood_div_p,field.normal_diff_div,field.normal_diff_div_p,field.kdtree_average,field.cov_average,field.likelihood_average,field.normal_diff_average,field.map_update_count
1.64952097037468E+018,0,1.64952097037468E+018,r1000913c5/base_footprint,0,1.64952097037468E+018,v/m1vw10zy74w/map,-13.5054609228,-0.672958169369,0,0,0,0.999992053582,0.00398657409761,0,62.1427650452,1.21239340305,100,90.4429855347,43.6106872559,43.6106872559,62.1427650452,62.1427650452,38.0203933716,0.0113240899518,0,0.000858128652908,0.794166922569,0.0366471409798,0.0357890129089,26.4907150269,0.956236243248,3.97644805908,0.0421147197485,5.45928955078,0.111255191267,-7.69966316223,-0.253940552473,27.70310842995,94.41943359378,49.06997680668,30.32073020937,840
1.64952097047439E+018,1,1.64952097047439E+018,r1000913c5/base_footprint,0,1.64952097047439E+018,v/m1vw10zy74w/map,-13.6680415643,-0.658933099338,0,0,0,0.999935199878,0.011384025896,0,62.2047615051,21.5686283112,46.5124969482,90.5904312134,44.1891517639,44.1891517639,62.2047615051,62.2047615051,43.6826477051,0.557492136955,0,0.00171486230101,0.921702325344,0.0446301326156,0.0429152697325,2.94057273865,0.119978316128,3.45259094238,0.0367128886282,6.25959014893,0.124078221619,-9.93395614624,-0.294350862503,24.50920104985,94.04302215578,50.44874191283,33.74869155886,359
1.6495209705744E+018,2,1.6495209705744E+018,r1000913c5/base_footprint,0,1.6495209705744E+018,v/m1vw10zy74w/map,-13.8436617242,-0.642694304173,0,0,0,0.999864609237,0.0164548836289,0,62.7826766968,21.2598419189,47.378276825,91.0344314575,44.84425354,44.84425354,62.7826766968,62.7826766968,41.9536628723,0.4927521348,0,0.00349184055813,1.00324702263,0.0608686283231,0.0573767870665,2.13431930542,0.0912329927087,3.04368591309,0.0323527492583,5.78204727173,0.114210344851,-7.45751571655,-0.216184020042,23.39416122432,94.07811737059,50.62630081173,34.49614715575,359
1.64952097067429E+018,3,1.64952097067429E+018,r1000913c5/base_footprint,0,1.64952097067429E+018,v/m1vw10zy74w/map,-14.0042988025,-0.643675190653,0,0,0,0.999825570074,0.018676975805,0,63.3681526184,17.9206562042,47.9603538513,91.6884765625,45.5202941895,45.5202941895,63.3681526184,63.3681526184,41.0709190369,0.478487461805,0,0.00567393144593,1.08557963371,0.0919519066811,0.0862779766321,8.74168968201,0.327866494656,2.43604278564,0.0258810650557,4.74056243896,0.0943191722035,-9.46573829651,-0.299499571323,26.66234588621,94.12451934814,50.26085662846,31.60518074039,506
1.64952097077433E+018,4,1.64952097077433E+018,r1000913c5/base_footprint,0,1.64952097077433E+018,v/m1vw10zy74w/map,-14.1379986604,-0.639875897507,0,0,0,0.999712222825,0.0239889877597,0,64.0407791138,36,48.193145752,91.8973693848,46.2882652283,46.2882652283,64.0407791138,64.0407791138,38.0097236633,0.259101718664,0,0.00651178369299,1.10370004177,0.113742746413,0.107230961323,-6.91586303711,-0.237788140774,2.30031585693,0.0244200881571,4.21031188965,0.0833748653531,-9.7646446228,-0.345711350441,29.08413696289,94.19768524173,50.49857711795,28.2450790405,783
1.64952097087445E+018,5,1.64952097087445E+018,r1000913c5/base_footprint,0,1.64952097087445E+018,v/m1vw10zy74w/map,-14.2502275036,-0.632720566874,0,0,0,0.999951686217,0.00982981340673,0,65.4045715332,55.0454330444,48.0998077393,92.3817825317,47.201713562,47.201713562,65.4045715332,65.4045715332,25.0706157684,0.313713520765,0,0.00356712308712,1.09836471081,0.140541151166,0.136974036694,-25.539100647,-0.865546405315,1.83000183105,0.019424341619,3.37312698364,0.0666957497597,2.85928726196,0.102373689413,29.5063323974,94.21178436275,50.57484054564,27.92990303036,805
1.64952097097502E+018,6,1.64952097097502E+018,r1000913c5/base_footprint,0,1.64952097097502E+018,v/m1vw10zy74w/map,-14.2502275036,-0.632720566874,0,0,0,0.999951686217,0.00982981340673,0,65.7501602173,42.4836616516,48.2186775208,92.3817825317,47.709690094,47.709690094,65.7501602173,65.7501602173,24.3362216949,0.357068479061,0,0.00470478693023,1.09221303463,0.144495025277,0.139790251851,-12.9773292542,-0.439815044403,1.83000183105,0.019424341619,2.86515045166,0.0566516965628,3.59368133545,0.128667876124,29.5063323974,94.21178436275,50.57484054566,27.92990303035,805
1.64952097107473E+018,7,1.64952097107473E+018,r1000913c5/base_footprint,0,1.64952097107473E+018,v/m1vw10zy74w/map,-14.3416197778,-0.634629067774,0,0,0,-0.999049396151,0.0435924769971,0,66.2101898193,39.8496246338,48.3412094116,92.325012207,48.1800765991,48.1800765991,66.2101898193,66.2101898193,20.9314231873,0.0429258309305,0,0.00669452641159,1.07248270512,0.144497305155,0.137802779675,-9.78844642639,-0.325617522001,1.90559387207,0.0202226638794,2.45487213135,0.0484817735851,6.76406860352,0.244229957461,30.06117820741,94.23060607907,50.63494873045,27.69549179082,801
1.64952097117506E+018,8,1.64952097117506E+018,r1000913c5/base_footprint,0,1.64952097117506E+018,v/m1vw10zy74w/map,-14.4007319959,-0.646333205319,0,0,0,-0.995485571185,0.0949129999665,0,66.3550338745,32.773109436,48.2165718079,92.5711975098,48.3731803894,48.3731803894,66.3550338745,66.3550338745,21.2960395813,0.184671148658,0,0.0072808410041,1.06584632397,0.143720313907,0.136439472437,-2.37909698486,-0.0782751888037,1.67182922363,0.0177395530045,2.34102249146,0.0461610816419,6.36219787598,0.230029046535,30.39401245114,94.24302673343,50.71420288086,27.65823745728,808
1.6495209712745E+018,9,1.6495209712745E+018,r1000913c5/base_footprint,0,1.6495209712745E+018,v/m1vw10zy74w/map,-14.4581667895,-0.617896356608,0,0,0,-0.987687882413,0.156437357858,0,66.3653259277,34.8565864563,48.1724700928,92.8231887817,48.5201568604,48.5201568604,66.3653259277,66.3653259277,23.6053447723,0.212886467576,0,0.00726537872106,1.08050704002,0.119371525943,0.112106151879,-4.26049613953,-0.139249697328,1.42803192139,0.0151513358578,2.22644042969,0.0438736900687,3.91829490662,0.142361074686,30.59609031677,94.25122070309,50.74659729009,27.52363967892,805
1.64952097137438E+018,10,1.64952097137438E+018,r1000913c5/base_footprint,0,1.64952097137438E+018,v/m1vw10zy74w/map,-14.4889106685,-0.63254495374,0,0,0,-0.978426339931,0.206595976074,0,66.5584945679,32.3760986328,47.7157669067,92.9964675903,48.6429443359,48.6429443359,66.5584945679,66.5584945679,22.0782260895,0.238062098622,0,0.0150018138811,1.10077059269,0.064275406301,0.0492735914886,-1.65390586853,-0.0538342408836,1.24838256836,0.0132461618632,2.1063041687,0.0415041446686,5.42098617554,0.19713242352,30.72219276427,94.24485015866,50.7492485046,27.49921226504,800
1.64952097147444E+018,11,1.64952097147444E+018,r1000913c5/base_footprint,0,1.64952097147444E+018,v/m1vw10zy74w/map,-14.4984020604,-0.637738211473,0,0,0,-0.958777182313,0.284158960226,0,66.3022384644,36.507938385,47.1929931641,93.2067108154,48.7207145691,48.7207145691,66.3022384644,66.3022384644,28.287569046,0.152109563351,0,0.0119645735249,1.08692896366,0.0541421547532,0.0421775840223,-5.78574562073,-0.18832463026,1.03813934326,0.0110153425485,2.02853393555,0.0399717055261,-0.788356781006,-0.0286683402956,30.72219276427,94.24485015866,50.74924850465,27.499212264994,800
1.64952097167456E+018,12,1.64952097167456E+018,r1000913c5/base_footprint,0,1.64952097167456E+018,v/m1vw10zy74w/map,-14.4966087092,-0.638833700211,0,0,0,-0.959562381059,0.281496068991,0,66.681892395,27.0405845642,46.0672645569,93.7540664673,48.697479248,48.697479248,66.681892395,66.681892395,23.1732959747,0.163722679019,0,0.0116180395707,1.08198273182,0.0517260804772,0.0401080437005,3.68160820007,0.119835466146,0.490783691406,0.00520753860474,2.05176925659,0.0404295511544,4.32591629028,0.157310560346,30.72219276427,94.244850158706,50.74924850459,27.49921226498,800
1.64952097187568E+018,13,1.64952097187568E+018,r1000913c5/base_footprint,0,1.64952097187568E+018,v/m1vw10zy74w/map,-14.4966087092,-0.638833700211,0,0,0,-0.959562381059,0.281496068991,0,66.4029998779,33.424533844,45.2707023621,93.7540664673,48.8385848999,48.8385848999,66.4029998779,66.4029998779,29.717420578,0.0670956224203,0,0.0105694737285,1.07126450539,0.0452902987599,0.034720826894,-2.70234107971,-0.0879605561495,0.490783691406,0.00520753860474,1.91066360474,0.037649102509,-2.21820831299,-0.0806644335389,30.72219276429,94.244850158706,50.74924850464,27.49921226501,800
1.64952097197419E+018,14,1.64952097197419E+018,r1000913c5/base_footprint,0,1.64952097197419E+018,v/m1vw10zy74w/map,-14.4966087092,-0.638833700211,0,0,0,-0.959562381059,0.281496068991,0,66.6251068115,30.3529415131,44.5189285278,93.7540664673,48.9683265686,48.9683265686,66.6251068115,66.6251068115,27.120634079,0.16948094964,0,0.0100007932633,1.06521558762,0.0426308438182,0.0326300524175,0.369251251221,0.0120190391317,0.490783691406,0.00520753860474,1.78092193604,0.0350925773382,0.378578186035,0.0137668736279,30.722192764321,94.244850158706,50.74924850464,27.499212265035,800
1.64952097218395E+018,15,1.64952097218395E+018,r1000913c5/base_footprint,0,1.64952097218395E+018,v/m1vw10zy74w/map,-14.4951492814,-0.640137463013,0,0,0,-0.942051487857,0.33546832075,0,66.5764007568,29.7912712097,43.8771247864,93.7456130981,49.1553649902,49.1553649902,66.5764007568,66.5764007568,29.9869537354,0.0923908129334,0,0.00988161657006,1.05888426304,0.040248926729,0.0303673092276,0.930921554565,0.0303012728691,0.499237060547,0.0052972342819,1.5938835144,0.0314070358872,-2.48774147034,-0.0904659181833,30.722192764265,94.244850158647,50.7492485046,27.49921226506,800
1.64952097227442E+018,16,1.64952097227442E+018,r1000913c5/base_footprint,0,1.64952097227442E+018,v/m1vw10zy74w/map,-14.4986893513,-0.64429380383,0,0,0,-0.939360282687,0.342931858114,0,66.6012878418,36.432636261,43.4198226929,94.1930389404,49.2632141113,49.2632141113,66.6012878418,66.6012878418,32.3144378662,0.0673465281725,0,0.00971109606326,1.03996002674,0.0334618166089,0.0237507205456,-5.7104434967,-0.185873568058,0.0518112182617,0.000549751159269,1.48603439331,0.029281899333,-4.8152256012,-0.175104126334,30.7221927643,94.2448501586617,50.74924850461,27.499212265,800
1.64952097237437E+018,17,1.64952097237437E+018,r1000913c5/base_footprint,0,1.64952097237437E+018,v/m1vw10zy74w/map,-14.4962854281,-0.645582357051,0,0,0,-0.920014056728,0.391885360051,0,66.8419036865,30.9056949615,43.0000648499,94.1389770508,49.3575286865,49.3575286865,66.8419036865,66.8419036865,28.8073692322,0.129470422864,0,0.00990583002567,1.0157097578,0.0293355006725,0.0194296687841,-0.183502197266,-0.00597295258194,0.10587310791,0.00112338352483,1.39171981812,0.0274234563112,-1.30815696716,-0.0475707054138,30.722192764234,94.24485015871,50.74924850462,27.49921226504,800
1.6495209724742E+018,18,1.6495209724742E+018,r1000913c5/base_footprint,0,1.6495209724742E+018,v/m1vw10zy74w/map,-14.4881600333,-0.646522929133,0,0,0,-0.89628093496,0.443486736698,0,67.1894607544,31.1334285736,42.6845054626,94.1843185425,49.5477905273,49.5477905273,67.1894607544,67.1894607544,24.7694320679,0.139484867454,0,0.0108006717637,0.984959065914,0.012671799399,0.0018711281009,-0.411235809326,-0.0133856264874,0.0605316162109,0.000642280385364,1.20145797729,0.0236743986607,2.72978019714,0.0992675796151,30.722192764274,94.2448501587109,50.74924850459,27.49921226504,800
1.64952097257439E+018,19,1.64952097257439E+018,r1000913c5/base_footprint,0,1.64952097257439E+018,v/m1vw10zy74w/map,-14.4881600333,-0.646522929133,0,0,0,-0.89628093496,0.443486736698,0,67.1388626099,38.7048950195,42.371925354,94.1843185425,49.5955352783,49.5955352783,67.1388626099,67.1388626099,26.1958522797,0.214909374714,0,0.00911181326956,0.959329426289,0.000590852170717,0.00852096173912,-7.98270225525,-0.259835034609,0.0605316162109,0.000642280385364,1.15371322632,0.0227336026728,1.30335998535,0.0473962649703,30.72219276425,94.2448501587109,50.74924850462,27.49921226505,800
1.64952097267518E+018,20,1.64952097267518E+018,r1000913c5/base_footprint,0,1.64952097267518E+018,v/m1vw10zy74w/map,-14.4831984598,-0.653138395824,0,0,0,-0.868032823196,0.496506815516,0,67.2313842773,39.6419448853,42.3798484802,94.2660903931,49.7507629395,49.7507629395,67.2313842773,67.2313842773,26.5012302399,0.178167805076,0,0.00920945592225,0.945849835873,0.00362881226465,0.0128382677212,-9.04585456848,-0.295653939247,-0.0148696899414,-0.000157766553457,0.995834350586,0.0196236670017,1.02240943909,0.0371465943754,30.59609031682,94.2512207031586,50.746597290086,27.52363967899,805
1.6495209728747E+018,21,1.6495209728747E+018,r1000913c5/base_footprint,0,1.6495209728747E+018,v/m1vw10zy74w/map,-14.4831984598,-0.653138395824,0,0,0,-0.868032823196,0.496506815516,0,67.5390777588,39.6147842407,42.2272071838,94.2660903931,49.9022369385,49.9022369385,67.5390777588,67.5390777588,22.5986595154,0.17822419107,0,0.00921092461795,0.918773531914,0.0152102867141,0.0244212113321,-9.01869392395,-0.29476621747,-0.0148696899414,-0.000157766553457,0.844360351562,0.016638757661,4.92498016357,0.178936362267,30.59609031675,94.2512207031586,50.746597290062,27.52363967897,805
1.64952097297451E+018,22,1.64952097297451E+018,r1000913c5/base_footprint,0,1.64952097297451E+018,v/m1vw10zy74w/map,-14.4781071231,-0.649301131882,0,0,0,-0.841240860349,0.540660535715,0,67.4116210938,37.0485038757,42.2393722534,94.142616272,49.9655189514,49.9655189514,67.4116210938,67.4116210938,25.1319217682,0.201199650764,0,0.00810455344617,0.905428528786,0.0197118856013,0.0278164390475,-6.45241355896,-0.210890129209,0.108604431152,0.00115228677168,0.781078338623,0.015391738154,2.39171791077,0.0868968591094,30.59609031674,94.251220703152,50.746597290023,27.52363967897,805
1.64952097307613E+018,23,1.64952097307613E+018,r1000913c5/base_footprint,0,1.64952097307613E+018,v/m1vw10zy74w/map,-14.4781071231,-0.649301131882,0,0,0,-0.841240860349,0.540660535715,0,67.4268264771,35.1944160461,42.4311943054,94.142616272,50.0299873352,50.0299873352,67.4268264771,67.4268264771,25.5543880463,0.17779147625,0,0.00722847692668,0.891909241676,0.0236602891237,0.0308887660503,-4.59832572937,-0.150291278958,0.108604431152,0.00115228677168,0.716609954834,0.0141213396564,1.96925163269,0.0715476498008,30.59609031673,94.251220703152,50.746597290034,27.52363967899,805
1.64952097317544E+018,24,1.64952097317544E+018,r1000913c5/base_footprint,0,1.64952097317545E+018,v/m1vw10zy74w/map,-14.4782011383,-0.648141503261,0,0,0,-0.808845572296,0.58802112222,0,67.3188705444,37.1196746826,42.6894264221,94.0553588867,50.1175041199,50.1175041199,67.3188705444,67.3188705444,28.1286087036,0.155219376087,0,0.00762281892821,0.878920555115,0.0308267194778,0.038449537009,-6.52358436584,-0.213216274977,0.195861816406,0.00207808264531,0.629093170166,0.0123967556283,-0.604969024658,-0.0219799783081,30.59609031676,94.251220703106,50.746597290066,27.523639678942,805
1.64952097337469E+018,25,1.64952097337469E+018,r1000913c5/base_footprint,0,1.64952097337469E+018,v/m1vw10zy74w/map,-14.4776941467,-0.651741293899,0,0,0,-0.804174462388,0.594393332772,0,67.3788909912,38.1854438782,43.1388931274,94.2985687256,50.183719635,50.183719635,67.3788909912,67.3788909912,28.639005661,0.151214808226,0,0.00817788299173,0.865457475185,0.0404465571046,0.0486244373024,-7.5893535614,-0.248049780726,-0.0473480224609,-0.000502359762322,0.562877655029,0.0110919289291,-1.11536598206,-0.0405239276588,30.5960903168,94.2512207031391,50.746597290029,27.52363967894,805
1.6495209734753E+018,26,1.6495209734753E+018,r1000913c5/base_footprint,0,1.6495209734753E+018,v/m1vw10zy74w/map,-14.4776941467,-0.651741293899,0,0,0,-0.804174462388,0.594393332772,0,67.667350769,32.9120063782,43.6296195984,94.2985687256,50.5017127991,50.5017127991,67.667350769,67.667350769,26.8809909821,0.219452098012,0,0.00801672227681,0.851472616196,0.0486105047166,0.0566272251308,-2.3159160614,-0.075693204999,-0.0473480224609,-0.000502359762322,0.244884490967,0.00482563395053,0.642648696899,0.0233489722013,30.5960903168,94.2512207031391,50.746597290067,27.523639678999,805
1.64952097357747E+018,27,1.64952097357747E+018,r1000913c5/base_footprint,0,1.64952097357747E+018,v/m1vw10zy74w/map,-14.4827826133,-0.650610551817,0,0,0,-0.769314660679,0.638870059452,0,67.6875534058,37.4416427612,43.9796714783,94.6766815186,50.7547149658,50.7547149658,67.6875534058,67.6875534058,30.6110782623,0.173528447747,0,0.0079293968156,0.837947249413,0.0552337765694,0.0631631687284,-6.84555244446,-0.22373944521,-0.42546081543,-0.00451411446556,-0.00811767578125,-0.000159964925842,-3.08743858337,-0.112174063921,30.59609031674,94.25122070317,50.7465972900187,27.52363967893,805
1.64952097367456E+018,28,1.64952097367456E+018,r1000913c5/base_footprint,0,1.64952097367456E+018,v/m1vw10zy74w/map,-14.4827826133,-0.650610551817,0,0,0,-0.769314660679,0.638870059452,0,67.9244613647,34.440952301,44.2101593018,94.6766815186,51.0242805481,51.0242805481,67.9244613647,67.9244613647,29.2579421997,0.141289308667,0,0.00769682973623,0.809400975704,0.0674491301179,0.0751459598541,-3.84486198425,-0.125665143132,-0.42546081543,-0.00451411446556,-0.277683258057,-0.00547195831314,-1.73430252075,-0.0630113780499,30.59609031675,94.25122070317,50.746597290043,27.52363967895,805
1.64952097487547E+018,29,1.64952097487547E+018,r1000913c5/base_footprint,0,1.64952097487547E+018,v/m1vw10zy74w/map,-14.4823882841,-0.644439880235,0,0,0,-0.731225360057,0.68213596358,0,67.996925354,37.6114082336,44.4270744324,94.8084640503,51.2718544006,51.2718544006,67.996925354,67.996925354,31.1018218994,0.1161114797,0,0.00514130061492,0.12440700084,0.241616785526,0.24675808847,-7.01531791687,-0.229288056493,-0.557243347168,-0.00591231975704,-0.525257110596,-0.0103505877778,-3.57818222046,-0.130003958941,30.59609031673,94.251220703132,50.746597290004,27.52363967894,805
1.64952097497471E+018,30,1.64952097497471E+018,r1000913c5/base_footprint,0,1.64952097497472E+018,v/m1vw10zy74w/map,-14.4823882841,-0.644439880235,0,0,0,-0.731225360057,0.68213596358,0,68.0119247437,28.1045761108,44.7195663452,94.8084640503,51.0645103455,51.0645103455,68.0119247437,68.0119247437,28.5924739838,0.275975108147,0,0.00747788324952,0.0746805369854,0.248785734177,0.256263613701,2.49151420593,0.0814324393868,-0.557243347168,-0.00591231975704,-0.31791305542,-0.00626471685246,-1.06883430481,-0.0388333201408,30.59609031673,94.251220703132,50.74659729008,27.52363967899,805
1.6495209750756E+018,31,1.6495209750756E+018,r1000913c5/base_footprint,0,1.6495209750756E+018,v/m1vw10zy74w/map,-14.4823882841,-0.644439880235,0,0,0,-0.731225360057,0.68213596358,0,67.8762130737,28.1045761108,45.1363067627,94.8084640503,50.9017105103,50.9017105103,67.8762130737,67.8762130737,29.2770805359,0.260046243668,0,0.00301134190522,0.0120865153149,0.267907500267,0.27091884613,2.49151420593,0.0814324393868,-0.557243347168,-0.00591231975704,-0.155113220215,-0.00305662304163,-1.75344085693,-0.0637067183852,30.59609031673,94.251220703132,50.746597290085,27.52363967897,805
1.6495209751774E+018,32,1.6495209751774E+018,r1000913c5/base_footprint,0,1.6495209751774E+018,v/m1vw10zy74w/map,-14.4823882841,-0.644439880235,0,0,0,-0.731225360057,0.68213596358,0,68.0596237183,26.8179721832,45.3349189758,94.8084640503,50.8138999939,50.8138999939,68.0596237183,68.0596237183,25.0273990631,0.290124952793,0,0.00267114955932,0.00588354514912,0.27729293704,0.279964089394,3.77811813354,0.123483687639,-0.557243347168,-0.00591231975704,-0.0673027038574,-0.00132625061087,2.49624061584,0.0906944200397,30.59609031674,94.251220703132,50.7465972900426,27.52363967894,805
1.6495209752749E+018,33,1.6495209752749E+018,r1000913c5/base_footprint,0,1.6495209752749E+018,v/m1vw10zy74w/map,-14.4823882841,-0.644439880235,0,0,0,-0.731225360057,0.68213596358,0,67.8845367432,29.0382823944,45.6066017151,94.8084640503,50.7293357849,50.7293357849,67.8845367432,67.8845367432,27.2656402588,0.25375187397,0,0.00160516658798,0.0176036600024,0.280933856964,0.28253903985,1.55780792236,0.0509152598679,-0.557243347168,-0.00591231975704,0.017261505127,0.000340150989359,0.257999420166,0.00937373936176,30.59609031676,94.251220703132,50.746597290027,27.523639678966,805
1.6495209753749E+018,34,1.6495209753749E+018,r1000913c5/base_footprint,0,1.6495209753749E+018,v/m1vw10zy74w/map,-14.4823882841,-0.644439880235,0,0,0,-0.731225360057,0.68213596358,0,67.8950424194,28.1045761108,45.97813797,94.8084640503,50.6873550415,50.6873550415,67.8950424194,67.8950424194,26.6231956482,0.245859414339,0,0.000648721761536,0.0257286950946,0.283006191254,0.283654928207,2.49151420593,0.0814324393868,-0.557243347168,-0.00591231975704,0.0592422485352,0.00116741319653,0.900444030762,0.0327152982354,30.59609031673,94.251220703132,50.7465972900352,27.523639678962,805
1.64952097547457E+018,35,1.64952097547457E+018,r1000913c5/base_footprint,0,1.64952097547457E+018,v/m1vw10zy74w/map,-14.4823882841,-0.644439880235,0,0,0,-0.731225360057,0.68213596358,0,67.7914581299,24.8868770599,46.3755645752,94.8084640503,50.5486183167,50.5486183167,67.7914581299,67.7914581299,26.9893302917,0.280763596296,0,0.00074582209345,0.0427261404693,0.267803937197,0.268549740314,5.70921325684,0.186599433422,-0.557243347168,-0.00591231975704,0.197978973389,0.00390132516623,0.534309387207,0.0194127447903,30.59609031674,94.251220703132,50.746597290089,27.523639678907,805
1.64952097567438E+018,36,1.64952097567438E+018,r1000913c5/base_footprint,0,1.64952097567438E+018,v/m1vw10zy74w/map,-14.4923624454,-0.755380336241,0,0,0,-0.711701219468,0.702482294587,0,67.831703186,25.2165985107,46.8706169128,95.0586242676,50.4232139587,50.4232139587,67.831703186,67.831703186,25.8111171722,0.28097012639,0,0.0013379144948,0.0717181563377,0.238976493478,0.240314409137,6.12863922119,0.195520579815,-0.767570495605,-0.0081404382363,0.448577880859,0.00881781149656,1.49932289124,0.0548992566764,31.34523773189,94.291053771995,50.871791839559,27.31044006344,851
1.64952097577581E+018,37,1.64952097577581E+018,r1000913c5/base_footprint,0,1.64952097577581E+018,v/m1vw10zy74w/map,-14.4961276449,-0.859889516782,0,0,0,-0.708719377174,0.705490499169,0,67.5445785522,25.4602603912,47.3226242065,95.059173584,50.2473068237,50.2473068237,67.5445785522,67.5445785522,29.0815200806,0.272287040949,0,0.00186973845121,0.097856760025,0.203155398369,0.201285660267,7.1207408905,0.218555003405,-0.71102142334,-0.00753614585847,0.777633666992,0.0152402659878,-2.15804100037,-0.0801546126604,32.5810012817,94.34815216066,51.024940490692,26.92347908023,877
1.6495209758758E+018,38,1.6495209758758E+018,r1000913c5/base_footprint,0,1.6495209758758E+018,v/m1vw10zy74w/map,-14.4961276449,-0.859889516782,0,0,0,-0.708719377174,0.705490499169,0,67.930015564,23.9274654388,47.0721817017,95.059173584,50.1481399536,50.1481399536,67.930015564,67.930015564,21.0726795197,0.350054323673,0,0.000967089086771,0.0974702909589,0.198698669672,0.199665755033,8.6535358429,0.265600681305,-0.71102142334,-0.00753614585847,0.876800537109,0.0171837639064,5.85079956055,0.217312172055,32.5810012817,94.34815216066,51.024940490709,26.92347908025,877
1.64952097597442E+018,39,1.64952097597442E+018,r1000913c5/base_footprint,0,1.64952097597442E+018,v/m1vw10zy74w/map,-14.4961276449,-0.859889516782,0,0,0,-0.708719377174,0.705490499169,0,67.8303833008,37.195930481,46.7459182739,95.059173584,50.2543792725,50.2543792725,67.8303833008,67.8303833008,24.0134773254,0.329628407955,0,0.00156227033585,0.096224963665,0.196656569839,0.19821883738,-4.61492919922,-0.141644790769,-0.71102142334,-0.00753614585847,0.770561218262,0.0151016581804,2.91000175476,0.10808416456,32.58100128178,94.34815216066,51.024940490762,26.92347908016,877
1.64952097607457E+018,40,1.64952097607457E+018,r1000913c5/base_footprint,0,1.64952097607457E+018,v/m1vw10zy74w/map,-14.495848523,-0.969815076607,0,0,0,-0.713698399394,0.700453135265,0,68.0006942749,34.0463447571,46.3654556274,95.2062759399,50.3243942261,50.3243942261,68.0006942749,68.0006942749,22.2335681915,0.307938814163,0,0.00307898037136,0.091866157949,0.189851939678,0.192930921912,-0.00883102416992,-0.000259449734585,-0.815734863281,-0.00864212494344,0.754123687744,0.0147640090436,4.41576766968,0.165698975325,34.0375137329301,94.390541076619,51.078517913844,26.64933586118,848
1.64952097617449E+018,41,1.64952097617449E+018,r1000913c5/base_footprint,0,1.64952097617449E+018,v/m1vw10zy74w/map,-14.495848523,-0.969815076607,0,0,0,-0.713698399394,0.700453135265,0,68.2030639648,41.1764717102,45.32604599,95.2062759399,50.5388793945,50.5388793945,68.2030639648,68.2030639648,20.9073200226,0.284967720509,0,0.00142494379543,0.0853952988982,0.171637624502,0.173062562943,-7.13895797729,-0.209737941623,-0.815734863281,-0.00864212494344,0.539638519287,0.0105648823082,5.74201583862,0.21546562016,34.03751373291,94.390541076619,51.078517913787,26.64933586122,848
1.64952097627431E+018,42,1.64952097627431E+018,r1000913c5/base_footprint,0,1.64952097627431E+018,v/m1vw10zy74w/map,-14.4968574481,-1.08344320573,0,0,0,-0.720974841549,0.692961238348,0,68.4787063599,39.3939399719,44.0448646545,95.1816940308,50.8296890259,50.8296890259,68.4787063599,68.4787063599,18.9979782104,0.26503893733,0,0.000655620766338,0.0789822936058,0.150571718812,0.149916097522,-3.32865142822,-0.0922951549292,-0.76091003418,-0.00805871374905,0.395065307617,0.00771239027381,6.76600456238,0.26261484623,36.06528854368,94.42078399662,51.224754333517,25.76398277278,763
1.64952097657492E+018,43,1.64952097657492E+018,r1000913c5/base_footprint,0,1.64952097657492E+018,v/m1vw10zy74w/map,-14.4986515724,-1.08951495485,0,0,0,-0.720703805742,0.693243120693,0,68.5618667603,38.9312973022,42.3443870544,95.4674453735,51.0764884949,51.0764884949,68.5618667603,68.5618667603,21.1952056885,0.360708653927,0,0.00147664069664,0.0758979544044,0.14002224803,0.13854560256,-2.86600875854,-0.0794672369957,-1.04666137695,-0.0110850743949,0.148265838623,0.00289441784844,4.56877708435,0.17733193934,36.06528854366,94.42078399655,51.224754333523,25.76398277285,763
1.6495209766763E+018,44,1.6495209766763E+018,r1000913c5/base_footprint,0,1.6495209766763E+018,v/m1vw10zy74w/map,-14.4986515724,-1.08951495485,0,0,0,-0.720703805742,0.693243120693,0,68.7160186768,46.5240631104,40.9661026001,95.4674453735,51.3968696594,51.3968696594,68.7160186768,68.7160186768,21.8806591034,0.287508964539,0,0.00112157815602,0.0745850801468,0.135591357946,0.134469777346,-10.4587745667,-0.289995580912,-1.04666137695,-0.0110850743949,-0.172115325928,-0.00336000300013,3.88332366943,0.1507268399,36.0652885437,94.42078399655,51.224754333472,25.76398277283,763
1.64952097687462E+018,45,1.64952097687462E+018,r1000913c5/base_footprint,0,1.64952097687462E+018,v/m1vw10zy74w/map,-14.4986515724,-1.08951495485,0,0,0,-0.720703805742,0.693243120693,0,68.8257904053,49.7081260681,39.8903388977,95.4674453735,51.7770309448,51.7770309448,68.8257904053,68.8257904053,24.0105133057,0.241681814194,0,0.000596381200012,0.070394679904,0.127151280642,0.126554906368,-13.6428375244,-0.37828168273,-1.04666137695,-0.0110850743949,-0.552276611328,-0.0107814399526,1.75346946716,0.0680589452386,36.0652885437,94.42078399655,51.224754333472,25.76398277286,763
1.6495209770744E+018,46,1.6495209770744E+018,r1000913c5/base_footprint,0,1.64952097707441E+018,v/m1vw10zy74w/map,-14.5049810002,-1.20955546549,0,0,0,-0.723442240417,0.690384910598,0,69.0387039185,51.8716583252,39.1424560547,95.4610290527,52.1712989807,52.1712989807,69.0387039185,69.0387039185,24.4130630493,0.289663404226,0,0.000567202398088,0.0673299878836,0.12266498059,0.12209777534,-11.5409393311,-0.286157548428,-0.46940612793,-0.00494155287743,0.994613647461,0.0187077317387,-0.61646270752,-0.0259054955095,40.3307189941,94.99162292477,53.165912628161,23.79660034178,413
1.64952097727489E+018,47,1.64952097727489E+018,r1000913c5/base_footprint,0,1.64952097727489E+018,v/m1vw10zy74w/map,-14.5049810002,-1.20955546549,0,0,0,-0.723442240417,0.690384910598,0,69.4765701294,52.0361976624,38.5395050049,95.4610290527,52.5141677856,52.5141677856,69.4765701294,69.4765701294,20.2344646454,0.301728844643,0,0.000755141780246,0.0642867088318,0.118647299707,0.117892153561,-11.7054786682,-0.290237277746,-0.46940612793,-0.00494155287743,0.651744842529,0.0122586973011,3.56213569641,0.149690955877,40.3307189942,94.99162292477,53.165912628129,23.79660034181,413
1.64952097747518E+018,48,1.64952097747518E+018,r1000913c5/base_footprint,0,1.64952097747518E+018,v/m1vw10zy74w/map,-14.5049810002,-1.20955546549,0,0,0,-0.723442240417,0.690384910598,0,69.2237854004,48.6952667236,37.9362487793,95.4610290527,52.7740287781,52.7740287781,69.2237854004,69.2237854004,27.5911426544,0.331861972809,0,0.000410945678595,0.0596894398332,0.110537610948,0.110126659274,-8.36454772949,-0.207398921251,-0.46940612793,-0.00494155287743,0.391883850098,0.00737096043304,-3.79454231262,-0.159457325935,40.33071899411,94.99162292477,53.165912628198,23.79660034178,413
1.64952098167455E+018,49,1.64952098167455E+018,r1000913c5/base_footprint,0,1.64952098167455E+018,v/m1vw10zy74w/map,-14.5217258444,-2.1341779249,0,0,0,-0.716676039693,0.697406233217,0,69.4737625122,52.2335243225,37.4617881775,95.7294158936,53.1364746094,53.1364746094,69.4737625122,69.4737625122,27.972076416,0.359899640083,0,0.00358339142986,0.0384469591081,0.015750810504,0.0193342026323,-7.44591903687,-0.166249543428,-0.804565429688,-0.008475814946,0.535652160645,0.00998008064926,-9.04447174072,-0.477845549583,44.78760528563,94.924850463912,53.672126770045,18.92760467528,293
1.64952098407423E+018,50,1.64952098407423E+018,r1000913c5/base_footprint,0,1.64952098407423E+018,v/m1vw10zy74w/map,-14.5274565551,-2.35608954928,0,0,0,-0.708689195004,0.70552081818,0,70.1180648804,48.8100585938,37.4352989197,95.6255187988,53.3045082092,53.3045082092,70.1180648804,70.1180648804,17.8153629303,0.988277614117,0,0.00812143925577,0.0902537629008,0.0376681089401,0.0457895509899,-3.99713897705,-0.0891961306334,-0.775032043457,-0.00817109178752,0.0294532775879,0.000552242447156,0.521522521973,0.0284411720932,44.81291961675,94.850486755343,53.3339614867879,18.336885452273,233
1.64952098417811E+018,51,1.64952098417811E+018,r1000913c5/base_footprint,0,1.64952098417811E+018,v/m1vw10zy74w/map,-14.5274565551,-2.35608954928,0,0,0,-0.708689195004,0.70552081818,0,69.8406982422,45.8450050354,37.6453781128,95.6255187988,53.2581825256,53.2581825256,69.8406982422,69.8406982422,22.3076896667,0.942983329296,0,0.00834641885012,0.112179003656,0.0389238931239,0.04727030918,-1.0320854187,-0.0230309795588,-0.775032043457,-0.00817109178752,0.0757789611816,0.00142083875835,-3.97080421448,-0.216547369957,44.8129196167,94.850486755343,53.3339614867816,18.33688545222,233
1.64952098427481E+018,52,1.64952098427481E+018,r1000913c5/base_footprint,0,1.64952098427481E+018,v/m1vw10zy74w/map,-14.5274565551,-2.35608954928,0,0,0,-0.708689195004,0.70552081818,0,69.7700805664,44.9112968445,38.1651992798,95.6255187988,53.2196655273,53.2196655273,69.7700805664,69.7700805664,23.1628417969,0.9464392066,0,0.0101411510259,0.141052961349,0.0395767576993,0.0497179105878,-0.0983772277832,-0.00219528726302,-0.775032043457,-0.00817109178752,0.114295959473,0.00214302400127,-4.8259563446,-0.263182997704,44.8129196167168,94.850486755343,53.333961486773,18.3368854523,233
1.64952098437423E+018,53,1.64952098437423E+018,r1000913c5/base_footprint,0,1.64952098437423E+018,v/m1vw10zy74w/map,-14.5274565551,-2.35608954928,0,0,0,-0.708689195004,0.70552081818,0,69.779335022,48.8100585938,38.9312591553,95.6255187988,53.2648773193,53.2648773193,69.779335022,69.779335022,23.4845275879,0.866731762886,0,0.0106347138062,0.160400077701,0.0374359488487,0.0480706617236,-3.99713897705,-0.0891961306334,-0.775032043457,-0.00817109178752,0.0690841674805,0.00129531288985,-5.14764213562,-0.280726075172,44.81291961675,94.850486755343,53.3339614867805,18.33688545228,233
1.64952098447495E+018,54,1.64952098447495E+018,r1000913c5/base_footprint,0,1.64952098447495E+018,v/m1vw10zy74w/map,-14.5274565551,-2.35608954928,0,0,0,-0.708689195004,0.70552081818,0,69.8423233032,47.1044235229,39.7608261108,95.6255187988,53.3453636169,53.3453636169,69.8423233032,69.8423233032,23.2200241089,0.93221873045,0,0.0127302994952,0.169147193432,0.0375010482967,0.0502313487232,-2.29150390625,-0.0511348955333,-0.775032043457,-0.00817109178752,-0.011402130127,-0.000213787425309,-4.88313865662,-0.266301423311,44.81291961665,94.850486755343,53.333961486773,18.33688545228,233
1.6495209845754E+018,55,1.6495209845754E+018,r1000913c5/base_footprint,0,1.6495209845754E+018,v/m1vw10zy74w/map,-14.5274565551,-2.35608954928,0,0,0,-0.708689195004,0.70552081818,0,69.8994979858,46.0415763855,40.9001350403,95.6255187988,53.377746582,53.377746582,69.8994979858,69.8994979858,22.5405712128,0.944113075733,0,0.0147897191346,0.175900295377,0.0359667800367,0.0507564991713,-1.2286567688,-0.0274174679071,-0.775032043457,-0.00817109178752,-0.0437850952148,-0.000820960849524,-4.2036857605,-0.229247540236,44.8129196167,94.850486755343,53.3339614867852,18.3368854523,233
1.64952098467634E+018,56,1.64952098467634E+018,r1000913c5/base_footprint,0,1.64952098467634E+018,v/m1vw10zy74w/map,-14.5274565551,-2.35608954928,0,0,0,-0.708689195004,0.70552081818,0,69.9969482422,51.8716583252,42.349193573,95.6255187988,53.4687576294,53.4687576294,69.9969482422,69.9969482422,21.7693309784,1.00125968456,0,0.0149914408103,0.174796327949,0.0359668284655,0.0509582683444,-7.0587387085,-0.157515704632,-0.775032043457,-0.00817109178752,-0.134796142578,-0.00252739782445,-3.43244552612,-0.187188029289,44.8129196167,94.850486755343,53.333961486822,18.33688545228,233
1.64952098477485E+018,57,1.64952098477485E+018,r1000913c5/base_footprint,0,1.64952098477485E+018,v/m1vw10zy74w/map,-14.5274565551,-2.35608954928,0,0,0,-0.708689195004,0.70552081818,0,70.0372619629,49.5798301697,44.1079940796,95.6255187988,53.5481987,53.5481987,70.0372619629,70.0372619629,21.9017333984,1.0066845417,0,0.0150299035013,0.172927901149,0.0361493527889,0.0511792562902,-4.76691055298,-0.10637357831,-0.775032043457,-0.00817109178752,-0.214237213135,-0.00401690043509,-3.56484794617,-0.194408580661,44.81291961672,94.850486755343,53.333961486865,18.33688545223,233
1.6495209848754E+018,58,1.6495209848754E+018,r1000913c5/base_footprint,0,1.6495209848754E+018,v/m1vw10zy74w/map,-14.5274565551,-2.35608954928,0,0,0,-0.708689195004,0.70552081818,0,70.0288009644,48.3065948486,45.2499847412,95.6255187988,53.5744400024,53.5744400024,70.0288009644,70.0288009644,22.3373451233,1.02625405788,0,0.0147944586352,0.166939273477,0.0350625775754,0.0498570390046,-3.49367523193,-0.0779613405466,-0.775032043457,-0.00817109178752,-0.240478515625,-0.00450891908258,-4.00045967102,-0.218164622784,44.81291961667,94.850486755343,53.333961486775,18.33688545228,233
1.64952098497512E+018,59,1.64952098497512E+018,r1000913c5/base_footprint,0,1.64952098497512E+018,v/m1vw10zy74w/map,-14.5355026077,-2.23786092233,0,0,0,-0.711124091548,0.703066516356,0,69.9680938721,46.4442481995,46.5373191833,95.6393127441,53.6916236877,53.6916236877,69.9680938721,69.9680938721,24.7453899384,1.01694190502,0,0.0151099069044,0.165482878685,0.0369087792933,0.052018687129,-1.36730575562,-0.0303327087313,-0.75789642334,-0.00798782799393,-0.18355178833,-0.00343035697006,-6.2316570282,-0.33659645915,45.07694244388,94.88141632076,53.50807189937,18.5137329102,259
1.64952098507459E+018,60,1.64952098507459E+018,r1000913c5/base_footprint,0,1.64952098507459E+018,v/m1vw10zy74w/map,-14.5355026077,-2.23786092233,0,0,0,-0.711124091548,0.703066516356,0,69.8906555176,43.8502655029,47.6961250305,95.6393127441,53.7406425476,53.7406425476,69.8906555176,69.8906555176,26.6686325073,0.995543897152,0,0.0141446404159,0.158264994621,0.0423787422478,0.0565233826637,1.22667694092,0.0272129587829,-0.75789642334,-0.00798782799393,-0.232570648193,-0.00434645917267,-8.15489959717,-0.440478414297,45.07694244382,94.88141632076,53.508071899407,18.51373291013,259
1.64952098517446E+018,61,1.64952098517446E+018,r1000913c5/base_footprint,0,1.64952098517446E+018,v/m1vw10zy74w/map,-14.5355026077,-2.23786092233,0,0,0,-0.711124091548,0.703066516356,0,69.8320999146,39.8692817688,48.32006073,95.6393127441,53.6828727722,53.6828727722,69.8320999146,69.8320999146,27.0987129211,1.11065649986,0,0.00980978365988,0.140450611711,0.0202718377113,0.0300816204399,5.20766067505,0.115528255701,-0.75789642334,-0.00798782799393,-0.174800872803,-0.00326681323349,-8.58498001099,-0.463708758354,45.07694244385,94.88141632076,53.508071899397,18.51373291011,259
1.64952098527824E+018,62,1.64952098527824E+018,r1000913c5/base_footprint,0,1.64952098527824E+018,v/m1vw10zy74w/map,-14.5396886273,-2.12417233599,0,0,0,-0.712899542065,0.701266171238,0,70.0475158691,38.1263618469,59.2171936035,95.5311203003,53.6301422119,53.6301422119,70.0475158691,70.0475158691,22.2623100281,1.15657222271,0,0.0104104569182,0.13481760025,0.0133397467434,0.0237502027303,6.64316558838,0.148385882378,-0.607307434082,-0.00639784056693,0.0341300964355,0.000635992910247,-3.36069488525,-0.177799344063,44.76952743528,94.923812866218,53.6642723083355,18.90161514285,294
1.64952098547877E+018,63,1.64952098547877E+018,r1000913c5/base_footprint,0,1.64952098547877E+018,v/m1vw10zy74w/map,-14.5300146754,-2.11811657928,0,0,0,-0.713700043877,0.700451459682,0,69.8165359497,35.5946769714,65.5177612305,95.7380981445,53.5685882568,53.5685882568,69.8165359497,69.8165359497,26.5002994537,1.17017161846,0,0.0114488173276,0.121092528105,0.00452148076147,0.0159702990204,9.19292831421,0.205256074667,-0.813247680664,-0.00856727920473,0.103538513184,0.00192909280304,-7.57269477844,-0.400087326765,44.78760528561,94.924850463836,53.672126769984,18.92760467526,293
1.64952098558274E+018,64,1.64952098558274E+018,r1000913c5/base_footprint,0,1.64952098558274E+018,v/m1vw10zy74w/map,-14.5300146754,-2.11811657928,0,0,0,-0.713700043877,0.700451459682,0,69.6083374023,31.660900116,67.1677017212,95.7380981445,53.5837898254,53.5837898254,69.6083374023,69.6083374023,30.4120121002,1.19294965267,0,0.0118545275182,0.117729075253,0.00381491077133,0.015669438988,13.1267051697,0.293087899685,-0.813247680664,-0.00856727920473,0.0883369445801,0.00164586259052,-11.4844074249,-0.606754422188,44.7876052857,94.924850463836,53.6721267699801,18.9276046753,293
1.64952098567573E+018,65,1.64952098567573E+018,r1000913c5/base_footprint,0,1.64952098567573E+018,v/m1vw10zy74w/map,-14.5300146754,-2.11811657928,0,0,0,-0.713700043877,0.700451459682,0,69.8428268433,33.2748031616,69.5466461182,95.7380981445,53.6485443115,53.6485443115,69.8428268433,69.8428268433,26.890499115,1.2210572958,0,0.0119788274169,0.113078393042,0.00561043247581,0.0175892598927,11.512802124,0.257053315639,-0.813247680664,-0.00856727920473,0.0235824584961,0.000439379975433,-7.9628944397,-0.420702695847,44.7876052856,94.924850463836,53.6721267699961,18.9276046753,293
1.64952098578901E+018,66,1.64952098578901E+018,r1000913c5/base_footprint,0,1.64952098578901E+018,v/m1vw10zy74w/map,-14.5269445476,-2.00816864254,0,0,0,-0.714325230802,0.69981387857,0,70.0325927734,31.0039806366,71.2051925659,95.7853775024,53.6724128723,53.6724128723,70.0325927734,70.0325927734,23.9027080536,1.23008334637,0,0.010636347346,0.108756281435,0.00264960248023,0.0132859498262,13.5805912018,0.304602921009,-0.821113586426,-0.00864655338228,0.131080627441,0.00243628467433,-4.70322418213,-0.244966179132,44.5845718384,94.964263915974,53.803493499741,19.19948387147,350
1.64952098597519E+018,67,1.64952098597519E+018,r1000913c5/base_footprint,0,1.64952098597519E+018,v/m1vw10zy74w/map,-14.5269445476,-2.00816864254,0,0,0,-0.714325230802,0.69981387857,0,69.7126083374,32.0261421204,78.9727478027,95.7853775024,53.651096344,53.651096344,69.7126083374,69.7126083374,29.4322223663,1.18094158173,0,0.010194491595,0.103524312377,0.00132824131288,0.00886625051498,12.558429718,0.281676590443,-0.821113586426,-0.00864655338228,0.152397155762,0.00283247698098,-10.2327384949,-0.532969474792,44.5845718384,94.964263915974,53.803493499762,19.1994838714,350
1.64952098607558E+018,68,1.64952098607558E+018,r1000913c5/base_footprint,0,1.64952098607558E+018,v/m1vw10zy74w/map,-14.5269445476,-2.00816864254,0,0,0,-0.714325230802,0.69981387857,0,69.7415466309,32.6513214111,86.635345459,95.7853775024,53.7483062744,53.7483062744,69.7415466309,69.7415466309,29.9612140656,1.13205993176,0,0.00944222416729,0.0987262055278,0.00383741618134,0.00560480775312,11.9332504272,0.267654269934,-0.821113586426,-0.00864655338228,0.0551872253418,0.00102571828756,-10.7617301941,-0.560521841049,44.5845718383,94.964263915974,53.8034934997418,19.1994838715,350
1.64952098637466E+018,69,1.64952098637466E+018,r1000913c5/base_footprint,0,1.64952098637466E+018,v/m1vw10zy74w/map,-14.5281749765,-1.90458958927,0,0,0,-0.714944090359,0.69918162709,0,69.9035797119,35.2088661194,93.156288147,95.9482498169,53.8082580566,53.8082580566,69.9035797119,69.9035797119,28.278421402,1.0443110466,0,0.00855433009565,0.0951161235571,0.00554344896227,0.00301088113338,9.48796081543,0.212273702025,-0.950736999512,-0.0100080203265,0.0252265930176,0.000468604121124,-8.41556358337,-0.423683434725,44.69682693483,94.997512817388,53.8334846496176,19.86285781863,397
1.64952098657492E+018,70,1.64952098657492E+018,r1000913c5/base_footprint,0,1.64952098657492E+018,v/m1vw10zy74w/map,-14.5281749765,-1.90458958927,0,0,0,-0.714944090359,0.69918162709,0,69.9231338501,34.3563499451,95.3873443604,95.9482498169,53.9281578064,53.9281578064,69.9231338501,69.9231338501,29.2213935852,1.03167688847,0,0.00828235410154,0.0933335870504,0.00647849589586,0.00180385832209,10.3404769897,0.23134700954,-0.950736999512,-0.0100080203265,-0.0946731567383,-0.00175862957258,-9.3585357666,-0.471157580614,44.6968269348,94.997512817388,53.8334846496617,19.8628578186,397
1.64952098677543E+018,71,1.64952098677543E+018,r1000913c5/base_footprint,0,1.64952098677543E+018,v/m1vw10zy74w/map,-14.5281749765,-1.90458958927,0,0,0,-0.714944090359,0.69918162709,0,69.890914917,30.9462909698,95.3033981323,95.9482498169,54.0556297302,54.0556297302,69.890914917,69.890914917,31.1779918671,0.990662813187,0,0.00800316315144,0.0914302915335,0.00743265915662,0.000570504285861,13.750535965,0.307640105486,-0.950736999512,-0.0100080203265,-0.222145080566,-0.0041265222244,-11.3151340485,-0.569662928581,44.6968269348,94.997512817388,53.833484649634,19.8628578186,397
1.64952098689346E+018,72,1.64952098689346E+018,r1000913c5/base_footprint,0,1.64952098689346E+018,v/m1vw10zy74w/map,-14.5281749765,-1.90458958927,0,0,0,-0.714944090359,0.69918162709,0,70.157043457,33.9822273254,95.30443573,95.9482498169,54.1644554138,54.1644554138,70.157043457,70.157043457,27.5630531311,0.979934751987,0,0.00752481631935,0.0876373201609,0.00940253119916,0.00187771499623,10.7145996094,0.239717230201,-0.950736999512,-0.0100080203265,-0.33097076416,-0.00614804634824,-7.7001953125,-0.387668043375,44.6968269348,94.997512817388,53.83348464964,19.8628578186,397
1.64952098717518E+018,73,1.64952098717518E+018,r1000913c5/base_footprint,0,1.64952098717518E+018,v/m1vw10zy74w/map,-14.5266476634,-1.76960358038,0,0,0,-0.714420385412,0.699716737621,0,70.0784606934,31.5811424255,95.344909668,95.91015625,54.2274436951,54.2274436951,70.0784606934,70.0784606934,29.5206050873,0.911901950836,0,0.00619529886171,0.0777416229248,0.0140565810725,0.00786128267646,12.5944137573,0.28509914875,-0.879745483398,-0.00925751496106,-0.53929901123,-0.0100450301543,-8.94027328491,-0.434408605099,44.1755561828,95.030410766602,53.68814468387,20.58033180239,408
1.64952098727448E+018,74,1.64952098727448E+018,r1000913c5/base_footprint,0,1.64952098727448E+018,v/m1vw10zy74w/map,-14.5266476634,-1.76960358038,0,0,0,-0.714420385412,0.699716737621,0,69.657661438,29.9123897552,92.8396987915,95.91015625,54.3004417419,54.3004417419,69.657661438,69.657661438,37.8834648132,0.854168713093,0,0.00579351279885,0.0753657743335,0.014500179328,0.00870666652918,14.2631664276,0.322874635458,-0.879745483398,-0.00925751496106,-0.612297058105,-0.0114046977833,-17.3031330109,-0.840760648251,44.1755561828,95.030410766602,53.688144683795,20.5803318023,408
1.64952098737537E+018,75,1.64952098737537E+018,r1000913c5/base_footprint,0,1.64952098737537E+018,v/m1vw10zy74w/map,-14.5266476634,-1.76960358038,0,0,0,-0.714420385412,0.699716737621,0,69.7013168335,31.9327735901,88.8691940308,95.91015625,54.3339691162,54.3339691162,69.7013168335,69.7013168335,37.4596672058,0.666988909245,0,0.00543503137305,0.072961345315,0.0141416983679,0.00870666652918,12.2427825928,0.277139306068,-0.879745483398,-0.00925751496106,-0.645824432373,-0.0120291812345,-16.8793354034,-0.82016825676,44.1755561829,95.030410766602,53.688144683827,20.5803318024,408
1.64952098748062E+018,76,1.64952098748062E+018,r1000913c5/base_footprint,0,1.64952098748062E+018,v/m1vw10zy74w/map,-14.5266476634,-1.76960358038,0,0,0,-0.714420385412,0.699716737621,0,69.7573623657,32.2894630432,85.133102417,95.91015625,54.4171218872,54.4171218872,69.7573623657,69.7573623657,37.3489875793,0.767444133759,0,0.00500332610682,0.0657242760062,0.0137099931017,0.00870666652918,11.8860931396,0.269064933062,-0.879745483398,-0.00925751496106,-0.728977203369,-0.0135779920965,-16.768655777,-0.81479036808,44.1755561828,95.030410766602,53.688144683831,20.5803318023,408
1.64952098767456E+018,77,1.64952098767456E+018,r1000913c5/base_footprint,0,1.64952098767456E+018,v/m1vw10zy74w/map,-14.5220362957,-1.65062912824,0,0,0,-0.712532290018,0.701639320222,0,69.9855041504,36.9747886658,82.7445755005,95.9013290405,54.5189781189,54.5189781189,69.9855041504,69.9855041504,34.3106193542,0.654990971088,0,0.00526730623096,0.0586938373744,0.0139739736915,0.00870666652918,6.37328338623,0.147025763988,-0.866882324219,-0.00912176910788,-0.795303344727,-0.0148035921156,-12.0138874054,-0.53881829977,43.34807205203,95.034446716281,53.723674774173,22.2967319488,405
1.64952098777503E+018,78,1.64952098777503E+018,r1000913c5/base_footprint,0,1.64952098777504E+018,v/m1vw10zy74w/map,-14.5220362957,-1.65062912824,0,0,0,-0.712532290018,0.701639320222,0,70.2909088135,37.7162628174,82.3075256348,95.9013290405,54.692817688,54.692817688,70.2909088135,70.2909088135,30.6908035278,0.666069626808,0,0.00550319254398,0.0553666315973,0.0142098590732,0.00870666652918,5.63180923462,0.129920646548,-0.866882324219,-0.00912176910788,-0.969142913818,-0.0180394016206,-8.39407157898,-0.376470923424,43.34807205202,95.034446716281,53.723674774182,22.29673194882,405
1.64952098787985E+018,79,1.64952098787985E+018,r1000913c5/base_footprint,0,1.64952098787985E+018,v/m1vw10zy74w/map,-14.5220362957,-1.65062912824,0,0,0,-0.712532290018,0.701639320222,0,70.2742462158,37.3121528625,82.0057067871,95.9013290405,54.7089347839,54.7089347839,70.2742462158,70.2742462158,31.1648921967,0.602009117603,0,0.00550436787307,0.0539778135717,0.0142110353336,0.00870666652918,6.03591918945,0.139243081212,-0.866882324219,-0.00912176910788,-0.985260009766,-0.018339401111,-8.8681602478,-0.39773362875,43.34807205195,95.034446716281,53.723674774134,22.2967319489,405
1.64952098797559E+018,80,1.64952098797559E+018,r1000913c5/base_footprint,0,1.64952098797559E+018,v/m1vw10zy74w/map,-14.5220362957,-1.65062912824,0,0,0,-0.712532290018,0.701639320222,0,70.3842926025,42.9065742493,81.862449646,95.9013290405,54.808631897,54.808631897,70.3842926025,70.3842926025,30.2607479095,0.505033969879,0,0.00565740838647,0.04862042889,0.0143640749156,0.00870666652918,0.441497802734,0.01018494647,-0.866882324219,-0.00912176910788,-1.0849571228,-0.020195139572,-7.96401596069,-0.357183098793,43.348072052034,95.034446716281,53.7236747742,22.29673194881,405
1.64952098807449E+018,81,1.64952098807449E+018,r1000913c5/base_footprint,0,1.64952098807449E+018,v/m1vw10zy74w/map,-14.524666106,-1.54771723099,0,0,0,-0.712847710721,0.701318858523,0,70.43724823,42.9323959351,81.8777389526,96.0321426392,54.8852310181,54.8852310181,70.43724823,70.43724823,30.6057929993,0.605713129044,0,0.00574940163642,0.0470594279468,0.014198731631,0.00844932999462,-0.0167388916016,-0.000390041590435,-0.985046386719,-0.0103637715802,-1.21533584595,-0.0226446464658,-7.70231628418,-0.336294621229,42.9156570434984,95.047096252481,53.66989517215,22.90347671512,412
1.64952098817468E+018,82,1.64952098817468E+018,r1000913c5/base_footprint,0,1.64952098817468E+018,v/m1vw10zy74w/map,-14.524666106,-1.54771723099,0,0,0,-0.712847710721,0.701318858523,0,70.7471160889,37.3121528625,76.6379394531,96.0321426392,54.7653198242,54.7653198242,70.7471160889,70.7471160889,23.7331352234,0.613293528557,0,0.00576185947284,0.0439159199595,0.0140078375116,0.00824597850442,5.60350418091,0.130570158362,-0.985046386719,-0.0103637715802,-1.0954246521,-0.0204104110599,-0.829658508301,-0.0362241305411,42.91565704341,95.047096252481,53.6698951721,22.903476715099,412
1.64952098827451E+018,83,1.64952098827451E+018,r1000913c5/base_footprint,0,1.64952098827451E+018,v/m1vw10zy74w/map,-14.524666106,-1.54771723099,0,0,0,-0.712847710721,0.701318858523,0,70.2881088257,38.1708869934,70.7107925415,96.0321426392,54.5391540527,54.5391540527,70.2881088257,70.2881088257,29.5526599884,0.623181819916,0,0.00579712726176,0.0394072756171,0.0140431057662,0.00824597850442,4.74477005005,0.11056035012,-0.985046386719,-0.0103637715802,-0.869258880615,-0.0161963962018,-6.64918327332,-0.290313273668,42.91565704345,95.047096252481,53.669895172085,22.90347671508,412
1.64952098837445E+018,84,1.64952098837445E+018,r1000913c5/base_footprint,0,1.64952098837445E+018,v/m1vw10zy74w/map,-14.5211438493,-1.43583727618,0,0,0,-0.712607359427,0.7015630772,0,70.2537307739,37.7664108276,63.6748809814,95.8509292603,54.4127731323,54.4127731323,70.2537307739,70.2537307739,28.1541099548,0.581026136875,0,0.00575058767572,0.0359075814486,0.0139965657145,0.00824597850442,4.40615463257,0.104479171336,-0.801284790039,-0.00843017175794,-0.797134399414,-0.0148675721139,-4.85480880737,-0.208367139101,42.17256546017,95.049644470261,53.615638732886,23.29930114743,402
1.64952098857493E+018,85,1.64952098857493E+018,r1000913c5/base_footprint,0,1.64952098857493E+018,v/m1vw10zy74w/map,-14.5187513117,-1.42122266024,0,0,0,-0.711316218668,0.702872134217,0,69.9958648682,35.5119819641,56.9329223633,95.9826278687,54.2322387695,54.2322387695,69.9958648682,69.9958648682,31.3200912476,0.595293402672,0,0.0058853616938,0.0331169478595,0.0141313401982,0.00824597850442,6.66058349609,0.157936409116,-0.932983398438,-0.00981574878097,-0.616600036621,-0.0115003762767,-8.0207901001,-0.344250231981,42.17256546019,95.049644470262,53.615638732879,23.2993011475,402
1.64952098867472E+018,86,1.64952098867472E+018,r1000913c5/base_footprint,0,1.64952098867472E+018,v/m1vw10zy74w/map,-14.5187513117,-1.42122266024,0,0,0,-0.711316218668,0.702872134217,0,69.7176437378,33.7690620422,50.3405952454,95.9826278687,54.0045700073,54.0045700073,69.7176437378,69.7176437378,33.8692321777,0.568702995777,0,0.00594186782837,0.028438558802,0.0141878463328,0.00824597850442,8.40350341797,0.19926469028,-0.932983398438,-0.00981574878097,-0.388931274414,-0.0072540640831,-10.5699310303,-0.453658729792,42.17256546017,95.049644470262,53.615638732886,23.2993011474,402
1.64952098878496E+018,87,1.64952098878496E+018,r1000913c5/base_footprint,0,1.64952098878496E+018,v/m1vw10zy74w/map,-14.5187513117,-1.42122266024,0,0,0,-0.711316218668,0.702872134217,0,69.5046234131,39.029624939,48.7089385986,95.9826278687,53.779296875,53.779296875,69.5046234131,69.5046234131,35.2706985474,0.470330446959,0,0.00606844108552,0.0249334666878,0.0143144186586,0.00824597850442,3.14294052124,0.0745257139206,-0.932983398438,-0.00981574878097,-0.16365814209,-0.00305243302137,-11.9713973999,-0.513809263706,42.17256546024,95.049644470262,53.61563873291,23.2993011475,402
1.64952098889003E+018,88,1.64952098889003E+018,r1000913c5/base_footprint,0,1.64952098889003E+018,v/m1vw10zy74w/map,-14.5187513117,-1.42122266024,0,0,0,-0.711316218668,0.702872134217,0,69.3502731323,37.6646194458,48.6057624817,95.9826278687,53.6252479553,53.6252479553,69.3502731323,69.3502731323,36.3852119446,0.467551499605,0,0.00609168503433,0.0232622232288,0.0143376635388,0.00824597850442,4.5079460144,0.106892853975,-0.932983398438,-0.00981574878097,-0.00960922241211,-0.000179224240128,-13.0859107971,-0.561643898487,42.1725654602,95.049644470262,53.6156387328879,23.2993011475,402
1.64952098907672E+018,89,1.64952098907672E+018,r1000913c5/base_footprint,0,1.64952098907672E+018,v/m1vw10zy74w/map,-14.5212724851,-1.3081465076,0,0,0,-0.712351721996,0.701822644384,0,69.5014419556,36.7201423645,48.5178642273,95.965171814,53.5316619873,53.5316619873,69.5014419556,69.5014419556,32.5906295776,0.56150496006,0,0.00625399453565,0.0202448517084,0.0144999725744,0.00824597850442,3.82023620605,0.0942328721285,-0.973785400391,-0.0102513022721,-0.306083679199,-0.0057506877929,-8.80671310425,-0.370280176401,40.54037857055,94.991386413609,53.225578308101,23.78391647335,406
1.64952098917533E+018,90,1.64952098917533E+018,r1000913c5/base_footprint,0,1.64952098917533E+018,v/m1vw10zy74w/map,-14.5212724851,-1.3081465076,0,0,0,-0.712351721996,0.701822644384,0,69.4611358643,38.5425796509,48.3199234009,95.965171814,53.4195404053,53.4195404053,69.4611358643,69.4611358643,32.1052436829,0.358556449413,0,0.0062839910388,0.0176438484341,0.0145299695432,0.00824597850442,1.99779891968,0.0492792353034,-0.973785400391,-0.0102513022721,-0.193962097168,-0.00364415207878,-8.32132720947,-0.349872022867,40.54037857058,94.991386413609,53.225578308132,23.78391647343,406
1.6495209892753E+018,91,1.6495209892753E+018,r1000913c5/base_footprint,0,1.6495209892753E+018,v/m1vw10zy74w/map,-14.5212724851,-1.3081465076,0,0,0,-0.712351721996,0.701822644384,0,69.5375900269,41.1764717102,48.1780700684,95.965171814,53.3904647827,53.3904647827,69.5375900269,69.5375900269,30.4149799347,0.446323603392,0,0.00637776264921,0.0143065480515,0.014623740688,0.00824597850442,-0.636093139648,-0.0156903602183,-0.973785400391,-0.0102513022721,-0.164886474609,-0.00309788039885,-6.6310634613,-0.278804510832,40.540378570552,94.991386413609,53.225578308091,23.7839164734,406
1.64952098937474E+018,92,1.64952098937474E+018,r1000913c5/base_footprint,0,1.64952098937474E+018,v/m1vw10zy74w/map,-14.5212724851,-1.3081465076,0,0,0,-0.712351721996,0.701822644384,0,69.4829788208,42.4645767212,48.0849838257,95.965171814,53.3287887573,53.3287887573,69.4829788208,69.4829788208,30.7318897247,0.286551386118,0,0.00632046023384,0.00989544671029,0.0145664382726,0.00824597850442,-1.92419815063,-0.0474637448788,-0.973785400391,-0.0102513022721,-0.103210449219,-0.00193911371753,-6.94797325134,-0.292129069567,40.54037857057,94.991386413609,53.225578308081,23.78391647336,406
1.6495209895751E+018,93,1.6495209895751E+018,r1000913c5/base_footprint,0,1.6495209895751E+018,v/m1vw10zy74w/map,-14.5161002158,-1.17870932523,0,0,0,-0.710673679051,0.703521799168,0,69.3971099854,38.9978218079,48.1044883728,95.9310455322,53.2551689148,53.2551689148,69.3971099854,69.3971099854,31.3596591949,0.413331568241,0,0.00607840856537,0.00528311543167,0.0143243866041,0.00824597850442,0.701839447021,0.0176787264645,-1.06713867188,-0.0112491538748,-0.587596893311,-0.0111567107961,-7.43670654297,-0.310860723257,39.699661254921,94.86390686032,52.667572021489,23.92295265193,453
1.64952098967508E+018,94,1.64952098967508E+018,r1000913c5/base_footprint,0,1.64952098967508E+018,v/m1vw10zy74w/map,-14.5161002158,-1.17870932523,0,0,0,-0.710673679051,0.703521799168,0,69.1466903687,37.6646194458,48.2347564697,95.9310455322,53.1080131531,53.1080131531,69.1466903687,69.1466903687,34.2778320312,0.370124429464,0,0.00601579481736,0.0028838973958,0.0142617728561,0.00824597850442,2.03504180908,0.0512609370053,-1.06713867188,-0.0112491538748,-0.440441131592,-0.00836266297847,-10.3548793793,-0.432842880487,39.69966125488,94.86390686032,52.667572021508,23.9229526519,453
1.64952098977471E+018,95,1.64952098977471E+018,r1000913c5/base_footprint,0,1.64952098977471E+018,v/m1vw10zy74w/map,-14.5161002158,-1.17870932523,0,0,0,-0.710673679051,0.703521799168,0,69.1944961548,35.9086914062,48.4089660645,95.9310455322,52.994972229,52.994972229,69.1944961548,69.1944961548,32.1964607239,0.396985650063,0,0.00594717264175,0.016772037372,0.0141931511462,0.00824597850442,3.79096984863,0.0954912379384,-1.06713867188,-0.0112491538748,-0.32740020752,-0.0062163528055,-8.2735080719,-0.345839768648,39.69966125483,94.86390686032,52.66757202148,23.922952652,453
1.64952098987636E+018,96,1.64952098987636E+018,r1000913c5/base_footprint,0,1.64952098987637E+018,v/m1vw10zy74w/map,-14.5161002158,-1.17870932523,0,0,0,-0.710673679051,0.703521799168,0,69.2339630127,35.4268035889,48.6271209717,95.9310455322,52.9939689636,52.9939689636,69.2339630127,69.2339630127,31.4752750397,0.315253257751,0,0.00582752330229,0.0446475632489,0.014073501341,0.00824597850442,4.27285766602,0.107629574835,-1.06713867188,-0.0112491538748,-0.326396942139,-0.00619730353355,-7.5523223877,-0.315693587065,39.69966125492,94.86390686032,52.667572021461,23.922952652,453
1.64952099007451E+018,97,1.64952099007451E+018,r1000913c5/base_footprint,0,1.64952099007451E+018,v/m1vw10zy74w/map,-14.514372105,-1.06819651311,0,0,0,-0.710517403132,0.703679628699,0,69.1497116089,36.3113670349,50.8183174133,95.7924499512,52.9126205444,52.9126205444,69.1497116089,69.1497116089,31.6142864227,0.418735742569,0,0.00525033613667,0.094535574317,0.0128425434232,0.00759220728651,-0.246078491211,-0.00682313926518,-1.37166595459,-0.0145271616057,-1.68786621094,-0.0329502075911,-5.8503036499,-0.227072954178,36.065288543689,94.42078399661,51.22475433346,25.7639827728,763
1.64952099017485E+018,98,1.64952099017485E+018,r1000913c5/base_footprint,0,1.64952099017486E+018,v/m1vw10zy74w/map,-14.514372105,-1.06819651311,0,0,0,-0.710517403132,0.703679628699,0,69.1457519531,37.254901886,52.6354827881,95.7924499512,52.7383956909,52.7383956909,69.1457519531,69.1457519531,29.8040027618,0.355107337236,0,0.00558265903965,0.113557755947,0.0111942086369,0.00561154959723,-1.18961334229,-0.0329849943519,-1.37166595459,-0.0145271616057,-1.51364135742,-0.0295490212739,-4.04001998901,-0.156808823347,36.06528854371,94.42078399661,51.22475433348,25.76398277279,763
1.6495209902746E+018,99,1.6495209902746E+018,r1000913c5/base_footprint,0,1.6495209902746E+018,v/m1vw10zy74w/map,-14.514372105,-1.06819651311,0,0,0,-0.710517403132,0.703679628699,0,69.1923980713,35.0307273865,53.8456001282,95.7924499512,52.6735115051,52.6735115051,69.1923980713,69.1923980713,28.2636356354,0.350318074226,0,0.0046063605696,0.129444226623,0.00860841292888,0.00400205189362,1.03456115723,0.02868578583,-1.37166595459,-0.0145271616057,-1.44875717163,-0.0282823648304,-2.49965286255,-0.097021214664,36.06528854373,94.42078399661,51.22475433347,25.76398277285,763
1.64952099037452E+018,100,1.64952099037452E+018,r1000913c5/base_footprint,0,1.64952099037452E+018,v/m1vw10zy74w/map,-14.514372105,-1.06819651311,0,0,0,-0.710517403132,0.703679628699,0,69.2623672485,36.7201423645,50.6372833252,95.7924499512,52.538734436,52.538734436,69.2623672485,69.2623672485,25.5484771729,0.423678398132,0,0.00192811607849,0.142109796405,0.00826626177877,0.00633814558387,-0.654853820801,-0.0181574542075,-1.37166595459,-0.0145271616057,-1.31398010254,-0.0256512723863,0.215505599976,0.00836460758001,36.065288543699,94.42078399661,51.22475433346,25.763982772876,763
