%time,field.header.seq,field.header.stamp,field.header.frame_id,field.pose.header.seq,field.pose.header.stamp,field.pose.header.frame_id,field.pose.pose.position.x,field.pose.pose.position.y,field.pose.pose.position.z,field.pose.pose.orientation.x,field.pose.pose.orientation.y,field.pose.pose.orientation.z,field.pose.pose.orientation.w,field.label,field.main_output,field.scan_score,field.pose_score,field.cov_score,field.lhood_map_score,field.lhood_robot_score,field.lhood_map_score_all,field.lhood_robot_score_all,field.point_angle_diff,field.average_orientation,field.map_average_orientation,field.sensor_div,field.odom_div_x,field.odom_div_w,field.imu_div_w,field.kdtree_div,field.kdtree_div_p,field.cov_div,field.cov_div_p,field.likelihood_div,field.likelihood_div_p,field.normal_diff_div,field.normal_diff_div_p,field.kdtree_average,field.cov_average,field.likelihood_average,field.normal_diff_average,field.map_update_count
1630861900008624754,0,1630861900008624754,r200131356/base_footprint,0,1630861900008625009,alta/m1vW10zy74W/map,-10.9560312478,3.10337676366,0.0,0.0,0.0,0.973520840382,0.228598279394,0,66.6061096191,27.7605781555,100.0,96.5862045288,47.2017555237,47.2017555237,66.6061096191,66.6061096191,18.5792789459,0.261189430952,0.0,0.0275840684772,0.193544507027,0.0935338810086,0.0659498125315,2.807554245,0.0918457880616,-0.8720703125,-0.00911119673401,2.8556098938,0.0570467486978,8.80186462402,0.321457147598,30.5681324005,95.7141342163,50.0573654175,27.3811435699,16
1630861900108737820,1,1630861900108737820,r200131356/base_footprint,0,1630861900108738123,alta/m1vW10zy74W/map,-11.0858444334,3.17367849512,0.0,0.0,0.0,0.95823246215,0.285990469216,0,65.8040008545,20.6349201202,48.6735801697,95.9609985352,47.2109451294,47.2109451294,65.8040008545,65.8040008545,30.8657283783,-0.0383175387979,0.0,0.0352226532996,0.197518929839,0.112167820334,0.0769451707602,8.66219711304,0.295667231083,-0.114395141602,-0.00119352317415,2.91385650635,0.0581320300698,-3.65909957886,-0.134492948651,29.2971172333,95.8466033936,50.1248016357,27.2066287994,21
1630861900208374548,2,1630861900208374548,r200131356/base_footprint,0,1630861900208374772,alta/m1vW10zy74W/map,-11.1587135321,3.2268294096,0.0,0.0,0.0,0.943634694477,0.330988766244,0,65.9117507935,14.8732662201,48.4756736755,96.4430236816,47.0077362061,47.0077362061,65.9117507935,65.9117507935,28.4668884277,0.0441359467804,0.0,0.0463471002877,0.20624409616,0.137965887785,0.0916187912226,13.7857513428,0.481026649475,-0.329399108887,-0.00342718441971,2.76499176025,0.0555523447692,-1.04037094116,-0.0379330329597,28.6590175629,96.1136245728,49.7727279663,27.4265174866,23
1630861900308293756,3,1630861900308293756,r200131356/base_footprint,0,1630861900308294028,alta/m1vW10zy74W/map,-11.2211855595,3.28053009472,0.0,0.0,0.0,0.926573550136,0.376113621381,0,65.8465881348,16.9000930786,48.4756736755,96.1830062866,46.9323577881,46.9323577881,65.8465881348,65.8465881348,27.8896636963,0.107553616166,0.0,0.0493584349751,0.205666407943,0.144358068705,0.0949996337295,11.7589244843,0.410304516554,-0.0693817138672,-0.000721871794667,2.84037017822,0.0570667982101,-0.463146209717,-0.0168868042529,28.6590175629,96.1136245728,49.7727279663,27.4265174866,23
1630861900408605382,4,1630861900408605382,r200131356/base_footprint,0,1630861900408605700,alta/m1vW10zy74W/map,-11.3045692123,3.37040004586,0.0,0.0,0.0,0.8965558039,0.442930796505,0,65.799041748,18.117647171,48.5768547058,96.1037902832,46.9535217285,46.9535217285,65.799041748,65.799041748,28.688873291,-0.049302496016,0.0,0.0527976751328,0.205370947719,0.143214061856,0.0904163867235,6.67243003845,0.269157290459,0.234710693359,0.00243631238118,1.80033111572,0.0369269512594,-0.847713470459,-0.0304482094944,24.7900772095,96.3385009766,48.7538528442,27.8411598206,47
1630861900508486388,5,1630861900508486388,r200131356/base_footprint,0,1630861900508486658,alta/m1vW10zy74W/map,-11.3550057022,3.44535478516,0.0,0.0,0.0,0.871790478538,0.489878925379,0,66.1232070923,24.7058830261,48.4648513794,96.6930618286,47.0037727356,47.0037727356,66.1232070923,66.1232070923,25.5180397034,-0.00285071972758,0.0,0.0523834265769,0.200173586607,0.134703889489,0.082320459187,0.45810508728,0.0182047896087,-0.546661376953,-0.00568571873009,1.45370101929,0.0299995206296,2.05186843872,0.07442419976,25.1639881134,96.1464004517,48.4574737549,27.5699081421,51
1630861900609025379,6,1630861900609025379,r200131356/base_footprint,0,1630861900609025699,alta/m1vW10zy74W/map,-11.417665331,3.56057988123,0.0,0.0,0.0,0.832613107168,0.553855047618,0,66.050994873,26.2371616364,48.407169342,96.7929382324,46.9454574585,46.9454574585,66.050994873,66.050994873,26.5475902557,-0.137294277549,0.0,0.0544005930424,0.207697108388,0.122400775552,0.0680001825094,-1.2224445343,-0.0488690137863,-0.589797973633,-0.00613075587898,1.54201507568,0.031802341342,0.561763763428,0.0207221377641,25.0147171021,96.2031402588,48.4874725342,27.1093540192,49
1630861900708752727,7,1630861900708752727,r200131356/base_footprint,0,1630861900708753205,alta/m1vW10zy74W/map,-11.4592457307,3.66645142559,0.0,0.0,0.0,0.800827556397,0.598895003248,0,65.5969085693,25.0474376678,48.191493988,96.2168655396,46.9743003845,46.9743003845,65.5969085693,65.5969085693,32.9588470459,-0.24305871129,0.0,0.0498402565718,0.211116448045,0.101495161653,0.0516549088061,0.897975921631,0.0346101969481,-0.160850524902,-0.00167454918846,1.58269500732,0.0325945839286,-6.3345489502,-0.23792360723,25.9454135895,96.0560150146,48.5569953918,26.6242980957,53
1630861900808369682,8,1630861900808369682,r200131356/base_footprint,0,1630861900808369921,alta/m1vW10zy74W/map,-11.5053769915,3.84467882572,0.0,0.0,0.0,0.75676173161,0.653690814966,0,65.630821228,25.8916168213,48.191493988,95.1831665039,46.7603340149,46.7603340149,65.630821228,65.630821228,26.3161678314,-0.014124517329,0.0,0.0463795289397,0.209817528725,0.100106328726,0.0537267997861,3.35392570496,0.114681601524,0.223159790039,0.00233904598281,2.47668838501,0.0503013432026,-0.903686523438,-0.03556073457,29.2455425262,95.4063262939,49.2370223999,25.412481308,32
1630861900908239395,9,1630861900908239395,r200131356/base_footprint,0,1630861900908239536,alta/m1vW10zy74W/map,-11.5147410113,3.93303917172,0.0,0.0,0.0,0.733941810952,0.679212351284,0,65.8653640747,25.7918548584,47.7573509216,95.0311965942,46.583530426,46.583530426,65.8653640747,65.8653640747,19.6378231049,-0.0345042161644,0.0,0.0471561662853,0.22115278244,0.107694461942,0.0605382993817,4.22153663635,0.140655100346,0.187103271484,0.00196499284357,2.64535522461,0.0537358336151,5.23232078552,0.210385620594,30.0133914948,95.2182998657,49.2288856506,24.8701438904,36
1630861901008600031,10,1630861901008600031,r200131356/base_footprint,0,1630861901008600212,alta/m1vW10zy74W/map,-11.5186394391,4.02552935386,0.0,0.0,0.0,0.709417789993,0.704788194596,0,65.4589767456,28.1544685364,47.3734359741,94.2429428101,46.4496040344,46.4496040344,65.4589767456,65.4589767456,22.6687030792,-0.136011719704,0.0,0.0492888726294,0.234842479229,0.105980359018,0.0566914901137,3.45937347412,0.109425909817,0.888549804688,0.00934022758156,2.80060195923,0.0568647757173,1.07760238647,0.0453797914088,31.6138420105,95.1314926147,49.2502059937,23.7463054657,32
1630861901108869198,11,1630861901108869198,r200131356/base_footprint,0,1630861901108869548,alta/m1vW10zy74W/map,-11.517762756,4.1268993968,0.0,0.0,0.0,0.6848040747,0.728727232423,0,65.4873123169,28.1544685364,47.3734359741,94.4721221924,46.3237304688,46.3237304688,65.4873123169,65.4873123169,21.6242637634,-0.105113275349,0.0,0.0443872027099,0.235587283969,0.0971823632717,0.0527951605618,4.28297805786,0.132038071752,0.197731018066,0.00208863755688,2.84897232056,0.0579380877316,1.65023994446,0.0709033384919,32.4374465942,94.6698532104,49.1727027893,23.2745037079,32
1630861901209409408,12,1630861901209409408,r200131356/base_footprint,0,1630861901209411531,alta/m1vW10zy74W/map,-11.4969148979,4.30449371605,0.0,0.0,0.0,0.635910526273,0.771762789058,0,65.211769104,23.7132358551,46.9927101135,94.8108139038,46.0897941589,46.0897941589,65.211769104,65.211769104,25.2769031525,-0.0768226161599,0.0,0.0473113469779,0.261485338211,0.126452222466,0.0791408792138,9.24027061462,0.280403256416,-0.59790802002,-0.00634634960443,3.10721969604,0.0631587058306,-3.21455955505,-0.145703449845,32.9535064697,94.2129058838,49.197013855,22.0623435974,31
1630861901308548239,13,1630861901308548239,r200131356/base_footprint,0,1630861901308548924,alta/m1vW10zy74W/map,-11.4787933944,4.41430175401,0.0,0.0,0.0,0.605551407897,0.795806190221,0,65.2417602539,26.1285915375,46.9927101135,93.7840499878,45.9366264343,45.9366264343,65.2417602539,65.2417602539,19.3865203857,-0.155163854361,0.0,0.0491525791585,0.269630253315,0.135332733393,0.08618016541,6.07276344299,0.188587203622,0.387794494629,0.00411794520915,2.96575546265,0.0606464408338,3.42007827759,0.149960026145,32.2013549805,94.1718444824,48.902381897,22.8065986633,31
1630861901409139823,14,1630861901409139823,r200131356/base_footprint,0,1630861901409140045,alta/m1vW10zy74W/map,-11.4589848799,4.48894468304,0.0,0.0,0.0,0.579686020044,0.814839934076,0,65.1966094971,29.0525379181,47.1069602966,93.1499252319,45.8643379211,45.8643379211,65.1966094971,65.1966094971,17.1356296539,-0.0239925757051,0.0,0.0505897663534,0.284083217382,0.149194255471,0.0986044853926,3.55673027039,0.109071142972,1.03572845459,0.0109966685995,3.42388534546,0.0694665983319,6.04337120056,0.260726124048,32.6092681885,94.1856536865,49.2882232666,23.1790008545,30
1630861901508606497,15,1630861901508606497,r200131356/base_footprint,0,1630861901508606718,alta/m1vW10zy74W/map,-11.4248072529,4.57678899867,0.0,0.0,0.0,0.54021627612,0.841526217664,0,65.4091949463,27.6018104553,47.248462677,94.3684692383,45.7971343994,45.7971343994,65.4091949463,65.4091949463,16.9700183868,-0.154187515378,0.0,0.0563813894987,0.304054319859,0.1661093086,0.109727911651,4.99359512329,0.153199359775,-0.0624923706055,-0.000662655453198,4.13537597656,0.0828193053603,7.56271743774,0.308270454407,32.5954055786,94.3059768677,49.932510376,24.5327358246,34
1630861901608433456,16,1630861901608433456,r200131356/base_footprint,0,1630861901608433842,alta/m1vW10zy74W/map,-11.3922899416,4.64690131454,0.0,0.0,0.0,0.501421367457,0.865203220207,0,64.9890975952,23.9819011688,47.4095611572,94.3499603271,45.755115509,45.755115509,64.9890975952,64.9890975952,24.0113372803,-0.199543356895,0.0,0.0624895878136,0.334183216095,0.182020425797,0.119530841708,13.274805069,0.35630646348,0.836708068848,0.00879018101841,6.84233093262,0.130088657141,1.89227485657,0.0730506181717,37.2567062378,95.186668396,52.5974464417,25.9036121368,92
1630861901708431741,17,1630861901708431741,r200131356/base_footprint,0,1630861901708432045,alta/m1vW10zy74W/map,-11.2754433532,4.80307478017,0.0,0.0,0.0,0.383520618285,0.923532314188,0,65.1109771729,26.1285915375,47.5777130127,94.8534164429,45.750919342,45.750919342,65.1109771729,65.1109771729,23.5846500397,-0.173973739147,0.0,0.065334700048,0.365807622671,0.186689525843,0.121354833245,10.9306125641,0.294950008392,0.491729736328,0.00515736499801,7.25986099243,0.136950656772,2.80736923218,0.106371901929,37.0592041016,95.3451461792,53.0107803345,26.3920192719,125
1630861901808686488,18,1630861901808686488,r200131356/base_footprint,0,1630861901808687306,alta/m1vW10zy74W/map,-11.1646120588,4.89227624202,0.0,0.0,0.0,0.284753666859,0.958600724603,0,65.1517791748,26.0249557495,47.6628189087,96.0241012573,45.8235549927,45.8235549927,65.1517791748,65.1517791748,27.849187851,-0.278125375509,0.0,0.0637814700603,0.398302137852,0.162051409483,0.0982699394226,10.8522262573,0.294280260801,-0.592864990234,-0.00621248362586,7.23608016968,0.136376366019,-1.38144874573,-0.0521936826408,36.8771820068,95.4312362671,53.0596351624,26.4677391052,140
1630861901908223387,19,1630861901908223387,r200131356/base_footprint,0,1630861901908223535,alta/m1vW10zy74W/map,-11.053413968,4.95967492386,0.0,0.0,0.0,0.201505146974,0.979487455633,0,65.4356994629,26.8179721832,47.7301483154,96.0507202148,45.8309631348,45.8309631348,65.4356994629,65.4356994629,22.9143695831,-0.193941012025,0.0,0.0601345524192,0.469792693853,0.112304136157,0.0521695800126,9.7564868927,0.2667568326,-0.538619995117,-0.00563928531483,7.09869766235,0.134115681052,3.80177116394,0.142302408814,36.5744590759,95.5121002197,52.9296607971,26.7161407471,142
1630861902008902605,20,1630861902008902605,r200131356/base_footprint,0,1630861902008903438,alta/m1vW10zy74W/map,-10.9329625938,5.0093995864,0.0,0.0,0.0,0.14879346792,0.988868294519,0,65.5182647705,20.9411773682,47.6960983276,96.5844116211,45.9214668274,45.9214668274,65.5182647705,65.5182647705,24.3270072937,-0.306580662727,0.0,0.0316089019179,0.51081764698,0.0625707060099,0.0309618096799,15.3979797363,0.423729687929,-0.960899353027,-0.010048776865,6.86507797241,0.130053564906,2.52641487122,0.0940816700459,36.3391571045,95.6235122681,52.7865447998,26.8534221649,145
1630861902108485514,21,1630861902108485514,r200131356/base_footprint,0,1630861902108486084,alta/m1vW10zy74W/map,-10.7764401909,5.04493618891,0.0,0.0,0.0,0.0903222140316,0.995912595388,0,64.9425811768,29.6046295166,47.603843689,94.3272399902,46.0629272461,46.0629272461,64.9425811768,64.9425811768,28.0911998749,-0.174648284912,0.0,0.0194852072746,0.57076394558,0.0283052511513,0.00882004387677,6.75212478638,0.18571858108,1.30003356934,0.0135947987437,6.59080123901,0.125172540545,-1.0779876709,-0.0399059429765,36.356754303,95.6272735596,52.6537284851,27.013212204,150
1630861902208912516,22,1630861902208912516,r200131356/base_footprint,0,1630861902208913269,alta/m1vW10zy74W/map,-10.6823665327,5.04855974306,0.0,0.0,0.0,0.0650893051451,0.997879442796,0,65.4932250977,30.6722698212,47.5462303162,95.4223480225,46.0557403564,46.0557403564,65.4932250977,65.4932250977,22.0443515778,-0.0984272137284,0.0,0.0134047456086,0.610258221626,0.01492198091,0.00151723588351,5.91723060608,0.161719366908,0.252738952637,0.00264163804241,6.53923797607,0.124331980944,4.97500228882,0.184127360582,36.5895004272,95.6750869751,52.5949783325,27.0193538666,158
1630861902308360343,23,1630861902308360343,r200131356/base_footprint,0,1630861902308360572,alta/m1vW10zy74W/map,-10.5997129173,5.05563633014,0.0,0.0,0.0,0.0517806063955,0.998658484569,0,65.1560821533,33.2273445129,47.5771102905,95.0441131592,46.0510673523,46.0510673523,65.1560821533,65.1560821533,26.7007980347,-0.264484286308,0.0,0.00321016646922,0.662942111492,0.0044149402529,0.00762510672212,3.70390319824,0.100291848183,0.666000366211,0.00695851631463,6.56795883179,0.1248209849,0.425130844116,0.0156724900007,36.9312477112,95.7101135254,52.6190261841,27.1259288788,160
1630861902408304856,24,1630861902408304856,r200131356/base_footprint,0,1630861902408305085,alta/m1vW10zy74W/map,-10.4956038555,5.07352644702,0.0,0.0,0.0,0.0420924021698,0.999113722096,0,65.2067337036,22.6006183624,47.8909301758,95.0396194458,45.924030304,45.924030304,65.2067337036,65.2067337036,24.4008865356,-0.147712767124,0.0,0.000814533676021,0.703811466694,0.0214956458658,0.0206811130047,14.2751979828,0.387115448713,0.666862487793,0.00696778809652,6.58951950073,0.125482276082,2.75797843933,0.101549841464,36.8758163452,95.7064819336,52.5135498047,27.158864975,155
1630861902508373130,25,1630861902508373130,r200131356/base_footprint,0,1630861902508373276,alta/m1vW10zy74W/map,-10.3216426532,5.0882198543,0.0,0.0,0.0,0.0274362001466,0.999623556606,0,65.2024841309,26.8680438995,47.9535179138,96.1881561279,45.8577537537,45.8577537537,65.2024841309,65.2024841309,27.8963527679,-0.185754582286,0.0,0.00421727495268,0.789060294628,0.0471664965153,0.0429492220283,10.6752262115,0.284344613552,-0.492401123047,-0.00514548551291,6.56974411011,0.125311031938,-0.350387573242,-0.0127201052383,37.5432701111,95.6957550049,52.4274978638,27.5459651947,163
1630861902608384405,26,1630861902608384405,r200131356/base_footprint,0,1630861902608384614,alta/m1vW10zy74W/map,-10.2285423341,5.09553785725,0.0,0.0,0.0,0.0199428327261,0.999801121935,0,65.0383834839,28.571428299,48.0214042664,95.349861145,45.7559089661,45.7559089661,65.0383834839,65.0383834839,26.7323532104,-0.0759917199612,0.0,0.0174426995218,0.856500566006,0.0774307474494,0.0599880516529,9.29808998108,0.245529666543,0.349769592285,0.00365486880764,6.69323730469,0.127613842487,1.11737632751,0.0401216223836,37.86951828,95.6996307373,52.4491462708,27.849729538,164
1630861902708209409,27,1630861902708209409,r200131356/base_footprint,0,1630861902708209627,alta/m1vW10zy74W/map,-10.1129832913,5.1046191214,0.0,0.0,0.0,0.0130498022016,0.999914847706,0,64.6343994141,29.2035388947,48.2176475525,95.5345458984,45.7873954773,45.7873954773,64.6343994141,64.6343994141,35.0090522766,-0.332122653723,0.0,0.0287224259228,0.939782977104,0.113165810704,0.0844433903694,8.73322486877,0.230204790831,0.162696838379,0.00170012039598,6.59726715088,0.125938907266,-6.83916473389,-0.242782816291,37.9367637634,95.6972427368,52.3846626282,28.1698875427,164
1630861902808936199,28,1630861902808936199,r200131356/base_footprint,0,1630861902808937087,alta/m1vW10zy74W/map,-10.0216385069,5.10728926104,0.0,0.0,0.0,0.00877744010192,0.999961477531,0,64.837272644,30.8565540314,48.2176475525,95.7456436157,45.8323402405,45.8323402405,64.837272644,64.837272644,32.6026763916,-0.428521692753,0.0,0.0368648171425,1.01870644093,0.123447224498,0.0865824073553,7.24083518982,0.190061196685,-0.0103378295898,-0.00010798346193,6.60218429565,0.125912919641,-4.30006217957,-0.151931628585,38.0973892212,95.7353057861,52.4345245361,28.302614212,168
1630861902908435867,29,1630861902908435867,r200131356/base_footprint,0,1630861902908436128,alta/m1vW10zy74W/map,-9.9352756037,5.1066183825,0.0,0.0,0.0,0.00541308728808,0.999985349136,0,64.484161377,29.2035388947,48.3466148376,95.7590408325,45.6730003357,45.6730003357,64.484161377,64.484161377,37.2860908508,-0.0986405462027,0.0,0.0344202741981,1.06176400185,0.11983962357,0.0854193493724,8.55816078186,0.226636007428,-0.0230560302734,-0.000240829307586,6.75138092041,0.128783226013,-8.75971794128,-0.307074368,37.7616996765,95.7359848022,52.4243812561,28.5263729095,178
1630861903008988044,30,1630861903008988044,r200131356/base_footprint,0,1630861903008988820,alta/m1vW10zy74W/map,-9.74349009724,5.10892764247,0.0,0.0,0.0,0.00049193848552,0.999999878998,0,64.3083953857,28.7925701141,48.4597091675,94.1491317749,45.7469291687,45.7469291687,64.3083953857,64.3083953857,35.4526023865,-0.246548593044,0.0,0.0404485575855,1.15978300571,0.117275334895,0.0768267810345,8.56068992615,0.229181870818,1.62350463867,0.0169516541064,6.58938980103,0.125904724002,-6.37895011902,-0.219406560063,37.3532600403,95.7726364136,52.3363189697,29.0736522675,174
1630861903108508611,31,1630861903108508611,r200131356/base_footprint,0,1630861903108508876,alta/m1vW10zy74W/map,-9.63889301557,5.1073966773,0.0,0.0,0.0,8.08151131127e-05,0.999999996734,0,64.7799758911,33.2273445129,48.5005760193,95.9028625488,45.8731384277,45.8731384277,64.7799758911,64.7799758911,34.6406898499,-0.196219787002,0.0,0.0375190675259,1.26551747322,0.0914748460054,0.0539557784796,3.84621047974,0.103745393455,-0.13990020752,-0.00146090099588,6.37289047241,0.121978469193,-4.90933990479,-0.165123343468,37.0735549927,95.7629623413,52.2460289001,29.7313499451,173
1630861903208570353,32,1630861903208570353,r200131356/base_footprint,0,1630861903208570782,alta/m1vW10zy74W/map,-9.46088039337,5.10556436242,0.0,0.0,0.0,-0.00143858229203,0.99999896524,0,64.4547271729,27.1212902069,48.5242919922,94.4155807495,45.8805122375,45.8805122375,64.4547271729,64.4547271729,35.2205696106,-0.26479947567,0.0,0.0348349623382,1.35809075832,0.0791243091226,0.0442893430591,8.88363075256,0.246733799577,1.34811401367,0.0140775060281,6.16205978394,0.118404209614,-4.63494491577,-0.151539981365,36.0049209595,95.7636947632,52.0425720215,30.5856246948,174
1630861903308574536,33,1630861903308574536,r200131356/base_footprint,0,1630861903308574721,alta/m1vW10zy74W/map,-9.38992670348,5.10729733495,0.0,0.0,0.0,0.00117190023322,0.999999313325,0,64.7137908936,30.4812831879,48.5883750916,95.3725738525,46.0242805481,46.0242805481,64.7137908936,64.7137908936,35.5552635193,-0.350641071796,0.0,0.029269753024,1.42120623589,0.0786796212196,0.049409866333,4.7944393158,0.135913282633,0.393569946289,0.00410969834775,5.70441818237,0.110275693238,-4.63437080383,-0.149878293276,35.2757225037,95.7661437988,51.7286987305,30.9208927155,178
1630861903408533379,34,1630861903408533379,r200131356/base_footprint,0,1630861903408533600,alta/m1vW10zy74W/map,-9.27665293529,5.10489907286,0.0,0.0,0.0,0.000225275159039,0.999999974626,0,64.5279541016,28.1624145508,52.3050117493,96.0412063599,46.0209655762,46.0209655762,64.5279541016,64.5279541016,41.2715530396,-0.389877617359,0.0,0.0322615876794,1.50319600105,0.0849381312728,0.0526765435934,5.42828369141,0.161600798368,-0.27229309082,-0.00284323049709,5.03328704834,0.0985870286822,-9.67625045776,-0.306255996227,33.5906982422,95.768913269,51.0542526245,31.5953025818,188
1630861903508233889,35,1630861903508233889,r200131356/base_footprint,0,1630861903508234141,alta/m1vW10zy74W/map,-9.19197836593,5.10631520783,0.0,0.0,0.0,0.0022607502223,0.999997444501,0,64.8665542603,30.0202846527,51.7100791931,96.2098999023,46.0481796265,46.0481796265,64.8665542603,64.8665542603,36.0779800415,-0.410802215338,0.0,0.0297942589968,1.60100865364,0.0755601674318,0.0457659065723,2.61300086975,0.0800716429949,-0.442184448242,-0.00461725983769,4.69302368164,0.0924894064665,-4.2124786377,-0.132195591927,32.6332855225,95.7677154541,50.7412033081,31.8655014038,194
1630861903608965333,36,1630861903608965333,r200131356/base_footprint,0,1630861903608965950,alta/m1vW10zy74W/map,-9.00530092969,5.10773288132,0.0,0.0,0.0,0.00261884185402,0.999996570828,0,64.7757644653,24.2273178101,53.0426521301,96.9572601318,46.0391273499,46.0391273499,64.7757644653,64.7757644653,40.3049125671,-0.218794599175,0.0,0.0258522611111,1.69976866245,0.0726355016232,0.0467832423747,7.5805721283,0.238323643804,-1.2229309082,-0.0127742150798,4.51745223999,0.0893543884158,-7.81878662109,-0.240680798888,31.8078899384,95.7343292236,50.5565795898,32.486125946,198
1630861903708625849,37,1630861903708625849,r200131356/base_footprint,0,1630861903708626019,alta/m1vW10zy74W/map,-8.90470434552,5.10939064483,0.0,0.0,0.0,0.00328527567735,0.999994603467,0,64.9936676025,27.4509811401,54.6454124451,96.5549316406,45.9427146912,45.9427146912,64.9936676025,64.9936676025,33.8930511475,-0.339597672224,0.0,0.0288146771491,1.78546798229,0.0968805328012,0.0680658593774,4.16769218445,0.131811097264,-0.850601196289,-0.00888780225068,4.42001342773,0.0877635851502,-0.847827911377,-0.0256565958261,31.6186733246,95.7043304443,50.3627281189,33.0452232361,183
1630861903808420165,38,1630861903808420165,r200131356/base_footprint,0,1630861903808420444,alta/m1vW10zy74W/map,-8.80745485413,5.10981796978,0.0,0.0,0.0,0.0016228222555,0.999998683223,0,64.5819168091,27.0782699585,54.8471908569,96.1372909546,45.6980285645,45.6980285645,64.5819168091,64.5819168091,37.1584510803,-0.425018697977,0.0,0.031041873619,1.90714657307,0.122816197574,0.0917743220925,3.97266960144,0.127940401435,-0.406677246094,-0.00424814224243,4.49560165405,0.0895651802421,-3.53623580933,-0.105175577104,31.0509395599,95.7306137085,50.1936302185,33.622215271,183
1630861903908685440,39,1630861903908685440,r200131356/base_footprint,0,1630861903908685661,alta/m1vW10zy74W/map,-8.71227637368,5.10898915849,0.0,0.0,0.0,0.000611210126456,0.999999813211,0,64.1407928467,22.2168197632,55.8051681519,95.7759857178,45.3819465637,45.3819465637,64.1407928467,64.1407928467,40.3842468262,-0.208474010229,0.0,0.0436882041395,1.99739432335,0.153242379427,0.109554179013,8.70334434509,0.281477957964,-0.0587844848633,-0.000614147575106,4.76198959351,0.0949664115906,-7.01225280762,-0.210123881698,30.9201641083,95.7172012329,50.1439361572,33.3719940186,186
1630861904008566002,40,1630861904008566002,r200131356/base_footprint,0,1630861904008566193,alta/m1vW10zy74W/map,-8.52147299341,5.10755148346,0.0,0.0,0.0,0.00151980936179,0.999998845089,0,63.8304328918,24.7830276489,51.4395523071,95.5849990845,45.108505249,45.108505249,63.8304328918,63.8304328918,42.3300437927,-0.190785363317,0.0,0.0481015853584,2.03942012787,0.164354667068,0.116253085434,5.19336509705,0.173248499632,0.123611450195,0.00129153952003,4.85869598389,0.0972377061844,-8.6608543396,-0.257233828306,29.976392746,95.7086105347,49.9672012329,33.6691894531,173
1630861904108287976,41,1630861904108287976,r200131356/base_footprint,0,1630861904108288129,alta/m1vW10zy74W/map,-8.43582846667,5.10892163955,0.0,0.0,0.0,5.08716462673e-05,0.999999998706,0,64.1911697388,22.8543872833,48.9829521179,96.4965133667,44.9738845825,44.9738845825,64.1911697388,64.1911697388,37.664352417,-0.232505068183,0.0,0.0555074177682,2.16298556328,0.186256676912,0.130749255419,7.36521339417,0.24372304976,-0.780952453613,-0.00815909635276,5.1160697937,0.102137640119,-4.08964157104,-0.121807202697,30.2196006775,95.7155609131,50.0899543762,33.5747108459,174
1630861904208377280,42,1630861904208377280,r200131356/base_footprint,0,1630861904208377549,alta/m1vW10zy74W/map,-8.28333139102,5.1046666821,0.0,0.0,0.0,-0.0024601412149,0.999996973848,0,64.039276123,17.4573059082,48.9829521179,96.7269058228,44.6974639893,44.6974639893,64.039276123,64.039276123,38.2425346375,-0.216177091002,0.0,0.0573526881635,2.27589678764,0.167436152697,0.110083468258,12.5897865295,0.419001817703,-1.11825561523,-0.0116961766034,5.65441131592,0.112297929823,-5.05305862427,-0.152248814702,30.0470924377,95.6086502075,50.3518753052,33.1894760132,171
1630861904308508052,43,1630861904308508052,r200131356/base_footprint,0,1630861904308508326,alta/m1vW10zy74W/map,-8.18360167859,5.102620631,0.0,0.0,0.0,-0.00307278667959,0.99999527898,0,64.0338668823,21.2523727417,48.6018638611,96.4722442627,44.5486831665,44.5486831665,64.0338668823,64.0338668823,35.8162841797,-0.0712022185326,0.0,0.0612233355641,2.35394477844,0.143491715193,0.0822683870792,8.38205718994,0.282848596573,-0.889533996582,-0.00930643174797,5.7141494751,0.113685384393,-2.30568313599,-0.0688045918941,29.6344299316,95.5827102661,50.2628326416,33.5106010437,165
1630861904409048376,44,1630861904409048376,r200131356/base_footprint,0,1630861904409049283,alta/m1vW10zy74W/map,-8.07816250204,5.09966434478,0.0,0.0,0.0,0.000595098365702,0.999999822929,0,63.9992103577,20.9411773682,48.6118927002,96.8851547241,44.4466171265,44.4466171265,63.9992103577,63.9992103577,36.8242797852,-0.105849690735,0.0,0.0455250404775,2.44872784615,0.107680976391,0.0621559396386,8.06772041321,0.278111934662,-1.39719390869,-0.0146321477368,5.7413520813,0.114396981895,-2.94318008423,-0.0868679061532,29.0088977814,95.4879608154,50.1879692078,33.8810997009,168
1630861904508397939,45,1630861904508397939,r200131356/base_footprint,0,1630861904508398140,alta/m1vW10zy74W/map,-7.91874946856,5.10200164742,0.0,0.0,0.0,0.00453755460031,0.999989705246,0,63.5280952454,24.4380683899,48.6258087158,95.2886352539,44.4352874756,44.4352874756,63.5280952454,63.5280952454,39.4344673157,-0.46055200696,0.0,0.0273064095527,2.51654863358,0.0772853195667,0.0499789081514,3.32339096069,0.119712404907,0.234085083008,0.00245056976564,5.59770584106,0.111880287528,-5.19178390503,-0.151617318392,27.7614593506,95.5227203369,50.0329933167,34.2426834106,163
1630861904608448802,46,1630861904608448802,r200131356/base_footprint,0,1630861904608449088,alta/m1vW10zy74W/map,-7.80579939533,5.10310933693,0.0,0.0,0.0,0.00643924598726,0.999979267841,0,63.9750137329,22.5251083374,48.6003913879,95.1462173462,44.4096450806,44.4096450806,63.9750137329,63.9750137329,30.6003284454,-0.340889692307,0.0,0.0268353912979,2.61006641388,0.0586039684713,0.031768579036,4.73438835144,0.173678487539,0.3056640625,0.00320228422061,5.56959152222,0.111438110471,3.76411628723,0.109535202384,27.2594966888,95.4518814087,49.9792366028,34.3644447327,163
1630861904708485624,47,1630861904708485624,r200131356/base_footprint,0,1630861904708485825,alta/m1vW10zy74W/map,-7.69598957679,5.10541859591,0.0,0.0,0.0,0.00759656079835,0.999971145716,0,63.5906562805,20.6121463776,50.3716316223,94.2975997925,44.432094574,44.432094574,63.5906562805,63.5906562805,34.7061805725,-0.334991008043,0.0,0.0190534256399,2.69500160217,0.037453327328,0.0183999016881,6.36842727661,0.236037507653,1.09601593018,0.0114894052967,5.55583953857,0.111143611372,0.114845275879,0.00329815899022,26.9805736542,95.3936157227,49.9879341125,34.8210258484,167
1630861904808413736,48,1630861904808413736,r200131356/base_footprint,0,1630861904808413940,alta/m1vW10zy74W/map,-7.61265712238,5.10332662694,0.0,0.0,0.0,0.00695288484098,0.999975828404,0,63.9556884766,21.5686283112,52.9073753357,95.0964355469,44.4761886597,44.4761886597,63.9556884766,63.9556884766,31.4876403809,-1.08004689217,0.0,0.0104866037145,2.79517436028,0.018977355212,0.00849075149745,5.372838974,0.199426367879,0.262550354004,0.0027532838285,5.36024856567,0.107556819916,3.90316009521,0.110287420452,26.9414672852,95.3589859009,49.8364372253,35.3908004761,162
1630861904908663281,49,1630861904908663281,r200131356/base_footprint,0,1630861904908663468,alta/m1vW10zy74W/map,-7.42848325158,5.1055947871,0.0,0.0,0.0,0.00562783327749,0.999984163621,0,63.3226737976,22.8543872833,52.1538619995,95.7230682373,44.5433235168,44.5433235168,63.3226737976,63.3226737976,45.8628425598,-0.711749613285,0.0,0.00884484872222,2.89139533043,0.0132887363434,0.0044438871555,3.56784820557,0.13503202796,-0.41658782959,-0.00437103351578,5.00273513794,0.100971408188,-8.8204536438,-0.238117843866,26.4222354889,95.3064804077,49.5460586548,37.042388916,159
1630861905008490908,50,1630861905008490908,r200131356/base_footprint,0,1630861905008491161,alta/m1vW10zy74W/map,-7.34082674165,5.10733673927,0.0,0.0,0.0,0.00655740047149,0.999978500018,0,63.4701652527,30.9674282074,50.7551345825,95.8643035889,44.7104797363,44.7104797363,63.4701652527,63.4701652527,45.5217056274,-0.806577146053,0.0,0.0100813340396,2.9755115509,0.0124621288851,0.00238079507835,-4.09773254395,-0.152503862977,-0.552978515625,-0.00580181321129,4.98798370361,0.100364945829,-7.95767211914,-0.211842849851,26.8696956635,95.3113250732,49.6984634399,37.5640335083,160
1630861905108378380,51,1630861905108378380,r200131356/base_footprint,0,1630861905108378698,alta/m1vW10zy74W/map,-7.25048181298,5.10661977117,0.0,0.0,0.0,0.00624209572807,0.999980517931,0,63.6167755127,28.0505599976,51.1693496704,96.4043502808,44.8766212463,44.8766212463,63.6167755127,63.6167755127,46.6212348938,-1.59743893147,0.0,0.007252254989,3.0467300415,0.00677421642467,0.000478038477013,-1.40212249756,-0.0526155605912,-1.07225799561,-0.0112476078793,4.71427536011,0.0950633212924,-8.30657196045,-0.216798767447,26.6484375,95.3320922852,49.5908966064,38.3146629333,158
1630861905209019284,52,1630861905209019284,r200131356/base_footprint,0,1630861905209019657,alta/m1vW10zy74W/map,-7.06501932828,5.11009030958,0.0,0.0,0.0,0.0026777369698,0.999996414856,0,63.4401473999,27.675989151,52.433506012,96.1652145386,44.9487953186,44.9487953186,63.4401473999,63.4401473999,49.7191009521,-0.811264634132,0.0,0.0064033982344,3.13474822044,0.00390415894799,0.00249923951924,-0.640872955322,-0.0237052049488,-0.726699829102,-0.00761432480067,4.44282531738,0.0899509936571,-10.4267234802,-0.265362501144,27.0351161957,95.4385147095,49.391620636,39.2923774719,157
1630861905308496356,53,1630861905308496356,r200131356/base_footprint,0,1630861905308496517,alta/m1vW10zy74W/map,-6.97264130785,5.11058915048,0.0,0.0,0.0,0.00256957443663,0.999996698638,0,64.2743148804,25.3945484161,53.6830711365,95.856300354,44.9409065247,44.9409065247,64.2743148804,64.2743148804,33.5067481995,-1.426035285,0.0,0.00807500444353,3.24379563332,0.00465322472155,0.00342177948914,1.77213859558,0.0652320459485,-0.407218933105,-0.00426634727046,4.43055725098,0.0897392332554,6.36659240723,0.159670397639,27.1666870117,95.4490814209,49.3714637756,39.8733406067,164
1630861905408458175,54,1630861905408458175,r200131356/base_footprint,0,1630861905408458403,alta/m1vW10zy74W/map,-6.88171910895,5.11133833213,0.0,0.0,0.0,0.00393301150168,0.99999226568,0,64.1962661743,26.9449710846,54.3872795105,96.9834823608,45.0153656006,45.0153656006,64.1962661743,64.1962661743,39.7736930847,-1.50710368156,0.0,0.00735670607537,3.28819203377,0.0032559086103,0.00410079723224,0.60572052002,0.0219856742769,-1.52002716064,-0.015922607854,4.19247817993,0.0851993858814,0.652851104736,0.0161490701139,27.5506916046,95.4634552002,49.2078437805,40.4265441895,173
1630861905508264770,55,1630861905508264770,r200131356/base_footprint,0,1630861905508265047,alta/m1vW10zy74W/map,-6.73023655068,5.11014826844,0.0,0.0,0.0,0.00447158744923,0.999990002403,0,64.2866516113,31.372549057,52.0588989258,97.0191955566,45.1979942322,45.1979942322,64.2866516113,64.2866516113,40.2476615906,-0.354123473167,0.0,0.00361204892397,3.41098356247,0.00155485118739,0.00516689987853,-3.75041770935,-0.135775819421,-1.44862365723,-0.0151576334611,3.82218170166,0.0779715999961,1.09348678589,0.0264503248036,27.6221313477,95.5705718994,49.0201759338,41.3411483765,165
1630861905608475021,56,1630861905608475021,r200131356/base_footprint,0,1630861905608475270,alta/m1vW10zy74W/map,-6.62884952333,5.11209226096,0.0,0.0,0.0,0.00660363481148,0.999978195766,0,64.2164077759,28.4313716888,50.0998344421,96.8678207397,45.3598632812,45.3598632812,64.2164077759,64.2164077759,42.7153511047,-1.09165132046,0.0,0.00202518422157,3.46813416481,0.0034257073421,0.00545089133084,-1.92718887329,-0.0727126300335,-1.3265838623,-0.0138849345967,3.40913009644,0.0699036419392,-1.50092315674,-0.0364174209535,26.5041828156,95.5412368774,48.7689933777,41.214427948,180
1630861905708687055,57,1630861905708687055,r200131356/base_footprint,0,1630861905708687288,alta/m1vW10zy74W/map,-6.48998189884,5.11455628327,0.0,0.0,0.0,0.00567232869285,0.999983912214,0,64.1547241211,26.9776878357,50.0451507568,95.8541259766,45.3928413391,45.3928413391,64.1547241211,64.1547241211,40.5324707031,-1.3681384325,0.0,0.00188724603504,3.51338863373,0.00428956467658,0.00617681071162,-1.08512878418,-0.0419089049101,-0.304779052734,-0.00318975537084,3.31979370117,0.0681505650282,0.862071990967,0.0208257399499,25.8925590515,95.5493469238,48.7126350403,41.3945426941,170
1630861905808346452,58,1630861905808346452,r200131356/base_footprint,0,1630861905808346676,alta/m1vW10zy74W/map,-6.39625037535,5.11498492042,0.0,0.0,0.0,0.0049606060552,0.999987696118,0,64.1163635254,18.1585674286,48.5907058716,95.9515533447,45.3987731934,45.3987731934,64.1163635254,64.1163635254,41.6377372742,-0.531332314014,0.0,0.00319650769234,3.60837340355,0.00336939282715,0.00656590051949,7.10204124451,0.281150847673,-0.424011230469,-0.00443862797692,3.34125518799,0.0685525909066,-0.310256958008,-0.00750727998093,25.2606086731,95.5275421143,48.7400283813,41.3274803162,171
1630861905908342004,59,1630861905908342004,r200131356/base_footprint,0,1630861905908342292,alta/m1vW10zy74W/map,-6.27145747526,5.11189128912,0.0,0.0,0.0,0.00246469827914,0.999996962627,0,64.3625640869,20.8924942017,48.5855178833,95.3351135254,45.1580352783,45.1580352783,64.3625640869,64.3625640869,32.3870429993,-0.763755381107,0.0,0.00335830566473,3.64763617516,0.00232983776368,0.00568814342842,3.02357292175,0.126424342394,0.149307250977,0.00156368175521,3.19025039673,0.0659847706556,8.89143753052,0.215401276946,23.9160671234,95.4844207764,48.348285675,41.2784805298,176
1630861906008795792,60,1630861906008795792,r200131356/base_footprint,0,1630861906008796029,alta/m1vW10zy74W/map,-6.11414358852,5.11322868518,0.0,0.0,0.0,0.000269575430368,0.999999963665,0,63.7514915466,19.8782958984,50.2514152527,96.1388168335,44.9508514404,44.9508514404,63.7514915466,63.7514915466,44.0421142578,-0.346178263426,0.0,0.000885043351445,3.70482158661,0.00279241986573,0.00367746315897,3.12561035156,0.135873019695,-0.684539794922,-0.00717138964683,3.3664894104,0.0696745589375,-2.47640609741,-0.0595781058073,23.00390625,95.4542770386,48.3173408508,41.5657081604,167
1630861906108399096,61,1630861906108399096,r200131356/base_footprint,0,1630861906108399337,alta/m1vW10zy74W/map,-6.09157714479,5.11273220686,0.0,0.0,0.0,0.00114105986245,0.999999348991,0,63.4696807861,16.7100467682,54.0581436157,96.3666305542,44.792049408,44.792049408,63.4696807861,63.4696807861,48.2197647095,-0.946913003922,0.0,0.000353201030521,3.75577163696,0.00116765708663,0.000814456085209,6.29385948181,0.273599594831,-0.912353515625,-0.00955801643431,3.52529144287,0.0729612037539,-6.65405654907,-0.160085245967,23.00390625,95.4542770386,48.3173408508,41.5657081604,167
1630861906208334455,62,1630861906208334455,r200131356/base_footprint,0,1630861906208334683,alta/m1vW10zy74W/map,-5.90895749757,5.11451354566,0.0,0.0,0.0,0.000108710575805,0.999999994091,0,63.7748794556,14.6277980804,55.9487762451,95.7056350708,44.7066497803,44.7066497803,63.7748794556,63.7748794556,39.4243011475,0.498412519693,0.0,0.00369829987176,3.79139208794,0.00643007876351,0.00273177889176,6.77468681335,0.316537380219,-0.379028320312,-0.00397610198706,3.24378204346,0.0676486492157,1.74897003174,0.0424782857299,21.4024848938,95.3266067505,47.9504318237,41.1732711792,151
1630861906308256138,63,1630861906308256138,r200131356/base_footprint,0,1630861906308256332,alta/m1vW10zy74W/map,-5.81625199021,5.11366644438,0.0,0.0,0.0,0.000489073930362,0.999999880403,0,64.0137710571,23.2736568451,55.7530097961,95.9148330688,44.8038101196,44.8038101196,64.0137710571,64.0137710571,36.9267044067,-0.0683910176158,0.0,0.00235480349511,3.85228657722,0.00739308213815,0.00503827864304,-2.11656761169,-0.100040584803,-0.600135803223,-0.00629636179656,3.16321182251,0.0659455507994,4.08976364136,0.0997102856636,21.1570892334,95.3146972656,47.9670219421,41.0164680481,149
1630861906408297151,64,1630861906408297151,r200131356/base_footprint,0,1630861906408297275,alta/m1vW10zy74W/map,-5.6384418307,5.11570514966,0.0,0.0,0.0,0.00367813926237,0.999993235623,0,63.5613632202,24.6646022797,54.7966880798,95.527671814,44.8900985718,44.8900985718,63.5613632202,63.5613632202,44.6081504822,-1.47342097759,0.0,0.00280658551492,3.88919520378,0.000836424820591,0.0036430102773,-3.32092666626,-0.155593007803,-0.251434326172,-0.00263900356367,2.97871017456,0.0622265376151,-3.65538024902,-0.0892584398389,21.3436756134,95.2762374878,47.8688087463,40.9527702332,148
1630861906508272606,65,1630861906508272606,r200131356/base_footprint,0,1630861906508272860,alta/m1vW10zy74W/map,-5.55041428924,5.11678453069,0.0,0.0,0.0,0.00444968132879,0.999990100119,0,63.8143196106,28.3887462616,48.5990333557,95.3220062256,45.3063049316,45.3063049316,63.8143196106,63.8143196106,43.8095703125,-0.494254678488,0.0,0.00163341418374,3.93046355247,0.00229310919531,0.000659695011564,-5.67465019226,-0.24982945621,-0.0243835449219,-0.000255867285887,2.75788116455,0.0573791302741,-2.89405822754,-0.0707325413823,22.7140960693,95.2976226807,48.0641860962,40.915512085,145
1630861906608724709,66,1630861906608724709,r200131356/base_footprint,0,1630861906608725026,alta/m1vW10zy74W/map,-5.43878692305,5.11648900066,0.0,0.0,0.0,0.00601862209725,0.99998188793,0,64.7267150879,29.4117641449,48.5990333557,95.5788421631,45.6304550171,45.6304550171,64.7267150879,64.7267150879,31.8119354248,-0.100187368691,0.0,0.0023669230286,3.95333099365,0.000806523428764,0.00156039977446,-6.13304328918,-0.263461351395,-0.0511016845703,-0.000534940802027,2.393409729,0.04983792454,9.02510070801,0.221002832055,23.2787208557,95.5277404785,48.0238647461,40.8370361328,163
1630861906809480262,67,1630861906809480262,r200131356/base_footprint,0,1630861906809483315,alta/m1vW10zy74W/map,-5.2349049802,5.12008775455,0.0,0.0,0.0,0.00631711129923,0.999980046853,0,64.5216827393,27.9918861389,48.5167579651,95.8317260742,45.8725852966,45.8725852966,64.5216827393,64.5216827393,39.0278549194,-1.32060825825,0.0,0.000661677506287,4.01227140427,0.00793913286179,0.00727745518088,-3.48637199402,-0.142268881202,-0.329528808594,-0.00345048401505,2.28490066528,0.0474464260042,2.23015594482,0.0540538877249,24.5055141449,95.5021972656,48.1574859619,41.2580108643,163
1630861906908371042,68,1630861906908371042,r200131356/base_footprint,0,1630861906908371247,alta/m1vW10zy74W/map,-5.08118712886,5.12343662548,0.0,0.0,0.0,0.0037322784054,0.999993035025,0,64.5129623413,26.4705886841,48.4184303284,96.109954834,46.0246124268,46.0246124268,64.5129623413,64.5129623413,41.8284111023,-1.50650000572,0.0,0.00130068918224,4.02642822266,0.00696345884353,0.00566276954487,-2.62571907043,-0.11011672765,-0.541885375977,-0.00567015074193,1.6840171814,0.0352979563177,-0.793087005615,-0.0193269345909,23.8448696136,95.568069458,47.7086296082,41.0353240967,193
1630861907008871268,69,1630861907008871268,r200131356/base_footprint,0,1630861907008871587,alta/m1vW10zy74W/map,-4.96714265553,5.12468687564,0.0,0.0,0.0,0.00492599939987,0.999987867191,0,64.5911178589,27.3657283783,48.356174469,96.5050048828,46.1430206299,46.1430206299,64.5911178589,64.5911178589,43.1224594116,-1.20088982582,0.0,0.00429374398664,4.07061433792,0.0033505205065,0.000943223480135,-3.86685752869,-0.164555042982,-0.919860839844,-0.00962347071618,1.38547515869,0.029150409624,-2.13037872314,-0.0519704967737,23.4988708496,95.585144043,47.5284957886,40.9920806885,198
1630861907108210656,70,1630861907108210656,r200131356/base_footprint,0,1630861907108211034,alta/m1vW10zy74W/map,-4.79034139655,5.12573366606,0.0,0.0,0.0,0.00286035052427,0.999995909189,0,64.6063156128,22.268907547,48.3685836792,96.8851928711,46.0688972473,46.0688972473,64.6063156128,64.6063156128,43.4171104431,-1.8101118803,0.0,0.00312132108957,4.0783700943,0.000561495951843,0.00368281686679,1.01661682129,0.0436587482691,-1.28770446777,-0.01347006578,1.33794403076,0.0282225944102,-2.2643661499,-0.0550234541297,23.2855243683,95.5974884033,47.4068412781,41.1527442932,205
1630861907209045619,71,1630861907209045619,r200131356/base_footprint,0,1630861907209046564,alta/m1vW10zy74W/map,-4.71030501918,5.12499487009,0.0,0.0,0.0,0.00179037276888,0.999998397281,0,64.7025604248,21.2184867859,48.3843955994,96.1949462891,45.9459342957,45.9459342957,64.7025604248,64.7025604248,37.8717575073,-0.84983164072,0.0,0.00154407357331,4.09829854965,0.00489743240178,0.00644150562584,1.86289215088,0.0807097405195,-0.604103088379,-0.00631967512891,1.5080871582,0.0317799635231,2.91911697388,0.0715629905462,23.0813789368,95.5908432007,47.4540214539,40.7908744812,203
1630861907308268485,72,1630861907308268485,r200131356/base_footprint,0,1630861907308268703,alta/m1vW10zy74W/map,-4.58332310671,5.12229457531,0.0,0.0,0.0,0.00177458276206,0.999998425427,0,64.7065963745,22.6285114288,48.4222564697,96.3212051392,45.9846763611,45.9846763611,64.7065963745,64.7065963745,38.6721458435,-1.95913350582,0.0,0.00328796380199,4.10088348389,0.00500739738345,0.00829536095262,0.0059642791748,0.000263504189206,-0.704406738281,-0.00736697670072,1.40599060059,0.029668090865,2.36106491089,0.0575403384864,22.634475708,95.6167984009,47.3906669617,41.0332107544,200
1630861907408392636,73,1630861907408392636,r200131356/base_footprint,0,1630861907408392872,alta/m1vW10zy74W/map,-4.48437568952,5.12210097601,0.0,0.0,0.0,0.00181892504046,0.999998345754,0,64.1575698853,22.9567928314,48.4380302429,95.8092498779,46.0614280701,46.0614280701,64.1575698853,64.1575698853,47.5404777527,-1.49491715431,0.0,0.00328117236495,4.09729957581,0.0101317008957,0.0134128732607,-0.636808395386,-0.0285308621824,-0.346061706543,-0.00362508022226,1.20191192627,0.0254301093519,-6.33340072632,-0.153696924448,22.319984436,95.4631881714,47.2633399963,41.2070770264,186
1630861907508655333,74,1630861907508655333,r200131356/base_footprint,0,1630861907508655572,alta/m1vW10zy74W/map,-4.32184232049,5.1257115023,0.0,0.0,0.0,0.00317374815366,0.999994963649,0,64.7000045776,21.9251327515,48.4294052124,95.2020568848,46.2989234924,46.2989234924,64.7000045776,64.7000045776,38.155670166,-1.94503641129,0.0,0.00335370446555,4.10259866714,0.0132531691343,0.0166068729013,-0.00789260864258,-0.000360109610483,0.337028503418,0.00352765060961,0.939483642578,0.0198881309479,2.83762359619,0.0692216530442,21.9172401428,95.5390853882,47.238407135,40.9932937622,184
1630861907609373251,75,1630861907609373251,r200131356/base_footprint,0,1630861907609376260,alta/m1vW10zy74W/map,-4.22356621385,5.12505131424,0.0,0.0,0.0,0.00367270567437,0.999993255594,0,64.7141265869,17.4406604767,48.4756698608,94.8083496094,46.3777999878,46.3777999878,64.7141265869,64.7141265869,37.3360786438,-2.00692844391,0.0,0.00499205570668,4.09579849243,0.0127767091617,0.0177687648684,4.64896965027,0.210459366441,0.749931335449,0.00784789491445,0.928173065186,0.0196206308901,3.96348190308,0.0959691032767,22.089630127,95.5582809448,47.305973053,41.2995605469,184
1630861907708568108,76,1630861907708568108,r200131356/base_footprint,0,1630861907708568355,alta/m1vW10zy74W/map,-4.10686966394,5.12649981002,0.0,0.0,0.0,0.00760506763245,0.999971081055,0,64.6833877563,10.5077924728,48.3968658447,95.4490432739,46.4195098877,46.4195098877,64.6833877563,64.6833877563,40.6462440491,-1.80281710625,0.0,0.00620079180226,4.10569667816,0.00864110793918,0.0148418992758,11.5984277725,0.524668037891,0.0915145874023,0.000957861135248,1.07081985474,0.022548167035,1.03943634033,0.024935092777,22.1062202454,95.5405578613,47.4903297424,41.6856803894,181
1630861907808550000,77,1630861907808550000,r200131356/base_footprint,0,1630861907808550188,alta/m1vW10zy74W/map,-4.02273936755,5.12703933368,0.0,0.0,0.0,0.00828671041922,0.999965664626,0,64.2985992432,20.5087432861,48.353225708,94.7997283936,46.2856674194,46.2856674194,64.2985992432,64.2985992432,43.7894096375,-1.75801372528,0.0,0.00432902947068,4.11182880402,0.00773308333009,0.0120621128008,1.7995891571,0.080668926239,0.700340270996,0.00733340065926,1.41329193115,0.0296294074506,-2.01976394653,-0.0483548268676,22.3083324432,95.5000686646,47.6989593506,41.7696456909,173
1630861907908251990,78,1630861907908251990,r200131356/base_footprint,0,1630861907908252282,alta/m1vW10zy74W/map,-3.84545902797,5.12434597883,0.0,0.0,0.0,0.00842983945451,0.999964468272,0,63.8829536438,9.66386508942,48.3808631897,93.5169219971,46.159778595,46.159778595,63.8829536438,63.8829536438,45.2933540344,-1.89432430267,0.0,0.00492689572275,4.09717416763,0.00533852633089,0.0102654220536,12.2136983871,0.558275103569,1.93766784668,0.0202993676066,1.39487075806,0.0293319541961,-3.22185897827,-0.0765805691481,21.8775634766,95.4545898438,47.554649353,42.0714950562,176
1630861908008382420,79,1630861908008382420,r200131356/base_footprint,0,1630861908008382611,alta/m1vW10zy74W/map,-3.75237780879,5.12355038674,0.0,0.0,0.0,0.00650703238295,0.999978829041,0,64.7344207764,23.6883945465,48.4167060852,94.8740386963,46.3699264526,46.3699264526,64.7344207764,64.7344207764,37.1221427917,-2.7575879097,0.0,0.00782994180918,4.09729385376,0.0029151358176,0.0107450773939,-1.47890090942,-0.0665886849165,0.603317260742,0.00631895661354,1.35165023804,0.0283236708492,5.45777130127,0.128177136183,22.2094936371,95.477355957,47.7215766907,42.579914093,180
1630861908108606920,80,1630861908108606920,r200131356/base_footprint,0,1630861908108608443,alta/m1vW10zy74W/map,-3.63466981554,5.12443573463,0.0,0.0,0.0,0.00621513591564,0.999980685856,0,64.7677230835,30.4347820282,48.5585441589,95.1595840454,46.4668464661,46.4668464661,64.7677230835,64.7677230835,38.5974121094,-1.92788541317,0.0,0.00293664657511,4.10636425018,0.00889444258064,0.0118310898542,-8.13906669617,-0.365050703287,0.316459655762,0.00331454514526,1.08452606201,0.0228074602783,4.5103225708,0.104629077017,22.295715332,95.4760437012,47.5513725281,43.1077346802,188
1630861908208951863,81,1630861908208951863,r200131356/base_footprint,0,1630861908208952185,alta/m1vW10zy74W/map,-3.48020539635,5.12099564267,0.0,0.0,0.0,0.00483962142636,0.999988288964,0,64.6910324097,31.6239318848,53.4146537781,95.1172409058,46.5278549194,46.5278549194,64.6910324097,64.6910324097,40.4843025208,-2.09262704849,0.0,0.00375721324235,4.1042432785,0.00752799445763,0.0112852081656,-8.84011268616,-0.387999594212,0.40650177002,0.00425550527871,1.32494735718,0.0276879779994,2.81444549561,0.0650006234646,22.7838191986,95.5237426758,47.8528022766,43.2987480164,186
1630861908308542677,82,1630861908308542677,r200131356/base_footprint,0,1630861908308542957,alta/m1vW10zy74W/map,-3.45530675585,5.1221092232,0.0,0.0,0.0,0.00572976193964,0.999983584779,0,65.172706604,28.3887462616,57.6203079224,95.3302230835,46.5072441101,46.5072441101,65.172706604,65.172706604,32.3582725525,-2.02690339088,0.0,0.00545093975961,4.10009527206,0.00704553583637,0.0124964760616,-5.60492706299,-0.246004715562,0.193519592285,0.00202587945387,1.3455581665,0.0281186904758,10.9404754639,0.252674162388,22.7838191986,95.5237426758,47.8528022766,43.2987480164,186
1630861908408453834,83,1630861908408453834,r200131356/base_footprint,0,1630861908408454645,alta/m1vW10zy74W/map,-3.27620921275,5.12553719462,0.0,0.0,0.0,0.00488971414587,0.999988045276,0,64.1762542725,24.2966747284,59.9679298401,94.9929199219,46.3834762573,46.3834762573,64.1762542725,64.1762542725,47.7434768677,-2.14102935791,0.0,0.00158697704319,4.09975385666,0.0108537878841,0.0124407643452,-1.72392272949,-0.0763718485832,0.54175567627,0.00567077519372,1.21521759033,0.025530481711,-4.19290161133,-0.0962766036391,22.5727519989,95.5346755981,47.5986938477,43.5505752563,197
1630861908508635281,84,1630861908508635281,r200131356/base_footprint,0,1630861908508635479,alta/m1vW10zy74W/map,-3.1569997451,5.13412958537,0.0,0.0,0.0,0.00593701454082,0.999982375774,0,64.8105621338,24.2966747284,59.9679298401,95.2577209473,46.4459953308,46.4459953308,64.8105621338,64.8105621338,37.9543991089,-2.00758528709,0.0,9.32373877731e-05,4.09361410141,0.0106455171481,0.0105522796512,-1.48245239258,-0.0649793073535,0.254928588867,0.00266905571334,1.10270309448,0.0231910254806,5.56344223022,0.127842783928,22.8142223358,95.5126495361,47.5486984253,43.5178413391,200
1630861908608529508,85,1630861908608529508,r200131356/base_footprint,0,1630861908608529780,alta/m1vW10zy74W/map,-2.99865098138,5.13687336953,0.0,0.0,0.0,0.00615269414294,0.999981071998,0,64.9020462036,28.3887462616,59.4411773682,95.1303634644,46.5857467651,46.5857467651,64.9020462036,64.9020462036,37.3585510254,-2.11440110207,0.0,0.00306241866201,4.10422611237,0.00304256775416,0.00610498664901,-5.73845672607,-0.253350257874,0.476699829102,0.00498603144661,0.754577636719,0.0159394275397,6.58721160889,0.149894118309,22.6502895355,95.6070632935,47.3403244019,43.9457626343,213
1630861908708357713,86,1630861908708357713,r200131356/base_footprint,0,1630861908708357932,alta/m1vW10zy74W/map,-2.89112542969,5.13777085487,0.0,0.0,0.0,0.00721109999943,0.99997399968,0,64.7781143188,23.2303085327,58.3875350952,96.0087966919,46.7500534058,46.7500534058,64.7781143188,64.7781143188,44.5262107849,-1.08983409405,0.0,0.00214674579911,4.09903764725,0.00137093267404,0.000775813066866,-0.543998718262,-0.0239791627973,-0.404159545898,-0.00422740541399,0.610248565674,0.0128852333874,-0.483131408691,-0.0109695196152,22.6863098145,95.604637146,47.3603019714,44.0430793762,208
1630861908808532102,87,1630861908808532102,r200131356/base_footprint,0,1630861908808532347,alta/m1vW10zy74W/map,-2.79759659153,5.13874721438,0.0,0.0,0.0,0.00647162913604,0.999979058789,0,64.3799133301,28.607339859,57.6507034302,95.6605453491,46.7947044373,46.7947044373,64.3799133301,64.3799133301,50.9223899841,-1.49794304371,0.0,0.000935349089559,4.09262657166,0.000236319188843,0.000699029944371,-5.94511032104,-0.262335628271,0.0314788818359,0.000328960362822,0.598247528076,0.0126231331378,-6.87633514404,-0.156116932631,22.662229538,95.692024231,47.3929519653,44.0460548401,208
1630861908908445283,88,1630861908908445283,r200131356/base_footprint,0,1630861908908445490,alta/m1vW10zy74W/map,-2.7041574878,5.13844066027,0.0,0.0,0.0,0.00368672996455,0.999993203988,0,64.6118011475,25.2243270874,57.6507034302,95.0316925049,46.7906570435,46.7906570435,64.6118011475,64.6118011475,44.4407691956,-1.99494111538,0.0,0.00087057671044,4.10683012009,0.00324021466076,0.00411079125479,-2.75135421753,-0.122429475188,0.605895996094,0.00633533345535,0.389156341553,0.00824836548418,-0.329845428467,-0.00747763598338,22.4729728699,95.637588501,47.179813385,44.1109237671,211
1630861909008759747,89,1630861909008759747,r200131356/base_footprint,0,1630861909008760057,alta/m1vW10zy74W/map,-2.52260955243,5.14188833173,0.0,0.0,0.0,0.000927536957741,0.999999569838,0,64.2068634033,25.0390415192,54.9215736389,94.7675323486,46.8956642151,46.8956642151,64.2068634033,64.2068634033,51.9127235413,-1.57823526859,0.0,0.0027077998966,4.09995794296,0.00642882287502,0.00913662277162,-1.65123939514,-0.0706025883555,0.960296630859,0.0100315306336,0.390739440918,0.00826325174421,-7.57725143433,-0.170907199383,23.387802124,95.7278289795,47.286403656,44.3354721069,232
1630861909108425178,90,1630861909108425178,r200131356/base_footprint,0,1630861909108425371,alta/m1vW10zy74W/map,-2.43377539423,5.14141764021,0.0,0.0,0.0,-0.00065438555458,0.99999978589,0,64.4898300171,20.5087432861,49.7517433167,95.4047698975,46.7880783081,46.7880783081,64.4898300171,64.4898300171,47.951461792,-1.72015368938,0.0,0.000706066726707,4.09220218658,0.0103165367618,0.0110226031393,2.91851425171,0.124577715993,0.392837524414,0.004100702703,0.474044799805,0.0100301206112,-3.28573226929,-0.0735627114773,23.4272575378,95.7976074219,47.2621231079,44.6657295227,239
1630861909209048565,91,1630861909209048565,r200131356/base_footprint,0,1630861909209049872,alta/m1vW10zy74W/map,-2.32605412035,5.14562591188,0.0,0.0,0.0,0.00141790959654,0.999998994766,0,64.7224884033,18.0672264099,48.4920806885,95.1880722046,46.7932014465,46.7932014465,64.7224884033,64.7224884033,43.0388031006,-2.0631108284,0.0,0.00427002785727,4.10043811798,0.0103961555287,0.0146661829203,5.46396255493,0.232200875878,0.567863464355,0.00593032129109,0.717651367188,0.0151049988344,1.33358764648,0.0300544463098,23.5311889648,95.7559356689,47.5108528137,44.3723907471,267
1630861909308323370,92,1630861909308323370,r200131356/base_footprint,0,1630861909308323598,alta/m1vW10zy74W/map,-2.24552983891,5.14261640855,0.0,0.0,0.0,0.00314508426192,0.99999505421,0,64.395690918,23.3193283081,48.479598999,95.9443588257,46.8576278687,46.8576278687,64.395690918,64.395690918,52.3396492004,-1.6619259119,0.0,0.00398616585881,4.09471273422,0.00857623293996,0.0125623987988,0.947311401367,0.0390376001596,-0.179260253906,-0.00187187455595,0.949752807617,0.0198662374169,-7.98554229736,-0.18004065752,24.2666397095,95.7650985718,47.8073806763,44.3541069031,287
1630861909408506700,93,1630861909408506700,r200131356/base_footprint,0,1630861909408506952,alta/m1vW10zy74W/map,-2.06998708487,5.14815263793,0.0,0.0,0.0,0.00353337053167,0.999993757627,0,64.8059921265,32.4618721008,48.5284805298,96.293800354,46.9663124084,46.9663124084,64.8059921265,64.8059921265,47.3860473633,-1.96551012993,0.0,0.0016851517139,4.09578561783,0.00669532595202,0.00501017412171,-7.16659927368,-0.283317744732,-0.476402282715,-0.00497198104858,1.23937988281,0.0257102400064,-3.03168106079,-0.0683513581753,25.2952728271,95.8173980713,48.2056922913,44.3543663025,325
1630861909508197509,94,1630861909508197509,r200131356/base_footprint,0,1630861909508197756,alta/m1vW10zy74W/map,-1.97086653074,5.1524957402,0.0,0.0,0.0,0.00369895486856,0.999993158843,0,64.9966812134,19.7860965729,48.53307724,96.1390533447,46.7878608704,46.7878608704,64.9966812134,64.9966812134,41.4691696167,-1.32640206814,0.0,0.000954831426498,4.10094022751,0.00434645591304,0.00339162442833,5.720703125,0.224281489849,-0.338790893555,-0.00353642972186,1.43158721924,0.0296890009195,2.98438644409,0.0671349316835,25.5067996979,95.8002624512,48.2194480896,44.4535560608,324
1630861909608561427,95,1630861909608561427,r200131356/base_footprint,0,1630861909608561694,alta/m1vW10zy74W/map,-1.87414239896,5.150971011,0.0,0.0,0.0,0.00357165407045,0.999993621623,0,64.2546081543,26.8680438995,51.0905761719,95.0489044189,46.8820495605,46.8820495605,64.2546081543,64.2546081543,51.9193000793,-1.26624298096,0.0,0.00173826876562,4.09293794632,0.00166139414068,0.0033996629063,-1.61312866211,-0.0638738498092,0.749931335449,0.00782818812877,1.21398544312,0.0252408627421,-7.19020462036,-0.160750061274,25.2549152374,95.7988357544,48.0960350037,44.729095459,312
1630861909708684261,96,1630861909708684261,r200131356/base_footprint,0,1630861909708684485,alta/m1vW10zy74W/map,-1.69174736159,5.14839652821,0.0,0.0,0.0,-5.64030193245e-05,0.999999998409,0,64.7062530518,26.4705886841,56.988571167,95.1949081421,46.8849143982,46.8849143982,64.7062530518,64.7062530518,44.3461952209,-1.63675618172,0.0,0.00122932868544,4.09320831299,0.00565887708217,0.00442954851314,-2.34550476074,-0.0972226560116,0.629463195801,0.00656892592087,0.81937789917,0.0171761885285,1.12058639526,0.0246462654322,24.1250839233,95.8243713379,47.7042922974,45.4667816162,271
1630861909808471188,97,1630861909808471188,r200131356/base_footprint,0,1630861909808471399,alta/m1vW10zy74W/map,-1.62708960478,5.14778240308,0.0,0.0,0.0,0.000204575090272,0.999999979075,0,64.5412902832,27.1212902069,63.679473877,94.4202270508,47.0574874878,47.0574874878,64.5412902832,64.5412902832,46.3904838562,-1.07806479931,0.0,0.00320362555794,4.10334205627,0.0073429653421,0.00413933955133,-3.80148506165,-0.163015305996,1.38581848145,0.0144648337737,0.426391601562,0.00897971261293,-0.541297912598,-0.0118060531095,23.3198051453,95.8060455322,47.4838790894,45.8491859436,246
1630861909908379213,98,1630861909908379213,r200131356/base_footprint,0,1630861909908379519,alta/m1vW10zy74W/map,-1.50089834656,5.1450925915,0.0,0.0,0.0,0.00133418455401,0.999999109975,0,64.5578308105,31.7226886749,70.620803833,93.9024505615,47.3490600586,47.3490600586,64.5578308105,64.5578308105,47.3777618408,-1.10933995247,0.0,0.004880071152,4.10435676575,0.00122225645464,0.00365781458095,-8.47423171997,-0.364507287741,1.8903503418,0.0197337418795,0.0132675170898,0.000280128064333,-1.43584442139,-0.0312534719706,23.248456955,95.7928009033,47.3623275757,45.9419174194,247
1630861910009713384,99,1630861910009713384,r200131356/base_footprint,0,1630861910009713996,alta/m1vW10zy74W/map,-1.34827018863,5.14005273825,0.0,0.0,0.0,0.000836112885453,0.999999650458,0,64.6433792114,22.268907547,71.2848815918,94.5846405029,47.3945083618,47.3945083618,64.6433792114,64.6433792114,48.7845306396,-1.51648700237,0.0,0.00159999739844,4.09521198273,0.00188501353841,0.00348501093686,1.56830406189,0.0657922625542,1.16715240479,0.0121893528849,0.0421104431152,0.000887720147148,-2.51175308228,-0.0542814433575,23.8372116089,95.7517929077,47.4366188049,46.2727775574,234
1630861910108542638,100,1630861910108542638,r200131356/base_footprint,0,1630861910108542829,alta/m1vW10zy74W/map,-1.24467908659,5.1368105593,0.0,0.0,0.0,0.00152592076968,0.999998835782,0,64.4187011719,23.9979171753,72.5667266846,93.9801483154,47.4072723389,47.4072723389,64.4187011719,64.4187011719,50.790435791,-0.741884469986,0.0,0.00195316621102,4.0939745903,0.0088772252202,0.00692405877635,-0.371185302734,-0.0157103948295,1.81326293945,0.0189288891852,-0.113765716553,-0.00240552518517,-4.43213653564,-0.09560611099,23.6267318726,95.7934112549,47.2935066223,46.3582992554,227
1630861910208669837,101,1630861910208669837,r200131356/base_footprint,0,1630861910208670117,alta/m1vW10zy74W/map,-1.14950948869,5.13807677749,0.0,0.0,0.0,0.00363143340885,0.999993406324,0,64.2510681152,27.9279270172,70.0132064819,93.3177642822,47.266544342,47.266544342,64.2510681152,64.2510681152,49.9034080505,-0.697331905365,0.0,0.000786027463619,4.09617853165,0.00744259310886,0.00822862051427,-3.68361091614,-0.151937097311,2.59706115723,0.0270767435431,0.0154457092285,0.000326672161464,-3.86898040771,-0.0840453654528,24.2443161011,95.9148254395,47.2819900513,46.0344276428,255
