%time,field.header.seq,field.header.stamp,field.header.frame_id,field.pose.header.seq,field.pose.header.stamp,field.pose.header.frame_id,field.pose.pose.position.x,field.pose.pose.position.y,field.pose.pose.position.z,field.pose.pose.orientation.x,field.pose.pose.orientation.y,field.pose.pose.orientation.z,field.pose.pose.orientation.w,field.label,field.main_output,field.scan_score,field.pose_score,field.cov_score,field.lhood_map_score,field.lhood_robot_score,field.lhood_map_score_all,field.lhood_robot_score_all,field.point_angle_diff,field.average_orientation,field.map_average_orientation,field.sensor_div,field.odom_div_x,field.odom_div_w,field.imu_div_w,field.kdtree_div,field.kdtree_div_p,field.cov_div,field.cov_div_p,field.likelihood_div,field.likelihood_div_p,field.normal_diff_div,field.normal_diff_div_p,field.kdtree_average,field.cov_average,field.likelihood_average,field.normal_diff_average,field.map_update_count
1.64954015977916E+018,0,1.64954015977916E+018,r200141368/base_footprint,0,1.64954015977916E+018,v/m1vw10zy74w/map,-10.0663699935,2.50278480896,0,0,0,-0.898846133853,0.438264335371,1,43.0735816956,0,100,23.9878730774,34.3947372437,34.3947372437,43.0735816956,43.0735816956,42.4950065613,0.413438498974,0,0.00679945107549,1.21550905704,1.08968532085,1.09648478031,27.4769687653,1,59.524646759,0.712763130665,11.6861381531,0.253600597382,-15.9842414856,-0.602934002876,27.4769687653,83.5125198364,46.0808753968,26.5107650757,370
1.64954015987781E+018,1,1.64954015987781E+018,r200141368/base_footprint,0,1.64954015987781E+018,v/m1vw10zy74w/map,-10.1335602643,2.3937816114,0,0,0,-0.869904544813,0.493220116088,1,42.4233932495,0,63.2498321533,24.1169700623,34.4694137573,34.4694137573,42.4233932495,42.4233932495,55.4696578979,-0.0924672186375,0,0.00647077290341,1.3153744936,1.25688970089,1.26336050034,19.4071331024,1,65.1475524902,0.729825854301,8.7476348877,0.202411666512,-28.254152298,-1.03816378117,19.4071331024,89.2645225525,43.217048645,27.2155055999,1
1.64954016047892E+018,2,1.64954016047892E+018,r200141368/base_footprint,0,1.64954016047892E+018,v/m1vw10zy74w/map,-10.183251769,1.70200069827,0,0,0,-0.642993257208,0.76587183731,1,47.8693580627,0,44.8920898438,49.1443977356,34.237903595,34.237903595,47.8693580627,47.8693580627,45.0407676697,0.598806917667,0,0.0056556975469,2.08686923981,2.12203979492,2.12769532204,34.0419921875,1,31.8492851257,0.393231719732,13.1155967712,0.276972055435,-18.1406726837,-0.674372076988,34.0419921875,80.9936828613,47.3535003662,26.900094986,179
1.64954016057846E+018,3,1.64954016057846E+018,r200141368/base_footprint,0,1.64954016057846E+018,v/m1vw10zy74w/map,-10.1540194483,1.58751230028,0,0,0,-0.597130099646,0.802144403519,1,49.206401825,0,45.5569458008,50.8952255249,34.411567688,34.411567688,49.206401825,49.206401825,29.1525211334,0.481508135796,0,0.00558167276904,2.18540334702,2.14949202538,2.15507364273,33.7654838562,1,29.9277114868,0.370287358761,12.969669342,0.273730069399,-2.45656204224,-0.0920199975371,33.7654838562,80.8229370117,47.38123703,26.69595909116,273
1.64954016067773E+018,4,1.64954016067773E+018,r200141368/base_footprint,0,1.64954016067773E+018,v/m1vw10zy74w/map,-10.1082864948,1.4604635977,0,0,0,-0.547847401408,0.836578283707,1,49.877532959,0,45.5569458008,52.6256599426,34.6127853394,34.6127853394,49.877532959,49.877532959,25.474899292,0.560689508915,0,0.00511340470985,2.2801451683,2.16944527626,2.17455863953,33.3468704224,1,28.2996482849,0.349700838327,12.7557144165,0.269286870956,1.47170257568,0.0546155162156,33.3468704224,80.9253082275,47.3684997559,26.94660186768,293
1.64954016077858E+018,5,1.64954016077858E+018,r200141368/base_footprint,0,1.64954016077858E+018,v/m1vw10zy74w/map,-10.0366931041,1.35139884826,0,0,0,-0.497653883891,0.867375703976,1,50.0970687866,0,49.8018875122,58.1416778564,34.8481445312,34.8481445312,50.0970687866,50.0970687866,43.9227905273,0.382446706295,0,0.00484326481819,2.32492160797,2.17896866798,2.183811903,33.0328292847,1,22.8772277832,0.282369017601,12.4641189575,0.263443738222,-16.8831787109,-0.624386847019,33.0328292847,81.0189056396,47.3122634887,27.0396118164,314
1.6495401608788E+018,6,1.6495401608788E+018,r200141368/base_footprint,0,1.6495401608788E+018,v/m1vw10zy74w/map,-9.98489254927,1.25075373744,0,0,0,-0.448475160839,0.893795295418,1,47.0561637878,0,55.7337608337,40.8190040588,35.0087089539,35.0087089539,47.0561637878,47.0561637878,38.0315208435,0.153264909983,0,0.00492050219327,2.41143417358,2.19987416267,2.20479464531,32.6873512268,1,40.1999015808,0.496179282665,12.2623100281,0.25940439105,-10.7612953186,-0.394617021084,32.6873512268,81.0189056396,47.271018982,27.2702255249,307
1.64954016097831E+018,7,1.64954016097831E+018,r200141368/base_footprint,0,1.64954016097831E+018,v/m1vw10zy74w/map,-9.98489254927,1.25075373744,0,0,0,-0.448475160839,0.893795295418,1,47.2847824097,0,58.1536750793,40.8190040588,35.2736282349,35.2736282349,47.2847824097,47.2847824097,36.7775306702,0.583461642265,0,0.00505727669224,2.44825482368,2.21951436996,2.22457170486,32.6873512268,1,40.1999015808,0.496179282665,11.9973907471,0.25380012393,-9.50730514526,-0.348633170128,32.6873512268,81.0189056396,47.271018982,27.27022552494,307
1.64954016107813E+018,8,1.64954016107813E+018,r200141368/base_footprint,0,1.64954016107813E+018,v/m1vw10zy74w/map,-9.94368375296,1.16565527816,0,0,0,-0.398014920912,0.917378941731,1,41.2502479553,0,59.625793457,8.8653049469,35.5923500061,35.5923500061,41.2502479553,41.2502479553,33.8080406189,0.395920842886,0,0.00218899804167,2.4576523304,2.2221288681,2.22431778908,32.4324569702,1,72.1329650879,0.890549480915,11.648475647,0.246576458216,-6.51793479919,-0.238838747144,32.4324569702,80.9982700348,47.2408256531,27.29010581971,289
1.64954016118016E+018,9,1.64954016118016E+018,r200141368/base_footprint,0,1.64954016118016E+018,v/m1vw10zy74w/map,-9.89298793874,1.07917058964,0,0,0,-0.345574142703,0.938391449181,1,39.0788192749,4.66531419754,62.0110855103,0,35.799495697,35.799495697,39.0788192749,39.0788192749,43.215839386,0.19518224895,0,0.00245887809433,2.46654272079,2.19351792336,2.19105911255,27.5709114075,0.855277299881,81.0731964111,1,11.4328689575,0.242055818439,-15.8132839203,-0.577073335648,32.23622560504,81.0731964111,47.2323646545,27.4025554657,269
1.64954016127784E+018,10,1.64954016127784E+018,r200141368/base_footprint,0,1.64954016127784E+018,v/m1vw10zy74w/map,-9.79547404296,1.00438418798,0,0,0,-0.287810209693,0.957687466346,1,39.5032653809,5.05675935745,64.2201004028,0,35.944984436,35.944984436,39.5032653809,39.5032653809,37.1470451355,0.121942080557,0,0.00324132991955,2.46422719955,2.11449933052,2.11125779152,26.4696159363,0.839602291584,81.1593399048,1,11.2359924316,0.238146662712,-9.33556938171,-0.33567327261,31.52637529375,81.1593399048,47.1809768676,27.81147575379,248
1.64954016137804E+018,11,1.64954016137804E+018,r200141368/base_footprint,0,1.64954016137805E+018,v/m1vw10zy74w/map,-9.69945776404,0.944452885261,0,0,0,-0.23071184219,0.97302211993,1,39.8456039429,0,62.8732032776,0,35.9996376038,35.9996376038,39.8456039429,39.8456039429,31.5752258301,0.411014199257,0,0.00279710488394,2.46502280235,2.0148229599,2.01202583313,31.2084293365,1,80.9718933105,1,11.2071228027,0.237405031919,-3.48990058899,-0.124260641634,31.2084293365,80.9718933105,47.2067604065,28.08532524111,230
1.64954016147766E+018,12,1.64954016147766E+018,r200141368/base_footprint,0,1.64954016147766E+018,v/m1vw10zy74w/map,-9.62893759358,0.893931942764,0,0,0,-0.174172488152,0.984715159003,1,39.9634246826,0,58.7228546143,0,36.074054718,36.074054718,39.9634246826,39.9634246826,30.2581501007,0.424495756626,0,0.00272885570303,2.46542024612,1.90914714336,1.90641832352,30.489862442,1,81.2463226318,1,11.1536178589,0.236166998744,-2.28379058838,-0.0816387087107,30.489862442,81.2463226318,47.2276725769,27.97435951232,202
1.64954016177803E+018,13,1.64954016177803E+018,r200141368/base_footprint,0,1.64954016177803E+018,v/m1vw10zy74w/map,-9.62893759358,0.893931942764,0,0,0,-0.174172488152,0.984715159003,1,39.6981735229,0,57.0999183655,0,36.0577049255,36.0577049255,39.6981735229,39.6981735229,34.8561058044,0.104400619864,0,0.00343673862517,2.46516561508,1.8814702034,1.87803339958,30.489862442,1,81.2463226318,1,11.1699676514,0.236513197422,-6.88174629211,-0.246001929045,30.489862442,81.2463226318,47.2276725769,27.97435951229,202
1.64954016188015E+018,14,1.64954016188015E+018,r200141368/base_footprint,0,1.64954016188015E+018,v/m1vw10zy74w/map,-9.62893759358,0.893931942764,0,0,0,-0.174172488152,0.984715159003,1,39.8023910522,0,57.0999183655,0,35.9325828552,35.9325828552,39.8023910522,39.8023910522,31.6288433075,0.295683979988,0,0.00524455308914,2.46307396889,1.81560873985,1.81036424637,30.489862442,1,81.2463226318,1,11.2950897217,0.239162534475,-3.65448379517,-0.130636900663,30.489862442,81.2463226318,47.2276725769,27.97435951233,202
1.64954016217861E+018,15,1.64954016217861E+018,r200141368/base_footprint,0,1.64954016217861E+018,v/m1vw10zy74w/map,-9.62893759358,0.893931942764,0,0,0,-0.174172488152,0.984715159003,1,39.0831451416,0,56.3041648865,0,35.8008003235,35.8008003235,39.0831451416,39.0831451416,43.1520347595,-0.110823914409,0,0.00606851605698,2.46317148209,1.77750825882,1.77143967152,30.489862442,1,81.2463226318,1,11.4268722534,0.241952896118,-15.1776752472,-0.542556643486,30.489862442,81.2463226318,47.2276725769,27.9743595123,202
1.64954016227856E+018,16,1.64954016227856E+018,r200141368/base_footprint,0,1.64954016227856E+018,v/m1vw10zy74w/map,-9.62893759358,0.893931942764,0,0,0,-0.174172488152,0.984715159003,1,38.9179191589,0,55.589427948,0,35.6314620972,35.6314620972,38.9179191589,38.9179191589,44.2972412109,0.0935523584485,0,0.0073449453339,2.46181297302,1.69445884228,1.68711400032,30.489862442,1,81.2463226318,1,11.5962104797,0.245538473129,-16.3228816986,-0.583494365215,30.489862442,81.2463226318,47.2276725769,27.9743595123,202
1.64954016247803E+018,17,1.64954016247803E+018,r200141368/base_footprint,0,1.64954016247803E+018,v/m1vw10zy74w/map,-9.42126794094,0.829892015818,0,0,0,-0.126389706909,0.991980666136,1,39.7704467773,0,55.1218910217,0,35.5060195923,35.5060195923,39.7704467773,39.7704467773,27.5969829559,0.597718417645,0,0.00795094296336,2.46118712425,1.60662424564,1.59867334366,31.2578582764,1,79.8683929443,1,12.3121337891,0.257478237152,-0.102722167969,-0.00373613135889,31.2578582764,79.8683929443,47.8181533814,27.494260787931,28
1.64954016267864E+018,18,1.64954016267864E+018,r200141368/base_footprint,0,1.64954016267864E+018,v/m1vw10zy74w/map,-9.45628576278,0.829623379496,0,0,0,-0.124871281156,0.992172950217,1,39.7093162537,0,54.1414451599,0,35.5017585754,35.5017585754,39.7093162537,39.7093162537,28.6513233185,0.766759574413,0,0.00806321389973,2.46186161041,1.51623094082,1.50816774368,31.2426986694,1,79.7433853149,1,12.4476203918,0.259599208832,-2.32762908936,-0.0884233415127,31.2426986694,79.7433853149,47.9493789672,26.32369422914,26
1.64954016307762E+018,19,1.64954016307762E+018,r200141368/base_footprint,0,1.64954016307762E+018,v/m1vw10zy74w/map,-9.45628576278,0.829623379496,0,0,0,-0.124871281156,0.992172950217,1,39.4305686951,0,54.1414451599,0,35.3255348206,35.3255348206,39.4305686951,39.4305686951,31.7655544281,0.257910430431,0,0.00786280073225,2.46189188957,1.42538201809,1.41751921177,31.2426986694,1,79.7433853149,1,12.6238441467,0.263274401426,-5.44186019897,-0.206728592515,31.2426986694,79.7433853149,47.9493789673,26.32369422913,26
1.64954016317901E+018,20,1.64954016317901E+018,r200141368/base_footprint,0,1.64954016317902E+018,v/m1vw10zy74w/map,-9.45628576278,0.829623379496,0,0,0,-0.124871281156,0.992172950217,1,38.5066947937,0,54.1414451599,0,35.0734901428,35.0734901428,38.5066947937,38.5066947937,45.673210144,0.535052359104,0,0.00782795064151,2.46278095245,1.28445756435,1.27662956715,31.2426986694,1,79.7433853149,1,12.8758888245,0.268530875444,-19.3495159149,-0.735060811043,31.2426986694,79.7433853149,47.9493789673,26.3236942291,26
1.649540168579E+018,21,1.649540168579E+018,r200141368/base_footprint,0,1.649540168579E+018,v/m1vw10zy74w/map,-5.04016973029,-0.0790085829188,0,0,0,-0.191013133146,0.981587481056,0,60.0464630127,26.1285915375,39.6756210327,83.4651412964,42.4103889465,42.4103889465,60.0464630127,60.0464630127,37.6703414917,0.175346300006,0,0.00243070186116,2.4655148983,0.717264831066,0.719695568085,-24.1678066254,-12.3255815506,11.8992843628,0.12477697432,7.34949493408,0.147699192166,2.65779495239,0.06590423733,1.9607849121,95.3644256592,49.75988388058,40.32813644409,1
1.64954016867824E+018,22,1.64954016867824E+018,r200141368/base_footprint,0,1.64954016867824E+018,v/m1vw10zy74w/map,-4.82750191783,-0.175142336738,0,0,0,-0.18839012827,0.982094272242,0,60.9776535034,30.6885547638,40.1597671509,83.9037780762,42.831363678,42.831363678,60.9776535034,60.9776535034,27.0345802307,0.341846495867,0,0.00209099682979,2.46636199951,0.838038146496,0.840129137039,-25.7578811646,-5.22400808334,8.83531951904,0.0952707082033,1.48810577393,0.0335767939687,11.6599006653,0.301332384348,4.9306735992,92.73909759524,44.31946945193,38.694480896,5
1.64954016877899E+018,23,1.64954016877899E+018,r200141368/base_footprint,0,1.649540168779E+018,v/m1vw10zy74w/map,-4.82750191783,-0.175142336738,0,0,0,-0.18839012827,0.982094272242,0,60.8854866028,26.6968326569,40.756187439,83.9037780762,43.0266914368,43.0266914368,60.8854866028,60.8854866028,30.8030872345,0.183092340827,0,0.00205362867564,2.46606516838,0.998329877853,1.00038349628,-21.7661590576,-4.41443872452,8.83531951904,0.0952707082033,1.29277801514,0.0291695278138,7.8913936615,0.203941062093,4.9306735993,92.73909759524,44.31946945194,38.694480896,5
1.64954016887856E+018,24,1.64954016887856E+018,r200141368/base_footprint,0,1.64954016887856E+018,v/m1vw10zy74w/map,-4.82750191783,-0.175142336738,0,0,0,-0.18839012827,0.982094272242,0,61.1993408203,31.5188770294,41.6503067017,83.9037780762,43.3158111572,43.3158111572,61.1993408203,61.1993408203,28.2762107849,0.0889937505126,0,0.00141254544724,2.46611881256,1.03756511211,1.03897762299,-26.5882034302,-5.3924074173,8.83531951904,0.0952707082033,1.00365829468,0.0226459912956,10.4182701111,0.269244343042,4.9306735992,92.73909759524,44.31946945188,38.694480896,5
1.64954016927867E+018,25,1.64954016927867E+018,r200141368/base_footprint,0,1.64954016927867E+018,v/m1vw10zy74w/map,-4.61504813865,-0.261437229312,0,0,0,-0.192118722866,0.981371691218,0,60.9154586792,27.1290607452,45.6469688416,84.026550293,43.5110969543,43.5110969543,60.9154586792,60.9154586792,35.9371604919,0.227172583342,0,0.000792707724031,2.46563053131,1.09557163715,1.09477889538,-18.3047790527,-2.07436466217,9.81506347656,0.104591801763,1.34446334839,0.0299731697887,-1.09858703613,-0.031533639878,8.8242816925,93.84161376956,44.85556030269,34.83857345577,445
1.64954016947797E+018,26,1.64954016947797E+018,r200141368/base_footprint,0,1.64954016947797E+018,v/m1vw10zy74w/map,-4.61504813865,-0.261437229312,0,0,0,-0.192118722866,0.981371691218,0,61.1949539185,28.540304184,52.5267562866,84.026550293,43.7585067749,43.7585067749,61.1949539185,61.1949539185,33.5782546997,0.0199092421681,0,0.00145849806722,2.46654009819,1.10512125492,1.10366272926,-19.7160224915,-2.23429179192,9.81506347656,0.104591801763,1.09705352783,0.0244574695826,1.2603187561,0.0361759588122,8.8242816925,93.84161376956,44.85556030273,34.8385734558,445
1.6495401695784E+018,27,1.6495401695784E+018,r200141368/base_footprint,0,1.6495401695784E+018,v/m1vw10zy74w/map,-4.61504813865,-0.261437229312,0,0,0,-0.192118722866,0.981371691218,0,61.255405426,29.2348518372,60.8441505432,84.026550293,43.8849105835,43.8849105835,61.255405426,61.255405426,33.8552703857,-0.0161167047918,0,0.00258151744492,2.46635651588,1.12074053288,1.1181589365,-20.4105682373,-2.31300020218,9.81506347656,0.104591801763,0.970649719238,0.0216394513845,0.983303070068,0.0282245501876,8.8242835999,93.84161376956,44.855560302738,34.838573455768,445
1.64954016977904E+018,28,1.64954016977904E+018,r200141368/base_footprint,0,1.64954016977904E+018,v/m1vw10zy74w/map,-4.61504813865,-0.261437229312,0,0,0,-0.192118722866,0.981371691218,0,61.0474967957,29.4117641449,66.7822799683,84.026550293,43.8808631897,43.8808631897,61.0474967957,61.0474967957,37.5539169312,-0.0913240537047,0,0.00327579444274,2.4668674469,1.1358217001,1.13254594803,-20.5874824524,-2.3330488205,9.81506347656,0.104591801763,0.974697113037,0.0217296835035,-2.71534347534,-0.0779407173395,8.8242816925,93.84161376956,44.855560302737,34.83857345586,445
1.64954017007818E+018,29,1.64954017007818E+018,r200141368/base_footprint,0,1.64954017007818E+018,v/m1vw10zy74w/map,-4.40883761149,-0.346035098086,0,0,0,-0.19455585436,0.980891441259,0,62.245174408,29.2348518372,73.4687423706,86.7965393066,43.9017982483,43.9017982483,62.245174408,62.245174408,26.1938495636,0.032684918493,0,0.00347372936085,2.46642518044,1.15272581577,1.14925205708,-19.8612537384,-2.11885046959,7.19629669189,0.0765621811152,-0.442119598389,-0.0101730991155,5.8846912384,0.183446347713,9.3735980988,93.99283599849,43.459678649911,32.078540802,871
1.64954017017867E+018,30,1.64954017017867E+018,r200141368/base_footprint,0,1.64954017017868E+018,v/m1vw10zy74w/map,-4.40883761149,-0.346035098086,0,0,0,-0.19455585436,0.980891441259,0,61.9317169189,28.0070228577,79.4614028931,86.7965393066,44.0168457031,44.0168457031,61.9317169189,61.9317169189,33.0786018372,0.102666966617,0,0.00360170053318,2.46713113785,1.17518234253,1.17158067226,-18.6334247589,-1.98786258698,7.19629669189,0.0765621811152,-0.557167053223,-0.0128203211352,-1.00006103516,-0.0311753898859,9.3735980988,93.99283599849,43.459678649877,32.07854080204,871
1.64954017027796E+018,31,1.64954017027796E+018,r200141368/base_footprint,0,1.64954017027796E+018,v/m1vw10zy74w/map,-4.40883761149,-0.346035098086,0,0,0,-0.19455585436,0.980891441259,0,62.30235672,28.8849868774,85.082824707,86.7965393066,44.0569496155,44.0569496155,62.30235672,62.30235672,26.8401832581,-0.124769352376,0,0.00383064569905,2.46612930298,1.18733799458,1.18350744247,-19.5113887787,-2.08152604103,7.19629669189,0.0765621811152,-0.597270965576,-0.0137431062758,5.23835754395,0.163297876716,9.3735980987,93.99283599849,43.459678649924,32.07854080205,871
1.64954017037855E+018,32,1.64954017037855E+018,r200141368/base_footprint,0,1.64954017037855E+018,v/m1vw10zy74w/map,-4.40883761149,-0.346035098086,0,0,0,-0.19455585436,0.980891441259,0,62.230594635,22.1583366394,88.8486785889,86.7965393066,44.0407295227,44.0407295227,62.230594635,62.230594635,27.956703186,0.149718672037,0,0.0026676452253,2.4682507515,1.26600766182,1.26333999634,-12.7847385406,-1.36390936375,7.19629669189,0.0765621811152,-0.581050872803,-0.013369884342,4.12183761597,0.128492057323,9.3735980988,93.99283599849,43.459678649897,32.07854080197,871
1.64954017117848E+018,33,1.64954017117848E+018,r200141368/base_footprint,0,1.64954017117849E+018,v/m1vw10zy74w/map,-3.08983073232,-0.875013366931,0,0,0,-0.190473150395,0.981692405481,0,62.2802047729,29.2279415131,88.0263748169,86.1922988892,44.0864982605,44.0864982605,62.2802047729,62.2802047729,25.3827857971,-0.050614759326,0,9.75013826974E-05,2.47103238106,1.29688382149,1.29678630829,-21.1832962036,-2.63321685791,7.67868804932,0.0818004384637,1.92971801758,0.0419356077909,9.84722518921,0.279512405396,8.0446453095,93.87098693852,46.01621627808,35.23001098631,771
1.64954017127909E+018,34,1.64954017127909E+018,r200141368/base_footprint,0,1.64954017127909E+018,v/m1vw10zy74w/map,-3.08983073232,-0.875013366931,0,0,0,-0.190473150395,0.981692405481,0,62.6365966797,23.1125526428,87.8982315063,86.1922988892,43.9809951782,43.9809951782,62.6365966797,62.6365966797,17.8282966614,0.25130006671,0,0.000223922717851,2.47146606445,1.29710817337,1.29733204842,-15.0679073334,-1.87303566933,7.67868804932,0.0818004384637,2.03522109985,0.0442283451557,17.401714325,0.493945747614,8.0446453094,93.87098693852,46.01621627805,35.2300109864,771
1.6495401713777E+018,35,1.6495401713777E+018,r200141368/base_footprint,0,1.6495401713777E+018,v/m1vw10zy74w/map,-3.08983073232,-0.875013366931,0,0,0,-0.190473150395,0.981692405481,0,61.952583313,20.0367641449,87.9161300659,86.1922988892,44.0539894104,44.0539894104,61.952583313,61.952583313,30.9288349152,1.1469424963,0,0.000334821670549,2.47073364258,1.29656636715,1.29690110683,-11.9921188354,-1.49069583416,7.67868804932,0.0818004384637,1.96222686768,0.0426420718431,4.30117607117,0.12208840996,8.0446453095,93.87098693852,46.01621627808,35.23001098637,771
1.64954017147771E+018,36,1.64954017147771E+018,r200141368/base_footprint,0,1.64954017147771E+018,v/m1vw10zy74w/map,-2.87021462221,-0.958636511707,0,0,0,-0.190176062586,0.981750001385,0,62.0256347656,20.3334884644,87.6227340698,85.4634628296,44.0903244019,44.0903244019,62.0256347656,62.0256347656,27.3825149536,0.401996582747,0,0.000898237805814,2.47094154358,1.29630053043,1.29719877243,-11.0777587891,-1.19685423374,8.31309509277,0.0886479020119,2.07271957397,0.0448999777436,6.80723190308,0.199101552367,9.2557296753,93.77655792237,46.16304397587,34.18974685668,768
1.64954017157782E+018,37,1.64954017157782E+018,r200141368/base_footprint,0,1.64954017157782E+018,v/m1vw10zy74w/map,-2.87021462221,-0.958636511707,0,0,0,-0.190176062586,0.981750001385,0,61.9473228455,29.5970363617,88.5534896851,85.4634628296,44.266330719,44.266330719,61.9473228455,61.9473228455,30.6930332184,0.550277113914,0,0.0012676200131,2.47080492973,1.29600131512,1.2972689867,-20.3413066864,-2.19769883156,8.31309509277,0.0886479020119,1.89671325684,0.0410872660577,3.49671363831,0.102273747325,9.2557296753,93.77655792237,46.16304397584,34.18974685671,768
1.64954017167796E+018,38,1.64954017167796E+018,r200141368/base_footprint,0,1.64954017167796E+018,v/m1vw10zy74w/map,-2.64622150462,-1.05581772104,0,0,0,-0.19060304735,0.981667193269,0,62.857093811,27.7443256378,88.9094543457,87.6204223633,44.3444213867,44.3444213867,62.857093811,62.857093811,22.9255771637,0.548427402973,0,0.00194408651441,2.47042107582,1.29505681992,1.29700088501,-17.7594223022,-1.77862751484,6.1697845459,0.0657828226686,1.87631988525,0.0405947603285,10.3297138214,0.310618668795,9.9849033356,93.7902069092,46.22074127195,33.2552909851,728
1.64954017177848E+018,39,1.64954017177848E+018,r200141368/base_footprint,0,1.64954017177848E+018,v/m1vw10zy74w/map,-2.42738158361,-1.14371286163,0,0,0,-0.178609981726,0.983919953262,0,62.4350242615,31.2941169739,89.3901824951,86.7570571899,44.5835800171,44.5835800171,62.4350242615,62.4350242615,29.997631073,0.780081868172,0,0.00163955392782,2.46972227097,1.26473915577,1.26637876034,-20.7983036041,-1.98158097267,7.08332061768,0.0754826515913,1.87094116211,0.0402746833861,2.77766418457,0.0847487151623,10.4958133698,93.84037780758,46.45452117921,32.77529525757,720
1.64954017187773E+018,40,1.64954017187773E+018,r200141368/base_footprint,0,1.64954017187773E+018,v/m1vw10zy74w/map,-2.42738158361,-1.14371286163,0,0,0,-0.178609981726,0.983919953262,0,62.7683334351,22.8235301971,89.654586792,86.7570571899,44.7812232971,44.7812232971,62.7683334351,62.7683334351,26.1326370239,-0.0301977880299,0,0.00112309062388,2.46993708611,1.20476353168,1.20588672161,-12.3277168274,-1.17453658581,7.08332061768,0.0754826515913,1.67329788208,0.0360201299191,6.64265823364,0.202672719955,10.4958133697,93.84037780758,46.45452117918,32.77529525754,720
1.64954017197877E+018,41,1.64954017197877E+018,r200141368/base_footprint,0,1.64954017197877E+018,v/m1vw10zy74w/map,-2.20557926373,-1.21320869329,0,0,0,-0.114406015439,0.993434076138,0,62.6085510254,24.0986709595,89.8736495972,85.5945205688,44.961971283,44.961971283,62.6085510254,62.6085510254,26.7756099701,0.818605780602,0,0.000315951416269,2.46578979492,1.11152946949,1.11121356487,-13.4976549149,-1.27324163914,8.20387268066,0.0874628275633,1.60848999023,0.034538846463,5.8120174408,0.178350433707,10.6010160446,93.79839324946,46.57046127323,32.5876274109,679
1.64954017207783E+018,42,1.64954017207783E+018,r200141368/base_footprint,0,1.64954017207783E+018,v/m1vw10zy74w/map,-2.20557926373,-1.21320869329,0,0,0,-0.114406015439,0.993434076138,0,62.3417816162,19.4071331024,89.927230835,85.5945205688,44.9374275208,44.9374275208,62.3417816162,62.3417816162,31.3123874664,0.294762283564,0,0.0035227604676,2.43872976303,1.09135568142,1.09487843513,-8.8061170578,-0.830686151981,8.20387268066,0.0874628275633,1.63303375244,0.0350658707321,1.27523994446,0.0391326397657,10.6010160446,93.79839324946,46.57046127324,32.58762741086,679
1.64954017217783E+018,43,1.64954017217783E+018,r200141368/base_footprint,0,1.64954017217783E+018,v/m1vw10zy74w/map,-2.01981064666,-1.2423911398,0,0,0,-0.0876897948095,0.996147830338,0,61.5763092041,25.6470584869,90.4331054688,82.1279907227,44.8532829285,44.8532829285,61.5763092041,61.5763092041,31.7026329041,-0.984639286995,0,0.00576462550089,2.3573513031,1.11798870564,1.12375330925,-15.0797309875,-1.42701458931,11.5837173462,0.123610138893,1.87821960449,0.0401917211711,1.14654159546,0.0349032096565,10.5673274994,93.7117080689,46.73150253299,32.84917449956,711
1.64954017227806E+018,44,1.64954017227806E+018,r200141368/base_footprint,0,1.64954017227806E+018,v/m1vw10zy74w/map,-1.95622985385,-1.25995842951,0,0,0,-0.139097147897,0.990278740278,0,62.5769309998,24.0389060974,90.5982513428,85.3719024658,44.8884277344,44.8884277344,62.5769309998,62.5769309998,25.7491130829,0.144888222218,0,0.0102926678956,2.26912045479,1.29817998409,1.30847275257,-13.5320453644,-1.28792464733,8.3440246582,0.0890352874994,1.90698242188,0.0407514832914,7.42358970642,0.223786100745,10.506860733,93.715927124,46.79541015628,33.17270278932,678
1.64954017247843E+018,45,1.64954017247843E+018,r200141368/base_footprint,0,1.64954017247843E+018,v/m1vw10zy74w/map,-1.93916037445,-1.25912770101,0,0,0,-0.156037189989,0.987751180885,0,62.5169868469,18.5520362854,90.9703521729,86.9359741211,44.7357406616,44.7357406616,62.5169868469,62.5169868469,30.8097038269,0.583469808102,0,0.0118381446227,2.22097945213,1.42927193642,1.44111013412,-8.09365272522,-0.77389138937,6.76621246338,0.0722097605467,2.0344543457,0.0434989482164,2.25584793091,0.0682235062122,10.45838356018,93.70218658448,46.7701950073,33.06555175781,693
1.649540172779E+018,46,1.649540172779E+018,r200141368/base_footprint,0,1.649540172779E+018,v/m1vw10zy74w/map,-1.9014542229,-1.27172690256,0,0,0,-0.21289342198,0.977075427425,0,62.4710998535,15.966386795,91.6293106079,86.8399658203,44.6478805542,44.6478805542,62.4710998535,62.4710998535,30.3411827087,1.15448081493,0,0.0123329982162,2.19140625,1.52144670486,1.53377974033,-5.56682014465,-0.535293459892,6.84518432617,0.0730658397079,2.13171386719,0.0455693118274,2.99585723877,0.0898657217622,10.39956665035,93.68515014647,46.77959442139,33.33703994747,679
1.64954017287795E+018,47,1.64954017287795E+018,r200141368/base_footprint,0,1.64954017287795E+018,v/m1vw10zy74w/map,-1.9014542229,-1.27172690256,0,0,0,-0.21289342198,0.977075427425,0,62.2798042297,16.628068924,92.0598831177,86.8399658203,44.6169509888,44.6169509888,62.2798042297,62.2798042297,33.4504508972,0.272363364697,0,0.0126495584846,2.1667342186,1.61491549015,1.62756502628,-6.22850227356,-0.598919391632,6.84518432617,0.0730658397079,2.16264343262,0.0462304875255,-0.113410949707,-0.00340195023455,10.39956665044,93.68515014647,46.77959442142,33.337039947493,679
1.64954017297779E+018,48,1.64954017297779E+018,r200141368/base_footprint,0,1.64954017297779E+018,v/m1vw10zy74w/map,-1.9014542229,-1.27172690256,0,0,0,-0.21289342198,0.977075427425,0,62.238155365,18.7675075531,91.9499435425,86.8399658203,44.5457305908,44.5457305908,62.238155365,62.238155365,33.4309806824,0.366364389658,0,0.0128996800631,2.15602445602,1.66096735001,1.67386698723,-8.36794090271,-0.804643213749,6.84518432617,0.0730658397079,2.23386383057,0.0477529540658,-0.0939407348633,-0.00281790876761,10.39956665039,93.68515014647,46.77959442137,33.3370399475367,679
1.64954017317773E+018,49,1.64954017317773E+018,r200141368/base_footprint,0,1.64954017317773E+018,v/m1vw10zy74w/map,-1.82464000473,-1.3118273789,0,0,0,-0.275202265597,0.961386349503,0,62.8555908203,14.7753591537,92.0727844238,90.9253997803,44.4738349915,44.4738349915,62.8555908203,62.8555908203,36.2481994629,0.489816337824,0,0.0127462539822,2.11785340309,1.89317274094,1.9059189558,-4.32242012024,-0.413512408733,2.68949890137,0.028729390353,2.42715072632,0.0517505258322,-2.76872253418,-0.082699097693,10.45293903346,93.61489868167,46.90098571782,33.47947692872,691
1.649540173278E+018,50,1.649540173278E+018,r200141368/base_footprint,0,1.649540173278E+018,v/m1vw10zy74w/map,-1.65375801455,-1.44010113641,0,0,0,-0.386920494126,0.922113079413,0,62.8739204407,16.360294342,92.2090301514,90.9268493652,44.3373908997,44.3373908997,62.8739204407,62.8739204407,34.4499092102,0.90524661541,0,0.0123560121283,2.10557031631,2.06754684448,2.07990264893,-6.00863933563,-0.580452024937,2.70662689209,0.028906615451,2.6678237915,0.0567559115589,-0.549362182617,-0.0162051133811,10.35165500637,93.63347625729,47.0052146912,33.900547027583,637
1.64954017367766E+018,51,1.64954017367766E+018,r200141368/base_footprint,0,1.64954017367766E+018,v/m1vw10zy74w/map,-1.41711301401,-1.82797111484,0,0,0,-0.591858072457,0.806042196208,0,62.9661178589,17.2794113159,93.4525909424,90.5501708984,44.2270889282,44.2270889282,62.9661178589,62.9661178589,30.2430400848,0.0878432318568,0,0.0117864329368,2.10028672218,2.48761868477,2.49940514565,-0.838670730591,-0.0510117374361,2.9241104126,0.0312825143337,3.40265274048,0.0714396610856,2.61128425598,0.0794806852937,16.440740585309,93.474281311,47.62974166868,32.85432434078,153
1.64954017377769E+018,52,1.64954017377769E+018,r200141368/base_footprint,0,1.64954017377769E+018,v/m1vw10zy74w/map,-1.38419936021,-1.94289257174,0,0,0,-0.637467773356,0.770477019731,0,61.8126449585,13.211186409,94.1316452026,86.7507095337,43.930606842,43.930606842,61.8126449585,61.8126449585,34.1255340576,1.68215727806,0,0.0119396112859,2.10061192513,2.44065070152,2.45259046555,-0.327189445496,-0.0253950264305,-2.4574432373,-0.0291534941643,-1.65006256104,-0.0390265211463,-2.69738960266,-0.0858272016048,12.883996963504,84.2932662964,42.28054428096,31.42814445494,10
1.64954017387794E+018,53,1.64954017387794E+018,r200141368/base_footprint,0,1.64954017387794E+018,v/m1vw10zy74w/map,-1.36238743782,-2.06299819225,0,0,0,-0.680850532726,0.732422386391,0,61.8716392517,9.80392169952,93.9748077393,86.5030059814,43.6567153931,43.6567153931,61.8716392517,61.8716392517,29.2137985229,0.793194591999,0,0.0124320751056,2.10048651695,2.378885746,2.39131760597,-1.22322463989,-0.142555385828,-30.6491737366,-0.548738956451,-8.52785873413,-0.242759361863,-5.28888893127,-0.221062019467,8.58069705963,55.8538322448,35.12885665897,23.92490959163,43
1.64954017397774E+018,54,1.64954017397774E+018,r200141368/base_footprint,0,1.64954017397774E+018,v/m1vw10zy74w/map,-1.34970611805,-2.19873822025,0,0,0,-0.720892216514,0.693047193321,0,61.343132019,10.8159389496,93.3165512085,85.2395248413,43.3071708679,43.3071708679,61.343132019,61.343132019,30.4033794403,1.70460999012,0,0.00600988045335,2.09722805023,2.21242284775,2.21843266487,-2.51675128937,-0.303252726793,-25.6361045837,-0.430111289024,-8.1943397522,-0.233371660113,-5.95448303223,-0.243548125029,8.29918766023,59.6034202576,35.1128311157,24.44889640807,49
1.64954017407838E+018,55,1.64954017407838E+018,r200141368/base_footprint,0,1.64954017407838E+018,v/m1vw10zy74w/map,-1.3561202906,-2.44040614816,0,0,0,-0.737832950955,0.674983360155,0,60.6372146606,11.5216331482,92.3519668579,83.1097793579,42.8103408813,42.8103408813,60.6372146606,60.6372146606,30.077009201,1.53342199326,0,0.00474076066166,2.09545016289,2.05529522896,2.0600361824,-2.94654273987,-0.343616515398,-21.1682624817,-0.341745942831,-7.42977905273,-0.209996074438,-5.41377067566,-0.219507694244,8.57509040833,61.9415168762,35.38056182857,24.66323852534,52
1.64954017417904E+018,56,1.64954017417904E+018,r200141368/base_footprint,0,1.64954017417904E+018,v/m1vw10zy74w/map,-1.3561202906,-2.44040614816,0,0,0,-0.737832950955,0.674983360155,0,60.2210235596,8.82352924347,91.2066192627,83.1097793579,42.2776374817,42.2776374817,60.2210235596,60.2210235596,31.8152427673,2.2482407093,0,0.00328591698781,2.09525299072,1.97025227547,1.97353827953,-0.248438835144,-0.0289721526206,-21.1682624817,-0.341745942831,-6.89707565308,-0.194939687848,-7.15200424194,-0.289986431599,8.575090408326,61.9415168762,35.38056182862,24.66323852536,52
1.64954017427785E+018,57,1.64954017427785E+018,r200141368/base_footprint,0,1.64954017427785E+018,v/m1vw10zy74w/map,-1.3561202906,-2.44040614816,0,0,0,-0.737832950955,0.674983360155,0,59.8672828674,4.66531419754,90.0269088745,83.1097793579,41.6886672974,41.6886672974,59.8672828674,59.8672828674,31.8217220306,2.32505774498,0,0.000654033210594,2.09341478348,1.7724853754,1.77183127403,3.90977621078,0.455945760012,-21.1682624817,-0.341745942831,-6.30810546875,-0.17829297483,-7.15848350525,-0.290249139071,8.57509040832,61.9415168762,35.38056182865,24.66323852535,52
1.64954017537785E+018,58,1.64954017537785E+018,r200141368/base_footprint,0,1.64954017537785E+018,v/m1vw10zy74w/map,-1.35269234683,-3.0712101821,0,0,0,-0.701163354225,0.713000666684,0,58.964176178,6.28115653992,88.7040863037,76.4023666382,41.2342071533,41.2342071533,58.964176178,58.964176178,19.0227851868,1.97722876072,0,0.00938932783902,1.62049901485,0.165596738458,0.174986079335,2.85322856903,0.312361329794,14.5577697754,0.160045608878,-2.70305633545,-0.0701524913311,1.23312187195,0.060877148062,9.13438510895,90.9601364136,38.53115081785,20.25590705875,1
1.64954017547772E+018,59,1.64954017547772E+018,r200141368/base_footprint,0,1.64954017547772E+018,v/m1vw10zy74w/map,-1.35269234683,-3.0712101821,0,0,0,-0.701163354225,0.713000666684,0,58.501701355,27.1708679199,87.3702697754,76.4023666382,41.6258659363,41.6258659363,58.501701355,58.501701355,31.5772418976,2.05763792992,0,0.00938863307238,1.59592533112,0.179017782211,0.188406407833,-18.0364837646,-1.97457015514,14.5577697754,0.160045608878,-3.09471511841,-0.0803172215819,-11.3213348389,-0.558915197849,9.1343841553,90.9601364136,38.53115081789,20.2559070587,1
1.64954017557784E+018,60,1.64954017557784E+018,r200141368/base_footprint,0,1.64954017557784E+018,v/m1vw10zy74w/map,-1.35269234683,-3.0712101821,0,0,0,-0.701163354225,0.713000666684,0,58.7754135132,28.1045761108,85.8812179565,76.4023666382,42.0069313049,42.0069313049,58.7754135132,58.7754135132,30.7659645081,2.12733697891,0,0.00938714202493,1.39651572704,0.194585248828,0.203972399235,-18.9701919556,-2.0767891407,14.5577697754,0.160045608878,-3.47578048706,-0.0902070254087,-10.5100574493,-0.518863797188,9.1343841552,90.9601364136,38.53115081784,20.2559070588,1
1.64954017567816E+018,61,1.64954017567816E+018,r200141368/base_footprint,0,1.64954017567817E+018,v/m1vw10zy74w/map,-1.35269234683,-3.0712101821,0,0,0,-0.701163354225,0.713000666684,0,58.6401290894,29.971988678,84.421257019,76.4023666382,42.360206604,42.360206604,58.6401290894,58.6401290894,37.0164375305,2.30696725845,0,0.00925170257688,1.27204096317,0.157883599401,0.167135298252,-20.8376045227,-2.2812268734,14.5577697754,0.160045608878,-3.82905578613,-0.099375590682,-16.7605304718,-0.827439129353,9.1343841553,90.9601364136,38.53115081787,20.2559070587,1
1.64954017577821E+018,62,1.64954017577821E+018,r200141368/base_footprint,0,1.64954017577821E+018,v/m1vw10zy74w/map,-1.35269234683,-3.0712101821,0,0,0,-0.701163354225,0.713000666684,0,59.1188468933,31.4497451782,83.1658630371,76.4023666382,42.6556816101,42.6556816101,59.1188468933,59.1188468933,31.590637207,2.19286751747,0,0.00963676534593,1.14756369591,0.0906534269452,0.100290194154,-22.3153610229,-2.44300627708,14.5577697754,0.160045608878,-4.12453079224,-0.107044056058,-11.3347301483,-0.559576511383,9.1343841553,90.9601364136,38.53115081786,20.2559070587,1
1.64954017587785E+018,63,1.64954017587785E+018,r200141368/base_footprint,0,1.64954017587785E+018,v/m1vw10zy74w/map,-1.35269234683,-3.0712101821,0,0,0,-0.701163354225,0.713000666684,0,59.2487182617,27.7443256378,82.1948699951,76.4023666382,42.8901138306,42.8901138306,59.2487182617,59.2487182617,31.7848300934,2.28430104256,0,0.00653181178495,1.0240162611,0.00945264659822,0.00292083458044,-18.6099395752,-2.03734993935,14.5577697754,0.160045608878,-4.3589630127,-0.11312828213,-11.5289230347,-0.569163501263,9.1343860626,90.9601364136,38.5311508179,20.2559070587,1
1.64954017597876E+018,64,1.64954017597876E+018,r200141368/base_footprint,0,1.64954017597876E+018,v/m1vw10zy74w/map,-1.35269234683,-3.0712101821,0,0,0,-0.701163354225,0.713000666684,0,59.2502403259,27.7443256378,81.2589569092,76.4023666382,43.1160621643,43.1160621643,59.2502403259,59.2502403259,34.1976623535,2.24904537201,0,0.00282529578544,0.85294264555,0.265890926123,0.263065606356,-18.6099395752,-2.03734993935,14.5577697754,0.160045608878,-4.58491134644,-0.118992328644,-13.9417552948,-0.688280940056,9.1343860626,90.9601364136,38.53115081786,20.2559070587,1
1.64954017607802E+018,65,1.64954017607802E+018,r200141368/base_footprint,0,1.64954017607802E+018,v/m1vw10zy74w/map,-1.35269234683,-3.0712101821,0,0,0,-0.701163354225,0.713000666684,0,59.3146743774,25.8916168213,80.5900497437,76.4023666382,43.3879203796,43.3879203796,59.3146743774,59.3146743774,35.9739265442,2.2414791584,0,0.00196643453091,0.705373108387,0.559164464474,0.56113088131,-16.757232666,-1.83452224731,14.5577697754,0.160045608878,-4.85676956177,-0.126047864556,-15.7180194855,-0.775972127914,9.1343841553,90.9601364136,38.53115081783,20.2559070587,1
1.64954017617866E+018,66,1.64954017617866E+018,r200141368/base_footprint,0,1.64954017617866E+018,v/m1vw10zy74w/map,-1.35269234683,-3.0712101821,0,0,0,-0.701163354225,0.713000666684,0,59.6516113281,31.0661773682,80.3077850342,76.4023666382,43.5881919861,43.5881919861,59.6516113281,59.6516113281,32.0720024109,2.02180242538,0,0.000389703403926,0.584808290005,0.819181382656,0.818791687489,-21.9317932129,-2.40101480484,14.5577697754,0.160045608878,-5.05704116821,-0.131245523691,-11.8160953522,-0.583340704441,9.1343841553,90.9601364136,38.53115081789,20.2559070587,1
1.64954017627758E+018,67,1.64954017627758E+018,r200141368/base_footprint,0,1.64954017627758E+018,v/m1vw10zy74w/map,-1.35269234683,-3.0712101821,0,0,0,-0.701163354225,0.713000666684,0,59.5776748657,23.7132358551,80.3212051392,76.4023666382,43.677028656,43.677028656,59.5776748657,59.5776748657,34.3622741699,2.32059860229,0,0.00231104227714,0.386697381735,1.01843440533,1.01612341404,-14.5788507462,-1.59604072571,14.5577697754,0.160045608878,-5.14587783813,-0.133551105857,-14.1063671112,-0.696407556534,9.1343851089,90.9601364136,38.53115081787,20.2559070587,1
1.64954017637795E+018,68,1.64954017637795E+018,r200141368/base_footprint,0,1.64954017637795E+018,v/m1vw10zy74w/map,-1.35269234683,-3.0712101821,0,0,0,-0.701163354225,0.713000666684,0,59.6653060913,25.5514698029,80.6737136841,76.4023666382,43.858543396,43.858543396,59.6653060913,59.6653060913,34.7453041077,2.29574751854,0,0.00178034685086,0.214912891388,1.15764975548,1.15586936474,-16.4170837402,-1.79728400707,14.5577697754,0.160045608878,-5.32739257812,-0.138261958957,-14.489397049,-0.715317130089,9.1343860627,90.9601364136,38.53115081788,20.2559070587,1
1.64954017647822E+018,69,1.64954017647822E+018,r200141368/base_footprint,0,1.64954017647822E+018,v/m1vw10zy74w/map,-1.35269234683,-3.0712101821,0,0,0,-0.701163354225,0.713000666684,0,60.150188446,26.4705886841,81.5148620605,76.4023666382,43.9937820435,43.9937820435,60.150188446,60.150188446,27.4779872894,1.95813286304,0,0.00112004415132,0.12529784441,1.23702800274,1.23590803146,-17.3362045288,-1.89790606499,14.5577697754,0.160045608878,-5.46263122559,-0.141771823168,-7.22208023071,-0.356541931629,9.1343841553,90.9601364136,38.53115081791,20.25590705869,1
1.64954017657865E+018,70,1.64954017657865E+018,r200141368/base_footprint,0,1.64954017657865E+018,v/m1vw10zy74w/map,-1.35269234683,-3.0712101821,0,0,0,-0.701163354225,0.713000666684,0,59.6691322327,25.8916168213,82.4701156616,76.4023666382,44.1077919006,44.1077919006,59.6691322327,59.6691322327,37.3683395386,2.29185009003,0,0.000279322877759,0.0335712619126,1.35639071465,1.35611140728,-16.757232666,-1.83452224731,14.5577697754,0.160045608878,-5.57664108276,-0.144730716944,-17.1124324799,-0.844811975956,9.1343841553,90.9601364136,38.53115081784,20.2559070587,1
1.64954017667799E+018,71,1.64954017667799E+018,r200141368/base_footprint,0,1.64954017667799E+018,v/m1vw10zy74w/map,-1.35269234683,-3.0712101821,0,0,0,-0.701163354225,0.713000666684,0,59.8933944702,28.6706809998,83.5784683228,76.4023666382,44.2576408386,44.2576408386,59.8933944702,59.8933944702,34.949924469,2.25005865097,0,0.000231778438319,0.00593753159046,1.47551882267,1.47575068474,-19.5362968445,-2.13876438141,14.5577697754,0.160045608878,-5.72649002075,-0.148619756103,-14.6940174103,-0.725418865681,9.1343841553,90.9601364136,38.53115081785,20.2559070587,1
1.64954017677882E+018,72,1.64954017677882E+018,r200141368/base_footprint,0,1.64954017677883E+018,v/m1vw10zy74w/map,-1.35269234683,-3.0712101821,0,0,0,-0.701163354225,0.713000666684,0,59.9441719055,28.3088226318,84.3882980347,76.4023666382,44.3568763733,44.3568763733,59.9441719055,59.9441719055,35.1077270508,2.39300513268,0,0.000200896363822,0.000995353562757,1.59553837776,1.59573924541,-19.1744384766,-2.09914922714,14.5577697754,0.160045608878,-5.82572555542,-0.151195213199,-14.8518199921,-0.733209311962,9.1343841552,90.9601364136,38.53115081788,20.2559070587,1
1.64954017687795E+018,73,1.64954017687795E+018,r200141368/base_footprint,0,1.64954017687795E+018,v/m1vw10zy74w/map,-1.35269234683,-3.0712101821,0,0,0,-0.701163354225,0.713000666684,0,59.8270645142,24.9652614594,85.1695327759,76.4023666382,44.4763069153,44.4763069153,59.8270645142,59.8270645142,38.5054626465,2.32569050789,0,0.000143758064951,0.000264166068519,1.71597456932,1.71611833572,-15.8308763504,-1.73310804367,14.5577697754,0.160045608878,-5.94515609741,-0.154294803739,-18.2495555878,-0.900949835777,9.134385109,90.9601364136,38.53115081789,20.2559070587,1
1.64954017697848E+018,74,1.64954017697848E+018,r200141368/base_footprint,0,1.64954017697848E+018,v/m1vw10zy74w/map,-1.35269234683,-3.0712101821,0,0,0,-0.701163354225,0.713000666684,0,60.21118927,25.5514698029,86.2745819092,76.4023666382,44.5505523682,44.5505523682,60.21118927,60.21118927,32.3930702209,2.11558699608,0,0.000130339481984,0.000191638377146,1.8160173893,1.81614780426,-16.4170837402,-1.79728400707,14.5577697754,0.160045608878,-6.01940155029,-0.156221687794,-12.1371631622,-0.599191308022,9.1343860627,90.9601364136,38.53115081791,20.2559070587,1
1.64954017707783E+018,75,1.64954017707783E+018,r200141368/base_footprint,0,1.64954017707783E+018,v/m1vw10zy74w/map,-1.35269234683,-3.0712101821,0,0,0,-0.701163354225,0.713000666684,0,60.3285522461,24.632352829,88.4376754761,76.4023666382,44.6220588684,44.6220588684,60.3285522461,60.3285522461,31.052816391,1.98048496246,0,9.326950385E-05,0.00016197473451,1.91692328453,1.9170165062,-15.49796772,-1.69666242599,14.5577697754,0.160045608878,-6.09090805054,-0.158077508211,-10.7969093323,-0.533025205135,9.134385109,90.9601364136,38.53115081786,20.2559070587,1
1.649540177178E+018,76,1.649540177178E+018,r200141368/base_footprint,0,1.649540177178E+018,v/m1vw10zy74w/map,-1.35269234683,-3.0712101821,0,0,0,-0.701163354225,0.713000666684,0,60.4126777649,30.1470584869,91.8383560181,76.4023666382,44.6715736389,44.6715736389,60.4126777649,60.4126777649,30.07330513,2.15693616867,0,0.000102254096419,0.000148508421262,1.96495711803,1.9650593996,-21.0126724243,-2.30039262772,14.5577697754,0.160045608878,-6.14042282104,-0.15936255455,-9.81739807129,-0.484668403864,9.1343860626,90.9601364136,38.53115081786,20.25590705871,1
1.64954017727795E+018,77,1.64954017727795E+018,r200141368/base_footprint,0,1.64954017727795E+018,v/m1vw10zy74w/map,-1.35269234683,-3.0712101821,0,0,0,-0.701163354225,0.713000666684,0,60.1065254211,28.6706809998,95.6924667358,76.4023666382,44.7429962158,44.7429962158,60.1065254211,60.1065254211,36.3554115295,2.38574624062,0,6.08405389357E-05,8.66733607836E-05,1.97902286053,1.97908377647,-19.5362968445,-2.13876438141,14.5577697754,0.160045608878,-6.21184539795,-0.161216184497,-16.0995044708,-0.794805407524,9.1343841553,90.9601364136,38.53115081785,20.2559070587,1
1.64954017737857E+018,78,1.64954017737857E+018,r200141368/base_footprint,0,1.64954017737857E+018,v/m1vw10zy74w/map,-1.35269234683,-3.0712101821,0,0,0,-0.701163354225,0.713000666684,0,60.3510551453,24.632352829,100,76.4023666382,44.7483863831,44.7483863831,60.3510551453,60.3510551453,32.0120849609,1.96547687054,0,4.65243647341E-05,6.14297459833E-05,1.97844672203,1.97849321365,-15.49796772,-1.69666242599,14.5577697754,0.160045608878,-6.21723556519,-0.161356076598,-11.7561779022,-0.580382704735,9.134385109,90.9601364136,38.53115081791,20.2559070587,1
1.64954017747835E+018,79,1.64954017747835E+018,r200141368/base_footprint,0,1.64954017747835E+018,v/m1vw10zy74w/map,-1.35269234683,-3.0712101821,0,0,0,-0.701163354225,0.713000666684,0,60.2569351196,29.0382823944,100,76.4023666382,44.8362464905,44.8362464905,60.2569351196,60.2569351196,34.6551742554,2.2398815155,0,4.69676779176E-05,5.59687105124E-05,1.9792945385,1.97934150696,-19.9038963318,-2.17900776863,14.5577697754,0.160045608878,-6.30509567261,-0.163636311889,-14.3992671967,-0.710867583752,9.1343860626,90.9601364136,38.53115081789,20.2559070587,1
1.64954017767795E+018,80,1.64954017767795E+018,r200141368/base_footprint,0,1.64954017767795E+018,v/m1vw10zy74w/map,-1.35269234683,-3.0712101821,0,0,0,-0.701163354225,0.713000666684,0,60.1467018127,26.8179721832,100,76.4023666382,44.8612823486,44.8612823486,60.1467018127,60.1467018127,36.9097824097,2.34518384933,0,3.40235019394E-05,4.74951011711E-05,1.9785554409,1.97858941555,-17.6835861206,-1.93593609333,14.5577697754,0.160045608878,-6.33013153076,-0.164286077023,-16.653875351,-0.822173774242,9.1343860626,90.9601364136,38.53115081784,20.2559070587,1
1.64954017787771E+018,81,1.64954017787771E+018,r200141368/base_footprint,0,1.64954017787771E+018,v/m1vw10zy74w/map,-1.35269234683,-3.0712101821,0,0,0,-0.701163354225,0.713000666684,0,60.2556610107,27.1708679199,100,76.4023666382,44.9394378662,44.9394378662,60.2556610107,60.2556610107,35.7925643921,2.32569265366,0,6.89475709805E-05,3.44460459019E-05,1.97922372818,1.97929263115,-18.0364837646,-1.97457015514,14.5577697754,0.160045608878,-6.40828704834,-0.166314452887,-15.5366573334,-0.767018616199,9.1343841553,90.9601364136,38.53115081786,20.2559070587,1
1.64954017797802E+018,82,1.64954017797802E+018,r200141368/base_footprint,0,1.64954017797802E+018,v/m1vw10zy74w/map,-1.35269234683,-3.0712101821,0,0,0,-0.701163354225,0.713000666684,0,60.3844108582,30.5233898163,100,76.4023666382,44.9108505249,44.9108505249,60.3844108582,60.3844108582,33.1663551331,2.23508787155,0,0.00010561565432,4.50535344498E-06,1.97920536995,1.97931098938,-21.3890037537,-2.34159207344,14.5577697754,0.160045608878,-6.37969970703,-0.165572524071,-12.9104480743,-0.637367069721,9.1343860626,90.9601364136,38.53115081787,20.2559070588,1
1.64954017808524E+018,83,1.64954017808524E+018,r200141368/base_footprint,0,1.64954017808524E+018,v/m1vw10zy74w/map,-1.35269234683,-3.0712101821,0,0,0,-0.701163354225,0.713000666684,0,60.4345474243,26.2371616364,100,76.4023666382,44.9824638367,44.9824638367,60.4345474243,60.4345474243,33.0372772217,2.14828205109,0,0.000105723789602,3.835060852E-06,1.97915291786,1.9792586565,-17.1027755737,-1.87235105038,14.5577697754,0.160045608878,-6.4513130188,-0.167431101203,-12.781370163,-0.630994737148,9.1343860627,90.9601364136,38.5311508179,20.2559070587,1
1.64954017817827E+018,84,1.64954017817827E+018,r200141368/base_footprint,0,1.64954017817827E+018,v/m1vw10zy74w/map,-1.35269234683,-3.0712101821,0,0,0,-0.701163354225,0.713000666684,0,60.5163764954,28.6706809998,100,76.4023666382,45.0078392029,45.0078392029,60.5163764954,60.5163764954,31.8383903503,2.10479068756,0,0.000118349234981,1.01819268821E-05,1.97889840603,1.97901678085,-19.5362968445,-2.13876438141,14.5577697754,0.160045608878,-6.47668838501,-0.168089672923,-11.5824832916,-0.571807682514,9.1343841553,90.9601364136,38.53115081789,20.2559070587,1
1.64954017827783E+018,85,1.64954017827783E+018,r200141368/base_footprint,0,1.64954017827783E+018,v/m1vw10zy74w/map,-1.35269234683,-3.0712101821,0,0,0,-0.701163354225,0.713000666684,0,60.1836433411,24.9652614594,100,76.4023666382,45.0070533752,45.0070533752,60.1836433411,60.1836433411,37.8191108704,2.30137777328,0,3.07836271531E-05,2.91129035759E-05,1.97870624065,1.97873699665,-15.8308763504,-1.73310804367,14.5577697754,0.160045608878,-6.47590255737,-0.168069273233,-17.5632038116,-0.867065787315,9.134385109,90.9601364136,38.53115081783,20.2559070588,1
1.64954017837882E+018,86,1.64954017837882E+018,r200141368/base_footprint,0,1.64954017837882E+018,v/m1vw10zy74w/map,-1.35269234683,-3.0712101821,0,0,0,-0.701163354225,0.713000666684,0,60.5047340393,24.0389060974,100,76.4023666382,44.9559555054,44.9559555054,60.5047340393,60.5047340393,31.4876670837,1.98419678211,0,9.4671277111E-06,4.04291422456E-05,1.97954010963,1.97953057289,-14.9045209885,-1.63169395924,14.5577697754,0.160045608878,-6.4248046875,-0.166743129492,-11.231760025,-0.554493069649,9.1343851089,90.9601364136,38.5311508179,20.2559070587,1
1.64954017847794E+018,87,1.64954017847794E+018,r200141368/base_footprint,0,1.64954017847794E+018,v/m1vw10zy74w/map,-1.35269234683,-3.0712101821,0,0,0,-0.701163354225,0.713000666684,0,60.3341941833,27.7443256378,100,76.4023666382,44.90366745,44.90366745,60.3341941833,60.3341941833,33.9926490784,2.21878790855,0,3.67502389054E-06,4.01236029575E-05,1.97905647755,1.97906017303,-18.6099395752,-2.03734993935,14.5577697754,0.160045608878,-6.37251663208,-0.165386095643,-13.7367420197,-0.678159832954,9.1343860626,90.9601364136,38.53115081792,20.2559070587,1
1.64954017857783E+018,88,1.64954017857783E+018,r200141368/base_footprint,0,1.64954017857783E+018,v/m1vw10zy74w/map,-1.35269234683,-3.0712101821,0,0,0,-0.701163354225,0.713000666684,0,60.2075691223,26.8179721832,100,76.4023666382,44.8723564148,44.8723564148,60.2075691223,60.2075691223,35.9337539673,2.48452425003,0,6.42655959382E-06,2.98181475955E-05,1.97922348976,1.97921705246,-17.6835861206,-1.93593609333,14.5577697754,0.160045608878,-6.34120559692,-0.164573475718,-15.6778469086,-0.773988902569,9.1343860626,90.9601364136,38.53115081788,20.2559070587,1
1.64954017867797E+018,89,1.64954017867797E+018,r200141368/base_footprint,0,1.64954017867797E+018,v/m1vw10zy74w/map,-1.35269234683,-3.0712101821,0,0,0,-0.701163354225,0.713000666684,0,60.5747337341,28.3088226318,100,76.4023666382,44.860118866,44.860118866,60.5747337341,60.5747337341,29.1925907135,2.08315968513,0,2.43019917434E-06,1.03798247437E-05,1.97978615761,1.97978854179,-19.1744384766,-2.09914922714,14.5577697754,0.160045608878,-6.3289680481,-0.164255872369,-8.93668365479,-0.441189020872,9.1343841552,90.9601364136,38.5311508179,20.25590705871,1
1.64954017877781E+018,90,1.64954017877781E+018,r200141368/base_footprint,0,1.64954017877781E+018,v/m1vw10zy74w/map,-1.35269234683,-3.0712101821,0,0,0,-0.701163354225,0.713000666684,0,60.4884872437,26.4705886841,100,76.4023666382,44.8123893738,44.8123893738,60.4884872437,60.4884872437,30.229593277,2.29150652885,0,2.02381415875E-05,6.12133808318E-05,1.97879886627,1.9787787199,-17.3362045288,-1.89790606499,14.5577697754,0.160045608878,-6.28123855591,-0.16301715374,-9.97368621826,-0.492384076118,9.1343841553,90.9601364136,38.53115081789,20.25590705874,1
1.64954017887838E+018,91,1.64954017887838E+018,r200141368/base_footprint,0,1.64954017887838E+018,v/m1vw10zy74w/map,-1.35269234683,-3.0712101821,0,0,0,-0.701163354225,0.713000666684,0,60.2246780396,24.9652614594,100,76.4023666382,44.8209152222,44.8209152222,60.2246780396,60.2246780396,35.070186615,2.30824875832,0,6.84955593897E-05,0.000104842154542,1.97894883156,1.97888028622,-15.8308763504,-1.73310804367,14.5577697754,0.160045608878,-6.2897644043,-0.163238421082,-14.8142795563,-0.731356024742,9.134385109,90.9601364136,38.5311508179,20.2559070587,1
1.64954017897832E+018,92,1.64954017897832E+018,r200141368/base_footprint,0,1.64954017897832E+018,v/m1vw10zy74w/map,-1.35269234683,-3.0712101821,0,0,0,-0.701163354225,0.713000666684,0,60.4012451172,25.5514698029,100,76.4023666382,44.852104187,44.852104187,60.4012451172,60.4012451172,32.2288703918,2.09892630577,0,7.37275040592E-05,0.000105799168523,1.97905731201,1.97898364067,-16.4170837402,-1.79728400707,14.5577697754,0.160045608878,-6.32095336914,-0.16404786706,-11.9729633331,-0.591085016727,9.1343860627,90.9601364136,38.53115081786,20.2559070587,1
1.64954017907797E+018,93,1.64954017907797E+018,r200141368/base_footprint,0,1.64954017907797E+018,v/m1vw10zy74w/map,-1.35269234683,-3.0712101821,0,0,0,-0.701163354225,0.713000666684,0,60.2702560425,24.9652614594,100,76.4023666382,44.7456321716,44.7456321716,60.2702560425,60.2702560425,33.4367637634,2.42148447037,0,6.04843517067E-05,8.42742592795E-05,1.978531003,1.97847056389,-15.8308763504,-1.73310804367,14.5577697754,0.160045608878,-6.21448135376,-0.161284595728,-13.1808567047,-0.650716662407,9.134385109,90.9601364136,38.53115081784,20.2559070587,1
1.6495401791777E+018,94,1.6495401791777E+018,r200141368/base_footprint,0,1.6495401791777E+018,v/m1vw10zy74w/map,-1.35269234683,-3.0712101821,0,0,0,-0.701163354225,0.713000666684,0,60.5592384338,27.7443256378,100,76.4023666382,44.6970558167,44.6970558167,60.5592384338,60.5592384338,27.710477829,2.08467507362,0,4.13146008214E-05,6.89391672495E-05,1.97930896282,1.9792675972,-18.6099395752,-2.03734993935,14.5577697754,0.160045608878,-6.16590499878,-0.160023897886,-7.45457077026,-0.368019610643,9.1343860626,90.9601364136,38.53115081792,20.25590705874,1
1.64954017927799E+018,95,1.64954017927799E+018,r200141368/base_footprint,0,1.64954017927799E+018,v/m1vw10zy74w/map,-1.35269234683,-3.0712101821,0,0,0,-0.701163354225,0.713000666684,0,60.1800231934,26.2371616364,100,76.4023666382,44.7543334961,44.7543334961,60.1800231934,60.1800231934,35.1549186707,2.42626667023,0,6.24007807346E-05,6.56134725432E-05,1.97924780846,1.979185462,-17.1027755737,-1.87235105038,14.5577697754,0.160045608878,-6.22318267822,-0.161510422826,-14.8990116119,-0.735539078712,9.1343860627,90.9601364136,38.53115081788,20.2559070588,1
1.64954017937779E+018,96,1.64954017937779E+018,r200141368/base_footprint,0,1.64954017937779E+018,v/m1vw10zy74w/map,-1.35269234683,-3.0712101821,0,0,0,-0.701163354225,0.713000666684,0,60.4800453186,25.3034553528,100,76.4023666382,44.8114395142,44.8114395142,60.4800453186,60.4800453186,30.3712882996,1.96008503437,0,7.54065913497E-05,6.47954657325E-05,1.97918570042,1.97911024094,-16.1690711975,-1.77013242245,14.5577697754,0.160045608878,-6.28028869629,-0.162992507219,-10.1153812408,-0.499379336834,9.1343841553,90.9601364136,38.53115081791,20.2559070588,1
1.64954017947797E+018,97,1.64954017947797E+018,r200141368/base_footprint,0,1.64954017947797E+018,v/m1vw10zy74w/map,-1.35269234683,-3.0712101821,0,0,0,-0.701163354225,0.713000666684,0,60.4522209167,27.1708679199,100,76.4023666382,44.9199790955,44.9199790955,60.4522209167,60.4522209167,32.0443382263,2.0992808342,0,8.48422641866E-05,7.19594609109E-05,1.97941935062,1.97933447361,-18.0364837646,-1.97457015514,14.5577697754,0.160045608878,-6.38882827759,-0.165809437633,-11.7884311676,-0.581974983215,9.1343841553,90.9601364136,38.53115081791,20.2559070587,1
1.64954017957892E+018,98,1.64954017957892E+018,r200141368/base_footprint,0,1.64954017957892E+018,v/m1vw10zy74w/map,-1.35269234683,-3.0712101821,0,0,0,-0.701163354225,0.713000666684,0,60.2628555298,30.9056949615,100,76.4023666382,44.9763946533,44.9763946533,60.2628555298,60.2628555298,36.062210083,2.24049973488,0,5.90937197558E-05,7.2372960858E-05,1.9791367054,1.9790776968,-21.7713088989,-2.38344550133,14.5577697754,0.160045608878,-6.44524383545,-0.167273581028,-15.8063030243,-0.78033053875,9.1343860626,90.9601364136,38.53115081785,20.2559070587,1
1.64954017967809E+018,99,1.64954017967809E+018,r200141368/base_footprint,0,1.64954017967809E+018,v/m1vw10zy74w/map,-1.35269234683,-3.0712101821,0,0,0,-0.701163354225,0.713000666684,0,60.5191307068,25.3034553528,100,76.4023666382,44.9295463562,44.9295463562,60.5191307068,60.5191307068,30.943315506,1.92341673374,0,7.31889522285E-05,7.52482301323E-05,1.9792983532,1.97922515869,-16.1690711975,-1.77013242245,14.5577697754,0.160045608878,-6.39839553833,-0.166057735682,-10.6874084473,-0.527619361877,9.1343841553,90.9601364136,38.53115081787,20.2559070587,1
1.64954017977885E+018,100,1.64954017977885E+018,r200141368/base_footprint,0,1.64954017977886E+018,v/m1vw10zy74w/map,-1.35269234683,-3.0712101821,0,0,0,-0.701163354225,0.713000666684,0,60.2720336914,27.1708679199,100,76.4023666382,44.9294509888,44.9294509888,60.2720336914,60.2720336914,35.3900222778,2.25119423866,0,4.90805578011E-05,5.5045762565E-05,1.97889614105,1.97884702682,-18.0364837646,-1.97457015514,14.5577697754,0.160045608878,-6.3983001709,-0.166055262089,-15.1341152191,-0.74714577198,9.1343841553,90.9601364136,38.5311508179,20.2559070587,1
1.64954017987783E+018,101,1.64954017987783E+018,r200141368/base_footprint,0,1.64954017987783E+018,v/m1vw10zy74w/map,-1.35269234683,-3.0712101821,0,0,0,-0.701163354225,0.713000666684,0,60.4949951172,27.1708679199,100,76.4023666382,44.9642829895,44.9642829895,60.4949951172,60.4949951172,31.7528610229,2.16389226913,0,2.45273458859E-05,5.46236915397E-05,1.97949421406,1.97946965694,-18.0364837646,-1.97457015514,14.5577697754,0.160045608878,-6.43313217163,-0.166959255934,-11.4969539642,-0.567585229874,9.1343841553,90.9601364136,38.53115081787,20.2559070587,1
1.64954018017791E+018,102,1.64954018017791E+018,r200141368/base_footprint,0,1.64954018017791E+018,v/m1vw10zy74w/map,-1.35269234683,-3.0712101821,0,0,0,-0.701163354225,0.713000666684,0,60.3873939514,28.1045761108,100,76.4023666382,45.011505127,45.011505127,60.3873939514,60.3873939514,34.1997299194,2.13444399834,0,2.64753798547E-05,3.47189270542E-05,1.97857320309,1.97859966755,-18.9701919556,-2.0767891407,14.5577697754,0.160045608878,-6.48035430908,-0.168184816837,-13.9438228607,-0.688383042812,9.1343841552,90.9601364136,38.53115081792,20.2559070587,1
1.64954018037766E+018,103,1.64954018037766E+018,r200141368/base_footprint,0,1.64954018037766E+018,v/m1vw10zy74w/map,-1.35269234683,-3.0712101821,0,0,0,-0.701163354225,0.713000666684,0,60.3538322449,29.0382823944,100,76.4023666382,44.9778137207,44.9778137207,60.3538322449,60.3538322449,34.4399414062,2.25314855576,0,1.56470214279E-05,3.09279894282E-05,1.97923147678,1.9792470932,-19.9038963318,-2.17900776863,14.5577697754,0.160045608878,-6.44666290283,-0.167310416698,-14.1840343475,-0.700241863728,9.1343860626,90.9601364136,38.53115081787,20.2559070587,1
1.64954018047902E+018,104,1.64954018047902E+018,r200141368/base_footprint,0,1.64954018047902E+018,v/m1vw10zy74w/map,-1.35269234683,-3.0712101821,0,0,0,-0.701163354225,0.713000666684,0,60.6841011047,29.0382823944,100,76.4023666382,44.9411430359,44.9411430359,60.6841011047,60.6841011047,28.0990409851,2.16836428642,0,9.9792769106E-06,3.00454958051E-05,1.97925257683,1.97926259041,-19.9038963318,-2.17900776863,14.5577697754,0.160045608878,-6.40999221802,-0.166358694434,-7.84313392639,-0.387202292681,9.1343860626,90.9601364136,38.53115081788,20.25590705871,1
1.6495401806778E+018,105,1.6495401806778E+018,r200141368/base_footprint,0,1.6495401806778E+018,v/m1vw10zy74w/map,-1.35269234683,-3.0712101821,0,0,0,-0.701163354225,0.713000666684,0,60.4151382446,27.5294113159,100,76.4023666382,44.9838294983,44.9838294983,60.4151382446,60.4151382446,33.4014205933,2.21233344078,0,4.60650835521E-06,2.74259364232E-05,1.97919523716,1.97919988632,-18.3950271606,-2.0138220787,14.5577697754,0.160045608878,-6.45267868042,-0.167466551065,-13.1455135345,-0.64897185564,9.1343841553,90.9601364136,38.53115081788,20.2559070588,1
