%time,field.header.seq,field.header.stamp,field.header.frame_id,field.pose.header.seq,field.pose.header.stamp,field.pose.header.frame_id,field.pose.pose.position.x,field.pose.pose.position.y,field.pose.pose.position.z,field.pose.pose.orientation.x,field.pose.pose.orientation.y,field.pose.pose.orientation.z,field.pose.pose.orientation.w,field.label,field.main_output,field.scan_score,field.pose_score,field.cov_score,field.lhood_map_score,field.lhood_robot_score,field.lhood_map_score_all,field.lhood_robot_score_all,field.point_angle_diff,field.average_orientation,field.map_average_orientation,field.sensor_div,field.odom_div_x,field.odom_div_w,field.imu_div_w,field.kdtree_div,field.kdtree_div_p,field.cov_div,field.cov_div_p,field.likelihood_div,field.likelihood_div_p,field.normal_diff_div,field.normal_diff_div_p,field.kdtree_average,field.cov_average,field.likelihood_average,field.normal_diff_average,field.map_update_count
1.64954354922905E+018,0,1.64954354922905E+018,r200151369/base_footprint,0,1.64954354922905E+018,v/m1vw10zy74w/map,12.9971627329,-6.49499899286,0,0,0,0.999917014301,0.0128827214237,0,57.1169204712,23.6058063507,100,66.4905166626,42.2467536926,42.2467536926,57.1169204712,57.1169204712,27.526227951,2.16360402107,0,0.00306837493554,0.225598171353,0.00146345852409,0.00453183334321,15.1844425201,0.391449987888,2.88613891602,0.0416010096669,9.22240066528,0.179183065891,-0.0836448669434,-0.00304799550213,38.7902488708,69.37665557862,51.46915435788,27.4425830840566,205
1.64954354932889E+018,1,1.64954354932889E+018,r200151369/base_footprint,0,1.64954354932889E+018,v/m1vw10zy74w/map,12.9971627329,-6.49499899286,0,0,0,0.999917014301,0.0128827214237,0,57.6135444641,34.0577011108,44.7777099609,66.4905166626,43.0373649597,43.0373649597,57.6135444641,57.6135444641,27.1256008148,1.79895806313,0,0.00344877247699,0.252469092607,0.00513923773542,0.00858801044524,4.73254776001,0.122003540397,2.88613891602,0.0416010096669,8.43178939819,0.163822188973,0.316982269287,0.0115507449955,38.79024887081,69.37665557862,51.46915435789,27.442583084087,205
1.64954354942925E+018,2,1.64954354942925E+018,r200151369/base_footprint,0,1.64954354942925E+018,v/m1vw10zy74w/map,12.7813805852,-6.49634065824,0,0,0,0.999918620722,0.0127574265675,0,57.9842338562,34.8070449829,44.5997810364,67.0314254761,43.7794876099,43.7794876099,57.9842338562,57.9842338562,30.415353775,1.85418903828,0,0.00275276065804,0.267159372568,0.00678383745253,0.00953659787774,5.17202377319,0.129368290305,2.31745910645,0.0334173962474,7.94595336914,0.153617888689,-3.37282562256,-0.124723017216,39.97906875609,69.34888458255,51.72544097904,27.04252815244,244
1.64954354952888E+018,3,1.64954354952888E+018,r200151369/base_footprint,0,1.64954354952888E+018,v/m1vw10zy74w/map,12.7813805852,-6.49634065824,0,0,0,0.999918620722,0.0127574265675,0,58.5123748779,31.6888046265,45.2303237915,67.0314254761,44.4344406128,44.4344406128,58.5123748779,58.5123748779,27.9823474884,1.84234905243,0,0.00278313877061,0.278545767069,0.0187191683799,0.0215023066849,8.29026412964,0.207365110517,2.31745910645,0.0334173962474,7.29100036621,0.140955790877,-0.939819335938,-0.034753382206,39.97906875614,69.34888458255,51.72544097901,27.042528152462,244
1.6495435496291E+018,4,1.6495435496291E+018,r200151369/base_footprint,0,1.6495435496291E+018,v/m1vw10zy74w/map,12.7813805852,-6.49634065824,0,0,0,0.999918620722,0.0127574265675,0,58.7770881653,35.48387146,45.8388938904,67.0314254761,45.0929336548,45.0929336548,58.7770881653,58.7770881653,30.3292198181,1.86066162586,0,0.00272186798975,0.289246827364,0.0351767130196,0.037898581475,4.49519729614,0.112438768148,2.31745910645,0.0334173962474,6.63250732422,0.128225252032,-3.28669166565,-0.12153788656,39.97906875614,69.34888458255,51.72544097902,27.04252815245,244
1.64954355002893E+018,5,1.64954355002893E+018,r200151369/base_footprint,0,1.64954355002893E+018,v/m1vw10zy74w/map,12.5680942654,-6.50083235988,0,0,0,0.999360420738,0.0357596065751,0,59.5237922668,37.7609100342,46.2512321472,69.1740264893,45.6797676086,45.6797676086,59.5237922668,59.5237922668,30.9397411346,1.89034235477,0,0.00530247576535,0.428748399019,0.0688912719488,0.0635887980461,3.24523544312,0.0791402235627,-0.0803298950195,-0.00116262258962,6.45825958252,0.123868510127,-4.00245285034,-0.148584097624,41.00614547732,69.0936965942805,52.13802719112,26.93728828426,262
1.64954355012907E+018,6,1.64954355012907E+018,r200151369/base_footprint,0,1.64954355012907E+018,v/m1vw10zy74w/map,12.5680942654,-6.50083235988,0,0,0,0.999360420738,0.0357596065751,0,59.9895591736,41.1764717102,46.606086731,69.1740264893,46.3216590881,46.3216590881,59.9895591736,59.9895591736,29.4883594513,1.91907715797,0,0.00557936402038,0.444302380085,0.110498979688,0.104919612408,-0.17032623291,-0.00415367586538,-0.0803298950195,-0.00116262258962,5.81636810303,0.111557118595,-2.55107116699,-0.0947040840983,41.00614547729,69.0936965942805,52.13802719113,26.93728828431,262
1.64954355022879E+018,7,1.64954355022879E+018,r200151369/base_footprint,0,1.64954355022879E+018,v/m1vw10zy74w/map,12.5680942654,-6.50083235988,0,0,0,0.999360420738,0.0357596065751,0,60.5244598389,36.5928192139,46.5681724548,69.1740264893,46.7479362488,46.7479362488,60.5244598389,60.5244598389,24.4639625549,1.86498224735,0,0.0104134436697,0.458891570568,0.136158615351,0.125745162368,4.41332626343,0.107625968754,-0.0803298950195,-0.00116262258962,5.39009094238,0.103381186724,2.47332572937,0.0918179154396,41.00614547733,69.0936965942805,52.13802719118,26.93728828427,262
1.64954355212995E+018,8,1.64954355212995E+018,r200151369/base_footprint,0,1.64954355212995E+018,v/m1vw10zy74w/map,12.5680942654,-6.50083235988,0,0,0,0.999360420738,0.0357596065751,0,60.7562217712,38.8544883728,46.6299705505,69.1740264893,47.1922225952,47.1922225952,60.7562217712,60.7562217712,25.0905303955,1.79890930653,0,0.00126483326312,0.038988750428,0.0462460443377,0.0475108772516,2.15165710449,0.0524715781212,-0.0803298950195,-0.00116262258962,4.94580459595,0.0948598310351,1.84675788879,0.0685576796532,41.00614547729,69.0936965942805,52.13802719115,26.93728828429,262
1.64954355222901E+018,9,1.64954355222901E+018,r200151369/base_footprint,0,1.64954355222901E+018,v/m1vw10zy74w/map,12.5680942654,-6.50083235988,0,0,0,0.999360420738,0.0357596065751,0,61.0000572205,38.8846435547,46.7028694153,69.1740264893,47.6755981445,47.6755981445,61.0000572205,61.0000572205,25.9219245911,1.75867640972,0,0.00129779346753,0.0299792233855,0.0626814737916,0.063979268074,2.12150192261,0.0517361946404,-0.0803298950195,-0.00116262258962,4.46242904663,0.085588760674,1.01536369324,0.0376936122775,41.00614547731,69.0936965942805,52.13802719113,26.93728828434,262
1.64954355232872E+018,10,1.64954355232872E+018,r200151369/base_footprint,0,1.64954355232872E+018,v/m1vw10zy74w/map,12.3541238322,-6.49887169815,0,0,0,0.999999360892,0.0011305821716,0,61.3209342957,39.2541313171,46.7972717285,69.8040313721,48.1211090088,48.1211090088,61.3209342957,61.3209342957,27.2256412506,1.92331695557,0,0.000139732845128,0.0166785698384,0.0924719125032,0.0923321843147,3.29661941528,0.0774749964476,-0.528015136719,-0.00762190390378,4.29879760742,0.0820069685578,-0.427238464355,-0.0159426834434,42.55075073238,69.276016235381,52.41990661622,26.798402786245,278
1.64954355242893E+018,11,1.64954355242893E+018,r200151369/base_footprint,0,1.64954355242893E+018,v/m1vw10zy74w/map,12.3541238322,-6.49887169815,0,0,0,0.999999360892,0.0011305821716,0,61.4237632751,41.1764717102,46.9073143005,69.8040313721,48.6271781921,48.6271781921,61.4237632751,61.4237632751,30.8403129578,1.87809348106,0,0.00212171534076,0.0191821046174,0.0880590751767,0.085937358439,1.37427902222,0.0322974100709,-0.528015136719,-0.00762190390378,3.79272842407,0.0723528265953,-4.04191017151,-0.150826528668,42.55075073242,69.276016235381,52.41990661617,26.79840278629,278
1.64954355252914E+018,12,1.64954355252914E+018,r200151369/base_footprint,0,1.64954355252914E+018,v/m1vw10zy74w/map,12.3541238322,-6.49887169815,0,0,0,0.999999360892,0.0011305821716,0,61.7405052185,41.9404144287,47.0227012634,69.8040313721,49.0378379822,49.0378379822,61.7405052185,61.7405052185,29.5740432739,1.85546994209,0,0.00431001139805,0.0665522143245,0.0531074255705,0.0487974137068,0.610336303711,0.0143437255174,-0.528015136719,-0.00762190390378,3.38206863403,0.0645187869668,-2.77564048767,-0.103574849665,42.550750732411,69.276016235381,52.41990661623,26.79840278623,278
1.64954355262884E+018,13,1.64954355262884E+018,r200151369/base_footprint,0,1.64954355262884E+018,v/m1vw10zy74w/map,12.3541238322,-6.49887169815,0,0,0,0.999999360892,0.0011305821716,0,62.2360229492,42.3298721313,47.0566215515,69.8040313721,49.4595451355,49.4595451355,62.2360229492,62.2360229492,25.2091712952,1.80496168137,0,0.0014840051299,0.110268451273,0.0130025139078,0.0144865186885,0.220878601074,0.00519094476476,-0.528015136719,-0.00762190390378,2.96036148071,0.0564739927649,1.58923149109,0.0593032166362,42.550750732374,69.276016235381,52.41990661621,26.79840278629,278
1.64954355272867E+018,14,1.64954355272867E+018,r200151369/base_footprint,0,1.64954355272867E+018,v/m1vw10zy74w/map,12.3541238322,-6.49887169815,0,0,0,0.999999360892,0.0011305821716,0,62.3722610474,43.1242713928,47.123249054,69.8040313721,49.9241867065,49.9241867065,62.3722610474,62.3722610474,27.7750530243,1.95360183716,0,0.000522520625964,0.127137973905,0.0498331673443,0.0493106469512,-0.5735206604,-0.0134785082191,-0.528015136719,-0.00762190390378,2.49571990967,0.0476101562381,-0.976650238037,-0.0364443436265,42.5507507324,69.276016235381,52.41990661617,26.798402786263,278
1.64954355282887E+018,15,1.64954355282887E+018,r200151369/base_footprint,0,1.64954355282887E+018,v/m1vw10zy74w/map,12.1247453233,-6.49611588475,0,0,0,0.999968837251,0.00789458847371,0,62.5955848694,43.5294113159,47.1967353821,69.1337356567,50.3724327087,50.3724327087,62.5955848694,62.5955848694,26.1831912994,1.81363248825,0,0.0012290510349,0.132909968495,0.0671552941203,0.065926246345,-0.414562225342,-0.00961530022323,0.35164642334,0.00506072537974,2.35897445679,0.0447356626391,0.564765930176,0.0211143568158,43.114849090558,69.48538208004,52.73140716549,26.747957229576,284
1.6495435529299E+018,16,1.6495435529299E+018,r200151369/base_footprint,0,1.64954355292995E+018,v/m1vw10zy74w/map,12.1247453233,-6.49611588475,0,0,0,0.999968837251,0.00789458847371,0,62.7360954285,45.4616279602,47.2733459473,69.1337356567,50.8060531616,50.8060531616,62.7360954285,62.7360954285,28.3371124268,1.75980269909,0,0.00565606169403,0.145263925195,0.0888347923756,0.0831787288189,-2.34677886963,-0.0544308722019,0.35164642334,0.00506072537974,1.92535400391,0.0365124717355,-1.58915519714,-0.0594122074544,43.11484909057,69.48538208004,52.73140716551,26.74795722966,284
1.64954355302908E+018,17,1.64954355302908E+018,r200151369/base_footprint,0,1.64954355302908E+018,v/m1vw10zy74w/map,12.1247453233,-6.49611588475,0,0,0,0.999968837251,0.00789458847371,0,62.9552764893,50.9154663086,47.3181724548,69.1337356567,51.2459754944,51.2459754944,62.9552764893,62.9552764893,29.1430301666,1.82565379143,0,0.00673144077882,0.153226599097,0.0480681098998,0.0413366705179,-7.80061721802,-0.180926471949,0.35164642334,0.00506072537974,1.48543167114,0.0281697716564,-2.39507293701,-0.0895422771573,43.11484909058,69.48538208004,52.73140716554,26.74795722959,284
1.64954355312888E+018,18,1.64954355312888E+018,r200151369/base_footprint,0,1.64954355312888E+018,v/m1vw10zy74w/map,11.9300435794,-6.49675140091,0,0,0,0.99999491472,0.00318912735269,0,62.783531189,45.4616279602,47.3730163574,67.0070266724,51.5842933655,51.5842933655,62.783531189,62.783531189,28.232093811,1.70167374611,0,0.00126163242385,0.164581775665,0.00955757312477,0.00829594116658,-1.61281204224,-0.0367811992764,2.82057189941,0.0403933674097,1.63563156128,0.0307334437966,-1.44652557373,-0.0540039166808,43.84881591796,69.82759857181,53.21992492678,26.78556823727,281
1.64954355322882E+018,19,1.64954355322882E+018,r200151369/base_footprint,0,1.64954355322882E+018,v/m1vw10zy74w/map,11.9300435794,-6.49675140091,0,0,0,0.99999491472,0.00318912735269,0,62.9956283569,47.7989883423,47.4305763245,67.0070266724,51.8814926147,51.8814926147,62.9956283569,62.9956283569,27.6241397858,1.73573613167,0,0.000833593658172,0.170787170529,0.0087763518095,0.00960994511843,-3.95017242432,-0.090086184442,2.82057189941,0.0403933674097,1.33843231201,0.025149082765,-0.838571548462,-0.0313068404794,43.84881591798,69.82759857181,53.21992492671,26.785568237338,281
1.64954355332905E+018,20,1.64954355332905E+018,r200151369/base_footprint,0,1.64954355332905E+018,v/m1vw10zy74w/map,11.9300435794,-6.49675140091,0,0,0,0.99999491472,0.00318912735269,0,63.2058486938,49.0196075439,47.6226615906,67.0070266724,52.2173423767,52.2173423767,63.2058486938,63.2058486938,27.4673557281,1.76516997814,0,0.000897416553926,0.176491171122,0.0114019354805,0.0122993523255,-5.17079162598,-0.117923177779,2.82057189941,0.0403933674097,1.00258255005,0.0188384819776,-0.681787490845,-0.0254535377026,43.84881591792,69.82759857181,53.21992492675,26.785568237255,281
1.6495435534291E+018,21,1.6495435534291E+018,r200151369/base_footprint,0,1.6495435534291E+018,v/m1vw10zy74w/map,11.7208536823,-6.49509168214,0,0,0,0.999996468796,0.00265751693149,0,63.0868034363,45.8823547363,47.6460342407,64.8834533691,52.5562744141,52.5562744141,63.0868034363,63.0868034363,25.6257400513,1.76209533215,0,0.00127673964016,0.187748759985,0.0127059984952,0.0139827374369,-1.17264938354,-0.0262280721217,4.90280151367,0.0702545419335,1.03828811646,0.0193730127066,1.15934562683,0.0432832539082,44.70970535276,69.78625488277,53.59456253056,26.78508567813,276
1.64954355362927E+018,22,1.64954355362927E+018,r200151369/base_footprint,0,1.64954355362927E+018,v/m1vw10zy74w/map,11.7098034361,-6.4981640466,0,0,0,0.999998092026,0.00195344439202,0,64.0265350342,51.0461921692,47.9260940552,67.9191894531,52.881855011,52.881855011,64.0265350342,64.0265350342,23.1554870605,1.73438203335,0,0.00114428985398,0.189771696925,0.0126110380515,0.0137553280219,-6.17678833008,-0.137661471963,1.98532104492,0.028400471434,0.738208770752,0.0137673979625,3.50617980957,0.13150639832,44.86940383912,69.90451049802,53.620063781752,26.66166687007,270
1.6495435537297E+018,23,1.6495435537297E+018,r200151369/base_footprint,0,1.6495435537297E+018,v/m1vw10zy74w/map,11.7098034361,-6.4981640466,0,0,0,0.999998092026,0.00195344439202,0,64.1269760132,50.7154197693,48.0249290466,67.9191894531,53.1571846008,53.1571846008,64.1269760132,64.1269760132,24.3211460114,1.75227475166,0,0.00156917038839,0.195700749755,0.0122971013188,0.0138662718236,-5.84601593018,-0.130289584398,1.98532104492,0.028400471434,0.462879180908,0.00863257423043,2.34052085876,0.0877859890461,44.86940383912,69.90451049802,53.620063781708,26.66166687016,270
1.6495435538291E+018,24,1.6495435538291E+018,r200151369/base_footprint,0,1.6495435538291E+018,v/m1vw10zy74w/map,11.5125865385,-6.49976175684,0,0,0,-0.99999961007,0.000883096444467,0,64.1317749023,49.4670333862,48.1936759949,67.9509887695,53.3763656616,53.3763656616,64.1317749023,64.1317749023,26.7164020538,1.76678144932,0,0.00230649136938,0.210640951991,0.0133954752237,0.0157019663602,-3.89832305908,-0.0855482444167,2.40612030029,0.0341986790299,0.537307739258,0.00996607542038,-0.123247146606,-0.00463454378769,45.56871032712,70.35710906979,53.913673400858,26.593154907194,269
1.64954355393004E+018,25,1.64954355393004E+018,r200151369/base_footprint,0,1.64954355393004E+018,v/m1vw10zy74w/map,11.4920725601,-6.50308033301,0,0,0,0.99999998543,0.000170705804987,0,64.1832275391,48.235294342,50.5333976746,68.6988754272,53.5080604553,53.5080604553,64.1832275391,64.1832275391,29.9049568176,1.62452220917,0,0.00253927451558,0.21466742456,0.0142839616165,0.0168232358992,-2.66658401489,-0.0585178732872,1.65823364258,0.0235688146204,0.405612945557,0.00752337789163,-3.3118019104,-0.124535880983,45.56871032711,70.35710906978,53.913673400857,26.5931549072,269
1.64954355402886E+018,26,1.64954355402886E+018,r200151369/base_footprint,0,1.64954355402886E+018,v/m1vw10zy74w/map,11.4920725601,-6.50308033301,0,0,0,0.99999998543,0.000170705804987,0,64.2696838379,46.3087234497,56.9075279236,68.6988754272,53.6075897217,53.6075897217,64.2696838379,64.2696838379,29.4236431122,1.64639937878,0,0.00268974876963,0.212874919176,0.0118759907782,0.0145657397807,-0.740013122559,-0.0162395015359,1.65823364258,0.0235688146204,0.306083679199,0.00567729212344,-2.83048820496,-0.106436721981,45.568710327141,70.35710906978,53.913673400899,26.59315490724,269
1.649543554129E+018,27,1.649543554129E+018,r200151369/base_footprint,0,1.649543554129E+018,v/m1vw10zy74w/map,11.2759118116,-6.50246163774,0,0,0,-0.999999948299,0.000321560330205,0,64.1350479126,47.5357704163,56.6644248962,66.3631210327,53.7684555054,53.7684555054,64.1350479126,64.1350479126,25.1756439209,1.63285017014,0,0.00288737541996,0.212667450309,0.00963918212801,0.0125265577808,-1.40393829346,-0.030433177948,4.59330749512,0.064734198153,0.430332183838,0.00793988537043,1.18354225159,0.0449005626142,46.13183212284,70.95642852782,54.198787689238,26.35918617249,271
1.64954355422898E+018,28,1.64954355422898E+018,r200151369/base_footprint,0,1.64954355422898E+018,v/m1vw10zy74w/map,11.2759118116,-6.50246163774,0,0,0,-0.999999948299,0.000321560330205,0,64.2654495239,46.8170814514,53.3967552185,66.3631210327,53.8833885193,53.8833885193,64.2654495239,64.2654495239,24.0698070526,1.68176615238,0,0.00190811080392,0.21180704236,0.00244300812483,0.00435111904517,-0.685249328613,-0.0148541536182,4.59330749512,0.064734198153,0.315399169922,0.00581930298358,2.28937911987,0.0868531763554,46.131832122787,70.95642852782,54.198787689222,26.35918617247,271
1.64954355432915E+018,29,1.64954355432915E+018,r200151369/base_footprint,0,1.64954355432915E+018,v/m1vw10zy74w/map,11.0552155529,-6.5040077432,0,0,0,0.999993630226,0.00356924452842,0,64.5680770874,49.2344894409,51.3753967285,66.7266540527,54.0628585815,54.0628585815,64.5680770874,64.5680770874,21.8694057465,1.66317296028,0,0.0023026985582,0.210644870996,0.00179647980258,0.000506218813825,-2.24042129517,-0.0476745553315,4.62424468994,0.0648099035025,0.332912445068,0.00612019002438,4.04078483582,0.155953496695,46.99406814573,71.35089874264,54.395771026568,25.91019058232,271
1.64954355442879E+018,30,1.64954355442879E+018,r200151369/base_footprint,0,1.64954355442879E+018,v/m1vw10zy74w/map,11.0552155529,-6.5040077432,0,0,0,0.999993630226,0.00356924452842,0,64.8462142944,51.7973861694,48.3107185364,66.7266540527,54.2975463867,54.2975463867,64.8462142944,64.8462142944,19.3975372314,1.68348443508,0,0.00232246587984,0.207779929042,0.00484495889395,0.00252249301411,-4.80331802368,-0.102211154997,4.62424468994,0.0648099035025,0.0982246398926,0.0018057404086,6.51265335083,0.251354902983,46.99406814572,71.35089874264,54.3957710265926,25.91019058223,271
1.64954355452961E+018,31,1.64954355452961E+018,r200151369/base_footprint,0,1.64954355452961E+018,v/m1vw10zy74w/map,10.8150071974,-6.50650714457,0,0,0,0.999998076733,0.00196125725694,0,65.9931259155,58.8646659851,48.2417945862,72.1552047729,54.6447143555,54.6447143555,65.9931259155,65.9931259155,22.0454235077,1.82702171803,0,0.00258477334864,0.208328872919,0.00645288871601,0.00386811513454,-11.9460716248,-0.254612743855,0.252998352051,0.00349405640736,-0.0811538696289,-0.00148732727394,3.74146461487,0.145091742277,46.9185943603,72.408203124951,54.5635604858711,25.78688812257,274
1.64954355462883E+018,32,1.64954355462883E+018,r200151369/base_footprint,0,1.64954355462883E+018,v/m1vw10zy74w/map,10.8150071974,-6.50650714457,0,0,0,0.999998076733,0.00196125725694,0,66.1607513428,56.699344635,48.2782096863,72.1552047729,54.8559379578,54.8559379578,66.1607513428,66.1607513428,21.309337616,1.83256459236,0,0.00220795231871,0.208806425333,0.00623216293752,0.00402421085164,-9.78075027466,-0.208462134004,0.252998352051,0.00349405640736,-0.292377471924,-0.00535847479478,4.47755050659,0.173636719584,46.91859436034,72.408203124951,54.563560485876,25.78688812259,274
1.64954355472883E+018,33,1.64954355472883E+018,r200151369/base_footprint,0,1.64954355472883E+018,v/m1vw10zy74w/map,10.5821029767,-6.50843419308,0,0,0,0.999999303674,0.00118010687132,0,66.5781784058,44.8275871277,48.5798225403,74.8847961426,54.899307251,54.899307251,66.5781784058,66.5781784058,24.0905857086,1.80152761936,0,0.00296735693701,0.208921149373,0.000717294984497,0.00225006183609,1.62163162231,0.0349119231105,-1.62516021729,-0.0221835691482,-0.12674331665,-0.00231399270706,1.55165100098,0.0605115294456,46.44921875001,73.25963592531,54.77256393435,25.64223670958,275
1.64954355482881E+018,34,1.64954355482881E+018,r200151369/base_footprint,0,1.64954355482881E+018,v/m1vw10zy74w/map,10.3810306187,-6.5066892177,0,0,0,0.999996062532,0.00280622872609,0,66.8313522339,39.1197052002,48.9145889282,76.0510482788,54.8345527649,54.8345527649,66.8313522339,66.8313522339,23.0325393677,1.7078243494,0,0.00322010135278,0.207301780581,0.000685855338816,0.00390595663339,6.66790771484,0.145626887679,-2.03268432617,-0.0274618919939,0.0618171691895,0.00112607027404,2.69207000732,0.104649595916,45.78761291504,74.01836395263,54.8963699340895,25.72460937502,266
1.64954355492877E+018,35,1.64954355492877E+018,r200151369/base_footprint,0,1.64954355492877E+018,v/m1vw10zy74w/map,10.3790457352,-6.50191379392,0,0,0,0.999996542052,0.0026298068005,0,66.7369537354,37.9084968567,50.0084991455,76.7627792358,54.5823478699,54.5823478699,66.7369537354,66.7369537354,24.5701599121,1.82084918022,0,0.0037227391731,0.208045378327,0.00156592065468,0.00215681875125,7.87911605835,0.172079637647,-2.7444152832,-0.0370774902403,0.314022064209,0.00572027033195,1.15444946289,0.0448772385716,45.78761291505,74.0183639526,54.896369934109,25.72460937499,266
1.64954355502898E+018,36,1.64954355502898E+018,r200151369/base_footprint,0,1.64954355502898E+018,v/m1vw10zy74w/map,10.1176284893,-6.50538722248,0,0,0,0.999980642689,0.00622207740941,0,66.1071395874,36.9747886658,52.8304214478,75.9738006592,54.3241119385,54.3241119385,66.1071395874,66.1071395874,30.2775211334,1.69766998291,0,0.00329684372991,0.208782896399,0.00505531392992,0.0017584702,8.04316711426,0.178665757179,-1.04071044922,-0.0138885295019,0.679401397705,0.0123519636691,-3.97965621948,-0.151330009103,45.01795578006,74.93309020998,55.003513336205,26.29786491392,268
1.64954355512876E+018,37,1.64954355512876E+018,r200151369/base_footprint,0,1.64954355512876E+018,v/m1vw10zy74w/map,10.1176284893,-6.50538722248,0,0,0,0.999980642689,0.00622207740941,0,66.3567428589,30.7958469391,54.8451881409,75.9738006592,54.2005233765,54.2005233765,66.3567428589,66.3567428589,24.4499473572,1.6310530901,0,0.00241358112544,0.209294468164,0.0068512475118,0.00443766638637,14.2221088409,0.315920799971,-1.04071044922,-0.0138885295019,0.802989959717,0.0145988846198,1.84791755676,0.070268727839,45.01795578,74.93309020998,55.003513336217,26.29786491396,268
1.64954355522927E+018,38,1.64954355522927E+018,r200151369/base_footprint,0,1.64954355522928E+018,v/m1vw10zy74w/map,9.87189176994,-6.50847939844,0,0,0,0.999997376572,0.00229060010714,0,66.4346466064,37.3121528625,57.236831665,76.5411987305,54.1125907898,54.1125907898,66.4346466064,66.4346466064,24.1406402588,1.71510875225,0,0.00171319360379,0.209072902799,0.00582436751574,0.00411117402837,7.76443862915,0.172249898314,-1.18663787842,-0.0157473925501,1.10679626465,0.0200436171144,2.65210723877,0.0989860147238,45.07659149165,75.35456085208,55.21938705445,26.79274749757,259
1.64954355532976E+018,39,1.64954355532976E+018,r200151369/base_footprint,0,1.64954355532976E+018,v/m1vw10zy74w/map,9.65982526103,-6.50842597925,0,0,0,-0.999998243297,0.00187440740872,0,65.9490890503,29.9307956696,53.4544487,76.3571472168,53.8439788818,53.8439788818,65.9490890503,65.9490890503,29.3170948029,1.72796177864,0,0.00149766425602,0.208999857306,0.000810606463347,0.000687057792675,15.6819515228,0.343806326389,-0.86937713623,-0.0115167945623,1.45566177368,0.0263231694698,-1.85924339294,-0.0677126348019,45.6127471924,75.48777008057,55.29964065548,27.45785140996,263
1.64954355542897E+018,40,1.64954355542897E+018,r200151369/base_footprint,0,1.64954355542898E+018,v/m1vw10zy74w/map,9.65982526103,-6.50842597925,0,0,0,-0.999998243297,0.00187440740872,0,65.7492904663,38.618927002,49.556186676,76.3571472168,53.6943626404,53.6943626404,65.7492904663,65.7492904663,31.2976493835,1.86527609825,0,0.000613060954493,0.209063231945,0.00549815222621,0.00611121347174,6.99382019043,0.153330385685,-0.86937713623,-0.0115167945623,1.60527801514,0.029028724879,-3.83979797363,-0.139843344688,45.61274719243,75.48777008057,55.29964065554,27.45785140987,263
1.64954355552896E+018,41,1.64954355552896E+018,r200151369/base_footprint,0,1.64954355552896E+018,v/m1vw10zy74w/map,9.41351254773,-6.50680691831,0,0,0,-0.999999951972,0.000309928248134,0,66.3657608032,49.4553375244,51.6862182617,77.9607162476,53.8212203979,53.8212203979,66.3657608032,66.3657608032,27.3440704346,1.81044983864,0,0.00104752148036,0.209736645222,0.00708452193066,0.00813204329461,-3.49097824097,-0.0759496763349,-2.26760864258,-0.0299579277635,1.61850357056,0.0291939321905,0.804546356201,0.0285820923746,45.96435928343,75.69310760502,55.43972396846,28.148616790801,259
1.6495435556288E+018,42,1.6495435556288E+018,r200151369/base_footprint,0,1.6495435556288E+018,v/m1vw10zy74w/map,9.19734411469,-6.50671129013,0,0,0,0.999999956275,0.000295719554983,0,66.2010192871,53.8126373291,51.2456893921,76.2285308838,53.9716911316,53.9716911316,66.2010192871,66.2010192871,25.6985721588,1.81526648998,0,0.00135321414564,0.210711792111,0.00680410396308,0.00815731845796,-7.38800430298,-0.159139752388,-0.260643005371,-0.00343096279539,1.60916137695,0.0289517212659,2.86187934875,0.100204274058,46.42463302612,75.967887878429,55.58085250855,28.56045150755,256
1.64954355572884E+018,43,1.64954355572884E+018,r200151369/base_footprint,0,1.64954355572884E+018,v/m1vw10zy74w/map,9.16156809463,-6.50641472815,0,0,0,-0.999999825581,0.000590625109868,0,66.8627166748,57.2192497253,50.8457183838,77.626449585,54.2010383606,54.2010383606,66.8627166748,66.8627166748,21.2974815369,1.7300144434,0,0.00214163633063,0.211060121655,0.00626098923385,0.00840262603015,-10.9703483582,-0.237202361226,-1.62409973145,-0.0213690716773,1.35179138184,0.0243334379047,7.55288505554,0.26179510355,46.2489013671,76.00234985355,55.55282974244,28.85036659244,256
1.64954355582884E+018,44,1.64954355582884E+018,r200151369/base_footprint,0,1.64954355582884E+018,v/m1vw10zy74w/map,8.89455378544,-6.50241506907,0,0,0,-0.999999578895,0.000917720291036,0,66.5576171875,55.0965423584,51.6625518799,76.9981002808,54.4160499573,54.4160499573,66.5576171875,66.5576171875,26.8493556976,1.93075370789,0,0.00217828247696,0.211905971169,0.00418828800321,0.00636657048017,-8.50925445557,-0.182651847601,-0.419998168945,-0.00548457261175,1.25884246826,0.0226105954498,2.73449325562,0.0924319624901,46.58728790283,76.578102111855,55.67489242556,29.58384895322,269
1.64954355592897E+018,45,1.64954355592897E+018,r200151369/base_footprint,0,1.64954355592897E+018,v/m1vw10zy74w/map,8.89455378544,-6.50241506907,0,0,0,-0.999999578895,0.000917720291036,0,66.5451507568,58.0483360291,51.844669342,76.9981002808,54.6845207214,54.6845207214,66.5451507568,66.5451507568,29.9731998444,1.88256418705,0,0.00323015707545,0.212347373366,0.00119173631538,0.00442189350724,-11.4610481262,-0.246012344956,-0.419998168945,-0.00548457261175,0.990371704102,0.0177884791046,-0.389350891113,-0.0131609272212,46.5872879029,76.578102111855,55.674892425502,29.583848953287,269
1.64954355602911E+018,46,1.64954355602911E+018,r200151369/base_footprint,0,1.64954355602911E+018,v/m1vw10zy74w/map,8.65146059162,-6.50406359403,0,0,0,-0.999993454922,0.00361802625656,0,66.9632263184,56.9583930969,52.9884529114,76.8700256348,54.860786438,54.860786438,66.9632263184,66.9632263184,23.8904743195,1.70065736771,0,0.00359087903053,0.212280631065,0.000337096716976,0.00392797542736,-10.5355682373,-0.226948022842,0.799011230469,0.0102873845026,0.905277252197,0.0162334796041,6.27216148376,0.207944735885,46.4228248596,77.669036865269,55.766063690197,30.16263580326,276
1.64954355612944E+018,47,1.64954355612944E+018,r200151369/base_footprint,0,1.64954355612944E+018,v/m1vw10zy74w/map,8.40355384832,-6.50696775323,0,0,0,-0.999986484691,0.00519908027564,0,66.974937439,52.1759910583,54.2635612488,77.6140213013,54.9860877991,54.9860877991,66.974937439,66.974937439,27.7113456726,1.98093748093,0,0.0042947018519,0.211254715919,0.0061275428161,0.010422244668,-6.16400146484,-0.13396511972,1.23168945312,0.0156215149909,0.832038879395,0.0149062490091,2.65214920044,0.0873466357589,46.01198959346,78.84571075442,55.818126678495,30.36349487304,290
1.64954355622889E+018,48,1.64954355622889E+018,r200151369/base_footprint,0,1.64954355622889E+018,v/m1vw10zy74w/map,8.40355384832,-6.50696775323,0,0,0,-0.999986484691,0.00519908027564,0,67.1244125366,48.3500709534,53.9483451843,77.6140213013,55.0476417542,55.0476417542,67.1244125366,67.1244125366,25.6856327057,1.77108323574,0,0.00409430637956,0.211125582457,0.0172305554152,0.0213248617947,-2.33808135986,-0.0508146099746,1.23168945312,0.0156215149909,0.770484924316,0.0138034895062,4.67786216736,0.154062047601,46.01198959354,78.84571075442,55.818126678516,30.36349487306,290
1.64954355632881E+018,49,1.64954355632881E+018,r200151369/base_footprint,0,1.64954355632881E+018,v/m1vw10zy74w/map,8.15930870036,-6.50703449646,0,0,0,-0.999995675957,0.00294075976513,0,67.1894760132,45.480632782,55.5050201416,79.1417541504,55.0428771973,55.0428771973,67.1894760132,67.1894760132,29.9627857208,2.09749269485,0,0.00316986278631,0.209032550454,0.032855078578,0.0360249392688,-0.082332611084,-0.00181356153917,1.17475891113,0.0146266175434,0.777374267578,0.0139263840392,0.219179153442,0.00726192444563,45.398300170916,80.31651306153,55.820251464878,30.181964874242,313
1.64954355642869E+018,50,1.64954355642869E+018,r200151369/base_footprint,0,1.64954355642869E+018,v/m1vw10zy74w/map,7.89297960299,-6.51143661746,0,0,0,0.999984010537,0.00565496859017,0,67.2198638916,40.2277030945,59.8427810669,78.6383666992,55.0111694336,55.0111694336,67.2198638916,67.2198638916,27.2611656189,1.9141600132,0,0.00158850650769,0.209093540907,0.0439304150641,0.0455189235508,4.69506835938,0.104514218867,3.22985076904,0.0394518263638,0.729629516602,0.0130896857008,2.78946304321,0.0928254500031,44.92277145388,81.86821746824,55.740798950202,30.05062866211,330
1.64954355652939E+018,51,1.64954355652939E+018,r200151369/base_footprint,0,1.64954355652939E+018,v/m1vw10zy74w/map,7.67249009976,-6.50391695118,0,0,0,0.999690203899,0.0248896811821,0,66.4638977051,37.254901886,62.9450416565,75.8731536865,54.8367195129,54.8367195129,66.4638977051,66.4638977051,29.0298213959,2.04056167603,0,0.000869515759405,0.209459155798,0.0495831593871,0.0504526756704,7.6900100708,0.171098574996,7.33086395264,0.0881070941687,0.839031219482,0.0150699578226,0.952037811279,0.0317537933588,44.9449119568,83.20401763914,55.675750732382,29.981859207179,353
1.64954355662894E+018,52,1.64954355662894E+018,r200151369/base_footprint,0,1.64954355662894E+018,v/m1vw10zy74w/map,7.63038271496,-6.50255514514,0,0,0,0.999666531076,0.0258229867814,0,66.8313369751,40.2121505737,61.7930183411,78.6979141235,54.6784591675,54.6784591675,66.8313369751,66.8313369751,30.8758659363,2.29321980476,0,0.000194737600395,0.209116324782,0.0537172369659,0.0535224974155,4.88343048096,0.108290664852,4.85140228271,0.0580663308501,0.978298187256,0.017577348277,-0.860513687134,-0.0286691188812,45.09558105466,83.54931640621,55.656757354756,30.015352249166,353
1.64954355702888E+018,53,1.64954355702888E+018,r200151369/base_footprint,0,1.64954355702888E+018,v/m1vw10zy74w/map,7.36908097919,-6.48864149807,0,0,0,0.998855824043,0.047823036026,0,66.7411117554,34.3137245178,61.1073455811,78.9386978149,54.3422775269,54.3422775269,66.7411117554,66.7411117554,29.7359352112,2.22490549088,0,0.000200764290639,0.208207204938,0.0685453265905,0.0683445632458,12.346157074,0.264598965645,7.64273071289,0.0882721692324,0.91593170166,0.0165754873306,0.833972930908,0.027280844748,46.6598815918,86.58142852779,55.25820922856,30.569908142108,730
1.64954355712871E+018,54,1.64954355712871E+018,r200151369/base_footprint,0,1.64954355712871E+018,v/m1vw10zy74w/map,7.13160919243,-6.4603256608,0,0,0,0.997729335883,0.067351112232,0,67.3599777222,36.2745094299,58.8797798157,81.6108016968,54.0997161865,54.0997161865,67.3599777222,67.3599777222,25.5961608887,2.08147501945,0,0.000158752125571,0.207338646054,0.0957749858499,0.0956162363291,11.847278595,0.246193647385,1.42678070068,0.017182348296,0.779190063477,0.0141983525828,5.06785392761,0.165270403028,48.1217880249,83.03758239748,54.878906249977,30.66401481631,1142
1.64954355722878E+018,55,1.64954355722878E+018,r200151369/base_footprint,0,1.64954355722878E+018,v/m1vw10zy74w/map,6.88221575799,-6.42390840295,0,0,0,0.995239816279,0.0974561855078,0,67.0155410767,45.6253089905,60.2388954163,82.1267929077,53.9368057251,53.9368057251,67.0155410767,67.0155410767,31.8941879272,2.27517008781,0,0.00030436515226,0.207221627235,0.12463016063,0.124325796962,3.07618331909,0.0631640478969,-0.365501403809,-0.00447034789249,0.903034210205,0.01646675542,-1.31554222107,-0.0430215969682,48.70149230959,81.761291503891,54.839839935305,30.57864570613,1270
1.64954355732896E+018,56,1.64954355732896E+018,r200151369/base_footprint,0,1.64954355732896E+018,v/m1vw10zy74w/map,6.88221575799,-6.42390840295,0,0,0,0.995239816279,0.0974561855078,0,67.1041030884,45.480632782,62.4873657227,82.1267929077,53.7658882141,53.7658882141,67.1041030884,67.1041030884,28.4541721344,2.38739275932,0,0.000793561164755,0.206743955612,0.14500156045,0.145795121789,3.22085952759,0.0661347210407,-0.365501403809,-0.00447034789249,1.07395172119,0.0195834226906,2.12447357178,0.0694757252932,48.70149230959,81.761291503891,54.83983993529,30.57864570618,1270
1.6495435574289E+018,57,1.6495435574289E+018,r200151369/base_footprint,0,1.64954355742891E+018,v/m1vw10zy74w/map,6.63504914208,-6.36359726707,0,0,0,0.991027049843,0.13366146221,0,66.7481384277,41.6470603943,60.9426612854,81.6087265015,53.6029014587,53.6029014587,66.7481384277,66.7481384277,31.2362575531,2.29633307457,0,0.000911378534511,0.20637601614,0.174055635929,0.174967005849,7.71053695679,0.156217828393,-3.82276153564,-0.0491446182132,2.00547027588,0.0360641777515,-0.879789352417,-0.0289819408208,49.35759735109,77.78596496586,55.60837173458,30.356468200683,1125
1.64954355752904E+018,58,1.64954355752904E+018,r200151369/base_footprint,0,1.64954355752904E+018,v/m1vw10zy74w/map,6.19416800823,-6.209627938,0,0,0,0.974703328287,0.223502621519,0,66.4136276245,54.8235282898,56.0708961487,78.5765228271,53.6874084473,53.6874084473,66.4136276245,66.4136276245,27.2542247772,2.18689370155,0,9.03242762433E-05,0.20627951622,0.192576915026,0.192486599088,-6.53736495972,-0.135387957096,-3.28608703613,-0.043645478785,5.24767303467,0.08904158324,3.19951820374,0.10506157577,48.28616333008,75.29043579097,58.93508148197,30.45374298094,526
1.64954355762916E+018,59,1.64954355762916E+018,r200151369/base_footprint,0,1.64954355762916E+018,v/m1vw10zy74w/map,6.15072410728,-6.19171996111,0,0,0,0.972459779411,0.233070756269,0,67.038192749,41.6470603943,60.9278526306,81.6644897461,53.7522697449,53.7522697449,67.038192749,67.038192749,27.829208374,2.39966392517,0,0.000149146930198,0.207092225552,0.197576195002,0.197725340724,6.46792602539,0.134426429868,-6.14151763916,-0.081319861114,5.14065551758,0.0872881710529,2.50792884827,0.0826686024666,48.11498641969,75.52297210694,58.89292526248,30.33713722227,518
1.64954355773026E+018,60,1.64954355773026E+018,r200151369/base_footprint,0,1.64954355773026E+018,v/m1vw10zy74w/map,5.90410130093,-6.05650262741,0,0,0,0.955719180868,0.294280219045,0,67.0468673706,48.124130249,67.0859451294,81.2630233765,53.8683815002,53.8683815002,67.0468673706,67.0468673706,27.4817962646,2.49008321762,0,0.000472395826364,0.206721559167,0.190386623144,0.189914226532,-0.728355407715,-0.0153675172478,-4.70964813232,-0.0615211054683,4.79090118408,0.0816733688116,2.56475448608,0.085359364748,47.395774841285,76.55337524418,58.65928268428,30.04655075068,536
1.6495435578291E+018,61,1.6495435578291E+018,r200151369/base_footprint,0,1.6495435578291E+018,v/m1vw10zy74w/map,5.68854127629,-5.8915579343,0,0,0,0.933418024666,0.358790734591,0,67.2642440796,48.235294342,66.6764297485,81.2794418335,54.0295410156,54.0295410156,67.2642440796,67.2642440796,25.3685798645,2.6261484623,0,0.000718328694347,0.207008093596,0.165869221091,0.165150895715,-1.06032180786,-0.0224763639271,-3.9974822998,-0.0517259426415,4.46710205078,0.0763650983572,4.43882369995,0.148916825652,47.17497253414,77.2819595337,58.49664306638,29.80740356445,547
1.64954355792882E+018,62,1.64954355792882E+018,r200151369/base_footprint,0,1.64954355792883E+018,v/m1vw10zy74w/map,5.48413017448,-5.69143447223,0,0,0,0.909145364051,0.416478939472,0,67.544342041,55.8823547363,67.635345459,81.2894515991,54.232837677,54.232837677,67.544342041,67.544342041,22.5584545135,2.44182372093,0,0.000659216893837,0.20717304945,0.147031515837,0.146372303367,-9.14924240112,-0.195776447654,-3.41438293457,-0.0438443645835,4.14441680908,0.0709936916828,7.0136013031,0.237169891596,46.73311233518,77.87506866453,58.37725448608,29.5720558166,521
1.64954355802878E+018,63,1.64954355802878E+018,r200151369/base_footprint,0,1.64954355802878E+018,v/m1vw10zy74w/map,5.48413017448,-5.69143447223,0,0,0,0.909145364051,0.416478939472,0,67.5356903076,59.5294113159,65.2910079956,81.2894515991,54.4407539368,54.4407539368,67.5356903076,67.5356903076,24.9597358704,2.61917448044,0,0.000487714889459,0.206937149167,0.130372688174,0.129884973168,-12.7962989807,-0.273816525936,-3.41438293457,-0.0438443645835,3.93650054932,0.0674320980906,4.61231994629,0.155968859792,46.7331123352,77.87506866453,58.37725448612,29.57205581669,521
1.6495435581293E+018,64,1.6495435581293E+018,r200151369/base_footprint,0,1.6495435581293E+018,v/m1vw10zy74w/map,5.27977170285,-5.4206634895,0,0,0,0.881668232015,0.471869821726,0,67.2090835571,58.639705658,60.3144073486,80.1173400879,54.5185546875,54.5185546875,67.2090835571,67.2090835571,27.4592418671,2.43755960464,0,0.00289683742449,0.206788480282,0.0694613531232,0.0723581910133,-10.5593338013,-0.219618394971,-1.63115692139,-0.0207827277482,3.71968460083,0.06387013942,1.39374160767,0.0483049377799,48.0803718567,78.48618316651,58.23823928833,28.85298347477,534
1.64954355822897E+018,65,1.64954355822897E+018,r200151369/base_footprint,0,1.64954355822897E+018,v/m1vw10zy74w/map,5.12662090392,-5.17150648586,0,0,0,0.866356109759,0.499426762483,0,67.6728591919,58.5882339478,55.7581939697,80.7688827515,54.5770988464,54.5770988464,67.6728591919,67.6728591919,22.0891609192,2.35977220535,0,0.00640956219286,0.207647457719,0.0176242310554,0.0240337923169,-9.4603805542,-0.192566528916,-1.87466430664,-0.0237617455423,3.60348510742,0.0619362145662,6.3364982605,0.222914740443,49.1278533936,78.89421844486,58.18058395382,28.4256591797,519
1.64954355832882E+018,66,1.64954355832882E+018,r200151369/base_footprint,0,1.64954355832882E+018,v/m1vw10zy74w/map,4.97931635295,-4.90967516679,0,0,0,0.857631340087,0.514264994435,0,67.183013916,42.3769493103,48.4734382629,80.9620056152,54.1534004211,54.1534004211,67.183013916,67.183013916,27.0256958008,2.19428610802,0,0.00717732682824,0.207378029823,0.00347847188823,0.0106557989493,7.91096115112,0.157313376665,-1.67028808594,-0.0210651010275,3.87026977539,0.0667015686631,0.734634399414,0.0264634601772,50.28791046142,79.29171752926,58.02367019649,27.760330200214,510
1.64954355842921E+018,67,1.64954355842921E+018,r200151369/base_footprint,0,1.64954355842921E+018,v/m1vw10zy74w/map,4.8585343887,-4.68468362421,0,0,0,0.85561190168,0.517617883871,0,66.7124938965,44.2265777588,48.3669013977,78.2977371216,53.8876914978,53.8876914978,66.7124938965,66.7124938965,23.0340919495,2.28291630745,0,0.00424569565803,0.205996230245,0.0295447017998,0.025299007073,6.45539855957,0.12737070024,1.46839141846,0.0184087082744,3.90003967285,0.0674890577793,3.94349479675,0.146176710725,50.68197631837,79.76612854006,57.78773117065,26.97758674625,493
1.64954355852973E+018,68,1.64954355852973E+018,r200151369/base_footprint,0,1.64954355852973E+018,v/m1vw10zy74w/map,4.69043569745,-4.36755384366,0,0,0,0.857802633082,0.513979223975,0,66.9206085205,41.5766296387,48.3264732361,81.7143173218,53.3485832214,53.3485832214,66.9206085205,66.9206085205,25.7653045654,2.35081076622,0,0.00217836373486,0.205140739679,0.0575161427259,0.0553377792239,9.69125747681,0.189031735063,-1.43896484375,-0.017925363034,4.22808456421,0.0734339952469,0.575317382812,0.021841449663,51.26788711551,80.27535247805,57.57666778561,26.340621948212,497
1.64954355862903E+018,69,1.64954355862903E+018,r200151369/base_footprint,0,1.64954355862903E+018,v/m1vw10zy74w/map,4.69043569745,-4.36755384366,0,0,0,0.857802633082,0.513979223975,0,66.7608947754,47.3222122192,48.3348197937,81.7143173218,53.0764122009,53.0764122009,66.7608947754,66.7608947754,25.7006874084,2.3658516407,0,0.00287042465061,0.204309403896,0.078501291573,0.0756308659911,3.94567489624,0.0769619196653,-1.43896484375,-0.017925363034,4.50025558472,0.078161098063,0.639934539795,0.0242945868522,51.26788711544,80.27535247805,57.57666778562,26.340621948195,497
1.64954355872891E+018,70,1.64954355872891E+018,r200151369/base_footprint,0,1.64954355872891E+018,v/m1vw10zy74w/map,4.53707244567,-4.09465998635,0,0,0,0.866637655151,0.498938046931,0,66.708114624,42.0049705505,48.2898139954,82.0095748901,52.4645462036,52.4645462036,66.708114624,66.708114624,21.1054420471,2.29285144806,0,0.00184307456948,0.205809488893,0.0850437283516,0.0832006558776,8.98632049561,0.176232457161,-1.4174041748,-0.0175873674452,4.82445526123,0.0842125937343,4.90946006775,0.188717216253,50.99129104611,80.5921707153,57.28900146483,26.01490211485,482
1.649543558829E+018,71,1.649543558829E+018,r200151369/base_footprint,0,1.649543558829E+018,v/m1vw10zy74w/map,4.36836993711,-3.81871662551,0,0,0,0.879724105495,0.475484487876,0,66.5358734131,52.561668396,48.1462097168,80.6267852783,52.4156723022,52.4156723022,66.5358734131,66.5358734131,18.6999855042,2.44256615639,0,0.00171498430427,0.205600246787,0.0813328921795,0.0830478742719,-2.07178115845,-0.0410335883498,0.273620605469,0.00338219082914,4.6598739624,0.0816439688206,7.50881958008,0.286499887705,50.48988723755,80.900405883769,57.0755462646,26.20880508428,506
1.64954355892925E+018,72,1.64954355892925E+018,r200151369/base_footprint,0,1.64954355892925E+018,v/m1vw10zy74w/map,4.18026219471,-3.55265264869,0,0,0,0.892144853899,0.451749443454,0,66.5086135864,52.1759910583,48.0597953796,81.2244720459,52.3123130798,52.3123130798,66.5086135864,66.5086135864,20.2259635925,2.42568969727,0,0.0015962801408,0.206149995327,0.0801022723317,0.081698551774,-3.49681091309,-0.0718338117003,-0.324638366699,-0.00401284359396,4.46075439453,0.0785716623068,6.0141658783,0.229197263718,48.67918014521,80.899833679201,56.77306747433,26.2401294708,487
1.64954355902891E+018,73,1.64954355902891E+018,r200151369/base_footprint,0,1.64954355902891E+018,v/m1vw10zy74w/map,3.98308419564,-3.29438059532,0,0,0,0.902923476815,0.429801343664,0,66.3799819946,47.3935928345,47.8978462219,80.9072265625,52.2225456238,52.2225456238,66.3799819946,66.3799819946,20.4298534393,2.53407382965,0,0.00103450950701,0.209471955895,0.0807004570961,0.081734970212,0.433078765869,0.00905517302454,0.058464050293,0.000722084252629,4.37040710449,0.0772252902389,5.85957527161,0.222887128592,47.826671600369,80.965690612793,56.59295272829,26.28942871091,497
1.64954355912877E+018,74,1.64954355912877E+018,r200151369/base_footprint,0,1.64954355912877E+018,v/m1vw10zy74w/map,3.77233246497,-3.04669418583,0,0,0,0.91107027204,0.412251087816,0,66.0199050903,46.9623908997,47.9151535034,80.9568634033,51.9166870117,51.9166870117,66.0199050903,66.0199050903,23.7866954803,2.53451609612,0,0.000468745449325,0.213413387537,0.0721483007073,0.072617046535,-0.022403717041,-0.000477284251247,-0.214859008789,-0.00266105611809,4.37965774536,0.0777964815497,2.95660591125,0.110555008054,46.939987182659,80.742004394511,56.29634475706,26.74330139155,483
1.64954355922877E+018,75,1.64954355922877E+018,r200151369/base_footprint,0,1.64954355922877E+018,v/m1vw10zy74w/map,3.54089422629,-2.798402173,0,0,0,0.91588000302,0.4014521392,0,65.6804580688,45.480632782,47.7665748596,80.3094329834,51.6014404297,51.6014404297,65.6804580688,65.6804580688,24.1613025665,2.52461242676,0,0.000297236692859,0.21347412467,0.0675760358572,0.0672788023949,0.804664611816,0.0173848867416,0.370063781738,0.00458683818579,4.34907531738,0.0777307450771,3.19054222107,0.116648152471,46.285297393816,80.679496765138,55.95051574708,27.35184478757,487
1.64954355932961E+018,76,1.64954355932961E+018,r200151369/base_footprint,0,1.64954355932961E+018,v/m1vw10zy74w/map,3.33794074107,-2.58554679338,0,0,0,0.917861251088,0.396901403061,0,64.4710998535,39.764705658,47.4985351562,77.0278320312,51.3828964233,51.3828964233,64.4710998535,64.4710998535,31.7557296753,2.54526853561,0,0.00187151005957,0.211146295071,0.056770760566,0.0548992492259,5.49571990967,0.121424399316,3.57233428955,0.0443216748536,4.31923294067,0.0775416120887,-3.88239097595,-0.139286905527,45.26042556767,80.60016632075,55.70212936397,27.87333869935,487
1.64954355942884E+018,77,1.64954355942884E+018,r200151369/base_footprint,0,1.64954355942884E+018,v/m1vw10zy74w/map,3.29767386381,-2.54255053393,0,0,0,0.91821524495,0.396081764212,0,65.0266494751,39.2789382935,47.249168396,79.8695220947,51.1970252991,51.1970252991,65.0266494751,65.0266494751,29.9784965515,2.69186997414,0,0.00324903894216,0.20573438704,0.0503473877907,0.0470983460546,5.47938919067,0.12242166698,0.57088470459,0.00709698908031,4.41839981079,0.0794455856085,-1.94968032837,-0.0695598497987,44.75832748417,80.44040679929,55.61542510989,28.02881622313,499
1.6495435595289E+018,78,1.6495435595289E+018,r200151369/base_footprint,0,1.6495435595289E+018,v/m1vw10zy74w/map,3.04911150125,-2.29015140471,0,0,0,0.918953675603,0.394365493035,0,64.6482620239,39.3090553284,46.9689674377,78.5413513184,50.9678001404,50.9678001404,64.6482620239,64.6482620239,29.5323677063,2.59306693077,0,0.00296706310473,0.202869430184,0.0574166998267,0.0544496364892,3.36322402954,0.0788151919842,1.83404541016,0.0228184927255,4.42105102539,0.0798184275627,-1.23318862915,-0.0435768328607,42.67227935794,80.37539672856,55.38885116579,28.29917907715,494
1.64954355962907E+018,79,1.64954355962907E+018,r200151369/base_footprint,0,1.64954355962907E+018,v/m1vw10zy74w/map,2.80353027371,-2.04328135196,0,0,0,0.917778963092,0.397091645475,0,64.7153015137,29.971988678,46.6778793335,77.3508758545,50.7622909546,50.7622909546,64.7153015137,64.7153015137,21.8205223083,2.6933054924,0,0.000482709845528,0.199069693685,0.0886064693332,0.0881237611175,10.6464538574,0.2621088624,2.74383544922,0.0342573858798,4.3067741394,0.0782067775726,6.6492023468,0.23355345428,40.6184425354,80.09471130372,55.069065094,28.4697246551,510
1.64954355972954E+018,80,1.64954355972954E+018,r200151369/base_footprint,0,1.64954355972954E+018,v/m1vw10zy74w/map,2.56442756512,-1.78524763239,0,0,0,0.91295284455,0.408065072786,0,64.1570205688,28.2639884949,46.4226379395,76.0994415283,50.4104499817,50.4104499817,64.1570205688,64.1570205688,23.5644645691,2.60283064842,0,0.000105454098957,0.197589054704,0.102573789656,0.102468334138,10.9411087036,0.279073625803,3.92848205566,0.0490888915956,4.32945251465,0.079091347754,4.75691795349,0.16796207428,39.2050971985,80.02792358396,54.73990249635,28.32138252259,515
1.64954355982892E+018,81,1.64954355982892E+018,r200151369/base_footprint,0,1.64954355982892E+018,v/m1vw10zy74w/map,2.33373274474,-1.52070655204,0,0,0,0.909956261272,0.414704235053,0,63.9519271851,31.6888046265,46.3156661987,76.0687637329,50.259727478,50.259727478,63.9519271851,63.9519271851,25.5179386139,2.59157538414,0,2.24952309509E-05,0.19519405067,0.139753907919,0.139776408672,7.16256713867,0.184358149767,3.40495300293,0.0428437627852,4.10064697266,0.0754344835877,2.80005455017,0.0988789871335,38.85137176517,79.47371673583,54.36037445066,28.31799316407,522
1.64954356002947E+018,82,1.64954356002947E+018,r200151369/base_footprint,0,1.64954356002947E+018,v/m1vw10zy74w/map,2.33373274474,-1.52070655204,0,0,0,0.909956261272,0.414704235053,0,63.6644859314,33.5863380432,46.4313850403,76.0687637329,49.9716567993,49.9716567993,63.6644859314,63.6644859314,27.580696106,2.71370315552,0,0.000267969153356,0.193435251713,0.156595408916,0.156863376498,5.26503372192,0.135517314076,3.40495300293,0.0428437627852,4.38871765137,0.0807337611914,0.737297058105,0.0260363463312,38.85137176512,79.47371673583,54.36037445067,28.317993164105,522
1.64954356022884E+018,83,1.64954356022884E+018,r200151369/base_footprint,0,1.64954356022884E+018,v/m1vw10zy74w/map,2.11457865117,-1.2683244043,0,0,0,0.907648452765,0.419731207075,0,63.3071975708,31.6888046265,46.7395782471,75.4123916626,49.7865905762,49.7865905762,63.3071975708,63.3071975708,29.6502761841,2.7203938961,0,0.000125361126265,0.191443890333,0.173639282584,0.173764646053,7.48301696777,0.191030606627,3.8039855957,0.0480201914907,4.3143119812,0.079745657742,-1.4878692627,-0.0528317503631,39.17182159427,79.2163772583,54.1009025574,28.1624069214,518
1.6495435603288E+018,84,1.6495435603288E+018,r200151369/base_footprint,0,1.6495435603288E+018,v/m1vw10zy74w/map,2.11457865117,-1.2683244043,0,0,0,0.907648452765,0.419731207075,0,63.146030426,32.6375694275,47.0192642212,75.4123916626,49.6692199707,49.6692199707,63.146030426,63.146030426,31.2836513519,2.84660482407,0,0.000445489858976,0.18924087286,0.1886921525,0.188246667385,6.53425216675,0.166810020804,3.8039855957,0.0480201914907,4.43168258667,0.0819151327014,-3.12124443054,-0.110830172896,39.17182159425,79.2163772583,54.10090255737,28.16240692136,518
1.6495435604288E+018,85,1.6495435604288E+018,r200151369/base_footprint,0,1.6495435604288E+018,v/m1vw10zy74w/map,1.69413773854,-0.763723493346,0,0,0,0.903512353398,0.428562045984,0,62.4912376404,33.8842964172,47.4042816162,71.6916503906,49.5171737671,49.5171737671,62.4912376404,62.4912376404,28.0331573486,2.52690935135,0,0.00122191465925,0.177177771926,0.216287225485,0.215065315366,4.36455917358,0.114109538496,7.14476776123,0.0906277596951,3.99691009521,0.0746889412403,0.378938674927,0.0133372303098,38.24885559078,78.83641815183,53.51408386231,28.412096023527,463
1.64954356052879E+018,86,1.64954356052879E+018,r200151369/base_footprint,0,1.64954356052879E+018,v/m1vw10zy74w/map,1.66012388918,-0.722864580577,0,0,0,0.904178031102,0.427155812406,0,62.697101593,33.8842964172,47.7686805725,74.6025390625,49.2985153198,49.2985153198,62.697101593,62.697101593,32.445274353,2.9509575367,0,0.00307018798776,0.161027520895,0.210060790181,0.206990614533,4.196434021,0.110198356211,4.25657653809,0.0539769753814,4.22046279907,0.078859180212,-4.08165359497,-0.143904536963,38.0807304382,78.85911560059,53.51897811887,28.36362075803,478
1.64954356062869E+018,87,1.64954356062869E+018,r200151369/base_footprint,0,1.64954356062869E+018,v/m1vw10zy74w/map,1.44241731414,-0.466579252801,0,0,0,0.905670490701,0.423982266461,0,62.6930923462,40.1960792542,48.0355567932,75.3544387817,49.18699646,49.18699646,62.6930923462,62.6930923462,34.0198822021,-2.93209290504,0,0.00244104955345,0.0682532116771,0.174001261592,0.17156021297,-3.26758575439,-0.0884841307998,3.27851104736,0.0416938588023,3.97220611572,0.0747228339314,-5.79586410522,-0.205352202058,36.92849349981,78.63294982906,53.15920257572,28.22401809688,444
1.64954356072881E+018,88,1.64954356072881E+018,r200151369/base_footprint,0,1.64954356072881E+018,v/m1vw10zy74w/map,1.21389576163,-0.199753107031,0,0,0,0.909198739888,0.416362403905,0,63.1627960205,35.1944160461,48.2573928833,76.9541931152,49.0072784424,49.0072784424,63.1627960205,63.1627960205,29.3833961487,-3.10305500031,0,0.00241079321131,0.0768582299352,0.13196387887,0.129553079605,0.307781219482,0.00866935681552,1.90802764893,0.024194445461,3.80765533447,0.0720942914486,-1.73876571655,-0.0628970488906,35.502197265582,78.86222076413,52.81493377687,27.64463043215,438
1.64954356082899E+018,89,1.64954356082899E+018,r200151369/base_footprint,0,1.64954356082899E+018,v/m1vw10zy74w/map,0.978036873306,0.07216546731,0,0,0,0.913533758071,0.406762919726,0,62.8446884155,36.6515846252,48.4205627441,75.4490661621,48.8689460754,48.8689460754,62.8446884155,62.8446884155,28.196855545,-2.99813842773,0,0.000480994378449,0.314949333668,0.0567817352712,0.056300740689,-1.82321166992,-0.0523484610021,4.65723419189,0.0581381767988,3.71207427979,0.0705972313881,-1.76902198792,-0.0669378340244,34.82837295528,80.10630035399,52.58102035519,26.42783355708,378
1.64954356092946E+018,90,1.64954356092946E+018,r200151369/base_footprint,0,1.64954356092946E+018,v/m1vw10zy74w/map,0.756798372163,0.308424491065,0,0,0,0.920910394449,0.389774351895,0,62.5975379944,34.6405220032,48.4857177734,75.138381958,48.6752128601,48.6752128601,62.5975379944,62.5975379944,29.4347553253,3.03113722801,0,0.000809334684163,0.410098105669,0.018709808588,0.0195191428065,-0.894527435303,-0.0265076626092,7.21684265137,0.0876306593418,3.23321914673,0.0622869729996,-3.4042224884,-0.130778059363,33.745994567897,82.35522460937,51.90843200683,26.0305328369,610
1.6495435610291E+018,91,1.6495435610291E+018,r200151369/base_footprint,0,1.64954356102912E+018,v/m1vw10zy74w/map,0.756798372163,0.308424491065,0,0,0,0.920910394449,0.389774351895,0,62.223449707,32.6294631958,48.5187835693,75.138381958,48.4675216675,48.4675216675,62.223449707,62.223449707,33.9252853394,2.82182502747,0,0.00281203421764,0.569400846958,0.0804720520973,0.0832840874791,1.11653137207,0.0330863371491,7.21684265137,0.0876306593418,3.44091033936,0.0662880837917,-7.89475250244,-0.303288161755,33.74599456787,82.35522460937,51.90843200686,26.03053283696,610
1.64954356112889E+018,92,1.64954356112889E+018,r200151369/base_footprint,0,1.64954356112889E+018,v/m1vw10zy74w/map,0.558503025183,0.49620031074,0,0,0,0.929820332532,0.36801378943,0,62.6618118286,29.61287117,48.4758338928,77.6048049927,48.0985450745,48.0985450745,62.6618118286,62.6618118286,30.9289798737,2.95495796204,0,0.00192645494826,0.58822709322,0.110730700195,0.112657159567,3.5918674469,0.108173340559,5.31075286865,0.0640501379967,3.34704589844,0.065059915185,-5.07095527649,-0.19610761106,33.2047386169,82.91555786135,51.44559097294,25.85802459721,745
1.64954356122889E+018,93,1.64954356122889E+018,r200151369/base_footprint,0,1.64954356122889E+018,v/m1vw10zy74w/map,0.558503025183,0.49620031074,0,0,0,0.929820332532,0.36801378943,0,62.4834518433,29.4117641449,48.4319953918,77.6048049927,47.8113021851,47.8113021851,62.4834518433,62.4834518433,31.0372104645,3.12040543556,0,8.30156714073E-05,0.606466114521,0.133019909263,0.133102923632,3.79297447205,0.114229917526,5.31075286865,0.0640501379967,3.63428878784,0.070643350482,-5.17918586731,-0.200293168426,33.20473861695,82.91555786135,51.44559097294,25.85802459719,745
1.64954356252972E+018,94,1.64954356252972E+018,r200151369/base_footprint,0,1.64954356252972E+018,v/m1vw10zy74w/map,0.364839453556,0.683004229441,0,0,0,0.922114038947,0.386918207348,0,62.6512985229,25.9634895325,48.4098625183,78.7917633057,47.4068946838,47.4068946838,62.6512985229,62.6512985229,27.9214515686,2.87447500229,0,0.00235849944875,0.480926156044,0.0323350355029,0.0346935354173,6.72589874268,0.205751746893,4.64282226562,0.0556462556124,3.60453796387,0.0706613734365,-2.06527519226,-0.0798755064607,32.68938827518,83.43458557132,51.01143264767,25.85617637634,772
1.64954356262872E+018,95,1.64954356262872E+018,r200151369/base_footprint,0,1.64954356262872E+018,v/m1vw10zy74w/map,0.364839453556,0.683004229441,0,0,0,0.922114038947,0.386918207348,0,62.6515541077,27.0782699585,48.292388916,78.7917633057,47.066204071,47.066204071,62.6515541077,62.6515541077,24.2373447418,-3.09009790421,0,0.00213059759699,0.283043891191,0.0177928488702,0.0199234467,5.61111831665,0.17164953053,4.64282226562,0.0556462556124,3.94522857666,0.0773400887847,1.61883163452,0.0626090914011,32.68938827515,83.43458557132,51.01143264766,25.85617637632,772
1.6495435627288E+018,96,1.6495435627288E+018,r200151369/base_footprint,0,1.6495435627288E+018,v/m1vw10zy74w/map,0.364839453556,0.683004229441,0,0,0,0.922114038947,0.386918207348,0,62.67004776,26.7116680145,48.2243003845,78.7917633057,46.8202400208,46.8202400208,62.67004776,62.67004776,21.2481060028,-2.99926972389,0,0.00147911801469,0.189404994249,0.0102226780728,0.0117017962039,5.97772026062,0.182864248753,4.64282226562,0.0556462556124,4.19119262695,0.0821618288755,4.60807037354,0.178219333291,32.68938827512,83.43458557132,51.01143264775,25.85617637634,772
1.6495435628287E+018,97,1.6495435628287E+018,r200151369/base_footprint,0,1.6495435628287E+018,v/m1vw10zy74w/map,0.364839453556,0.683004229441,0,0,0,0.922114038947,0.386918207348,0,61.9789123535,25.0474376678,48.301361084,78.7917633057,46.6196670532,46.6196670532,61.9789123535,61.9789123535,31.5223522186,2.86960935593,0,0.000552915618755,0.0663402155042,0.00814712420106,0.00870003923774,7.6419506073,0.233774662018,4.64282226562,0.0556462556124,4.39176559448,0.0860937535763,-5.66617584229,-0.219142064452,32.6893882751,83.43458557132,51.01143264768,25.85617637631,772
1.64954356292891E+018,98,1.64954356292891E+018,r200151369/base_footprint,0,1.64954356292891E+018,v/m1vw10zy74w/map,0.364839453556,0.683004229441,0,0,0,0.922114038947,0.386918207348,0,62.4692230225,29.4117641449,48.4695892334,78.7917633057,46.5593681335,46.5593681335,62.4692230225,62.4692230225,22.0454845428,3.03664755821,0,0.000122575293062,0.0364880077541,0.0152074852958,0.0150849102065,3.27762413025,0.100265689194,4.64282226562,0.0556462556124,4.45206451416,0.0872758179903,3.8106918335,0.147380337119,32.68938827515,83.43458557132,51.01143264766,25.8561763763,772
1.64954356302864E+018,99,1.64954356302864E+018,r200151369/base_footprint,0,1.64954356302864E+018,v/m1vw10zy74w/map,0.364839453556,0.683004229441,0,0,0,0.922114038947,0.386918207348,0,62.2222480774,26.7116680145,48.566947937,78.7917633057,46.4026107788,46.4026107788,62.2222480774,62.2222480774,24.7980976105,-2.9442794323,0,0.000928455148824,0.0144053371623,0.0222324170172,0.0213039629161,5.97772026062,0.182864248753,4.64282226562,0.0556462556124,4.6088218689,0.0903488025069,1.05807876587,0.040921702981,32.68938827512,83.43458557132,51.0114326477,25.85617637637,772
1.6495435631287E+018,100,1.6495435631287E+018,r200151369/base_footprint,0,1.6495435631287E+018,v/m1vw10zy74w/map,0.364839453556,0.683004229441,0,0,0,0.922114038947,0.386918207348,0,62.0701446533,29.7912712097,48.690448761,78.7917633057,46.297832489,46.297832489,62.0701446533,62.0701446533,26.4043655396,3.00839018822,0,0.00142242130823,0.000732713320758,0.0256895702332,0.0242671482265,2.89811706543,0.0886562019587,4.64282226562,0.0556462556124,4.71360015869,0.0924028158188,-0.548189163208,-0.0212014783174,32.68938827513,83.43458557132,51.01143264769,25.856176376392,772
1.64954356322889E+018,101,1.64954356322889E+018,r200151369/base_footprint,0,1.64954356322889E+018,v/m1vw10zy74w/map,0.160824442986,0.881167680373,0,0,0,0.926143050634,0.377172440355,0,61.9488372803,27.5294113159,48.7521743774,78.4347229004,46.1240501404,46.1240501404,61.9488372803,61.9488372803,25.4256572723,3.02455306053,0,0.0011680558091,0.00860725808889,0.0369523651898,0.0357843078673,4.69939422607,0.14581348002,5.4997177124,0.0655239671469,4.39987945557,0.0870850607753,0.818309783936,0.0311808716506,32.22880554197,83.9344406128,50.52392959597,26.243967056236,741
