%time,field.header.seq,field.header.stamp,field.header.frame_id,field.pose.header.seq,field.pose.header.stamp,field.pose.header.frame_id,field.pose.pose.position.x,field.pose.pose.position.y,field.pose.pose.position.z,field.pose.pose.orientation.x,field.pose.pose.orientation.y,field.pose.pose.orientation.z,field.pose.pose.orientation.w,field.label,field.main_output,field.scan_score,field.pose_score,field.cov_score,field.lhood_map_score,field.lhood_robot_score,field.lhood_map_score_all,field.lhood_robot_score_all,field.point_angle_diff,field.average_orientation,field.map_average_orientation,field.sensor_div,field.odom_div_x,field.odom_div_w,field.imu_div_w,field.kdtree_div,field.kdtree_div_p,field.cov_div,field.cov_div_p,field.likelihood_div,field.likelihood_div_p,field.normal_diff_div,field.normal_diff_div_p,field.kdtree_average,field.cov_average,field.likelihood_average,field.normal_diff_average,field.map_update_count
1.6308619622777E+018,0,1.6308619622777E+018,r200131356/base_footprint,0,1.6308619622777E+018,alta/m1vW10zy74W/map,-1.34195506463,5.14884988126,0,0,0,0.00245841808526,0.999996978086,0,64.0527420044,21.5686283112,100,95.113319397,45.1833343506,45.1833343506,64.0527420044,64.0527420044,37.4386253357,-1.39976882935,0,0.00165674230084,4.09771728516,0.000398722739192,0.00125801959075,2.26858329773,0.095169827342,0.638473510742,0.0066680056043,2.25328445435,0.047500949353,8.83415222168,0.190914675593,23.8372116089,95.7517929077,47.4366188049,46.2727775574,234
1.63086196237767E+018,1,1.63086196237767E+018,r200131356/base_footprint,0,1.63086196237767E+018,alta/m1vW10zy74W/map,-1.168103799,5.14713834629,0,0,0,0.00224317168924,0.999997484087,0,64.1361618042,18.032787323,78.3856277466,95.6477508545,45.1559829712,45.1559829712,64.1361618042,64.1361618042,37.5655975342,-2.36674237251,0,0.000981085351668,4.10077285767,0.00387133820914,0.00485242344439,6.27274513245,0.25807890296,0.266403198242,0.00277751707472,2.13844299316,0.0452155396342,8.43548965454,0.183375880122,24.3055324554,95.9141540527,47.2944259644,46.0010871887,257
1.63086196247745E+018,2,1.63086196247745E+018,r200131356/base_footprint,0,1.63086196247745E+018,alta/m1vW10zy74W/map,-1.07612533488,5.14658753655,0,0,0,0.00270052040614,0.999996353588,0,63.6133728027,25.5907497406,72.4792175293,96.5366973877,45.2574806213,45.2574806213,63.6133728027,63.6133728027,51.272190094,-1.16239607334,0,0.0015083324397,4.10276317596,0.00696090981364,0.00846924260259,-1.18511199951,-0.0485589429736,-0.592903137207,-0.00617969222367,1.98337554932,0.0419843271375,-5.14778900146,-0.111606627703,24.4056377411,95.9437942505,47.2408561707,46.1244010925,265
1.6308619625769E+018,3,1.6308619625769E+018,r200131356/base_footprint,0,1.63086196257691E+018,alta/m1vW10zy74W/map,-0.987098942602,5.14685350549,0,0,0,0.00164030246971,0.999998654703,0,63.4483947754,21.2362918854,76.7626190186,96.6976699829,45.2266464233,45.2266464233,63.4483947754,63.4483947754,54.4882888794,-1.19087004662,0,0.0028134630993,4.10367822647,0.0120698390529,0.0148833030835,3.20223426819,0.131032213569,-0.710693359375,-0.007404060103,1.98001861572,0.0419436246157,-8.37217330933,-0.181545495987,24.4385261536,95.9869766235,47.2066650391,46.1161155701,265
1.63086196267694E+018,4,1.63086196267694E+018,r200131356/base_footprint,0,1.63086196267694E+018,alta/m1vW10zy74W/map,-0.896753534903,5.15032171359,0,0,0,0.00272697636949,0.999996281793,0,63.5993156433,20.5882358551,80.604850769,96.4336700439,45.1573143005,45.1573143005,63.5993156433,63.5993156433,50.0725364685,-1.27343189716,0,0.00160923122894,4.10165643692,0.0138923712075,0.0155016025528,3.86256408691,0.157972916961,-0.500885009766,-0.00522120762616,2.04922485352,0.043409768492,-4.08569717407,-0.0888449251652,24.450799942,95.9327850342,47.2065391541,45.9868392944,297
1.63086196277709E+018,5,1.63086196277709E+018,r200131356/base_footprint,0,1.63086196277709E+018,alta/m1vW10zy74W/map,-0.715429816573,5.15160537069,0,0,0,0.00381854502236,0.99999270933,0,63.609828949,19.2422733307,80.604850769,96.4208145142,45.1441268921,45.1441268921,63.609828949,63.609828949,49.6945953369,-1.04358208179,0,0.00300602498464,4.10116624832,0.0150613943115,0.018067419529,5.48399543762,0.221788227558,-0.530891418457,-0.00553646730259,1.91365432739,0.0406660549343,-4.71031951904,-0.104710355401,24.7262687683,95.8899230957,47.0577812195,44.9842758179,399
1.63086196287766E+018,6,1.63086196287766E+018,r200131356/base_footprint,0,1.63086196287766E+018,alta/m1vW10zy74W/map,-0.61080508191,5.15248986946,0,0,0,0.0040750489617,0.999991696954,0,63.1247329712,19.8334197998,75.1508178711,96.0074462891,45.2341384888,45.2341384888,63.1247329712,63.1247329712,57.9103088379,-0.931306004524,0,0.00505161564797,4.0654501915,0.0155747840181,0.0206263996661,5.06016349792,0.20327180624,-0.130729675293,-0.00136351853143,1.73789596558,0.0369985252619,-13.0082168579,-0.289701789618,24.8935832977,95.8767166138,46.9720344543,44.90209198,473
1.63086196297768E+018,7,1.63086196297768E+018,r200131356/base_footprint,0,1.63086196297769E+018,alta/m1vW10zy74W/map,-0.501783044047,5.15683619524,0,0,0,0.00432353463814,0.99999065348,0,63.9308929443,19.1815853119,77.6106262207,96.5287246704,45.3785514832,45.3785514832,63.9308929443,63.9308929443,46.8357162476,-0.876768648624,0,0.00194119196385,3.91416430473,0.0180934388191,0.0200346298516,5.68623161316,0.228658258915,-0.653518676758,-0.00681634712964,1.58257675171,0.0336997173727,-1.84488677979,-0.0410058423877,24.867816925,95.8752059937,46.9611282349,44.9908294678,474
1.63086196307732E+018,8,1.63086196307732E+018,r200131356/base_footprint,0,1.63086196307732E+018,alta/m1vW10zy74W/map,-0.337316927564,5.15922705509,0,0,0,0.00464051906894,0.999989232733,0,63.4796333313,22.5741577148,75.2843170166,95.1444702148,45.4398422241,45.4398422241,63.4796333313,63.4796333313,50.6369972229,-1.36205482483,0,0.00259546912275,3.85200929642,0.0156566146761,0.0182520840317,1.12771224976,0.0475790426135,0.738090515137,0.007697859779,1.54690933228,0.0329222455621,-5.12427520752,-0.11258995533,23.7018699646,95.88256073,46.9867515564,45.5127220154,385
1.63086196317726E+018,9,1.63086196317726E+018,r200131356/base_footprint,0,1.63086196317726E+018,alta/m1vW10zy74W/map,-0.222505667326,5.16243390034,0,0,0,0.00375332421754,0.999992956254,0,63.8430328369,20.9095401764,75.6141052246,96.2647094727,45.5151863098,45.5151863098,63.8430328369,63.8430328369,48.9423904419,-0.9787966609,0,0.00502759730443,3.6480884552,0.00972787756473,0.0147554744035,2.50156784058,0.106853887439,-0.323547363281,-0.0033723518718,1.590259552,0.0337595678866,-3.21255493164,-0.0702507421374,23.411108017,95.9411621094,47.1054458618,45.7298355103,390
1.63086196327742E+018,10,1.63086196327742E+018,r200131356/base_footprint,0,1.63086196327742E+018,alta/m1vW10zy74W/map,-0.124547617121,5.16385144934,0,0,0,0.00345847523883,0.999994019457,0,63.856880188,20.9095401764,75.8766403198,96.4622421265,45.4972801208,45.4972801208,63.856880188,63.856880188,49.2108345032,-0.516566634178,0,0.00648538023233,3.50593805313,0.00887407269329,0.0153594529256,2.34748458862,0.100936584175,-0.647834777832,-0.00676135020331,1.60990905762,0.0341754443944,-3.00080108643,-0.0649382993579,23.257024765,95.8144073486,47.1071891785,46.2100334167,336
1.63086196337692E+018,11,1.63086196337692E+018,r200131356/base_footprint,0,1.63086196337692E+018,alta/m1vW10zy74W/map,-0.025822146917,5.16408311011,0,0,0,0.000810680352033,0.999999671399,0,63.9409866333,18.2452640533,75.8766403198,95.9177398682,45.3560256958,45.3560256958,63.9409866333,63.9409866333,44.2111930847,-0.815894842148,0,0.00582913449034,3.26229357719,0.0123099945486,0.0181391295046,4.76972198486,0.207244187593,-0.105560302734,-0.00110174203292,1.64525222778,0.035004414618,2.27745819092,0.0489895530045,23.0149860382,95.8121795654,47.0012779236,46.4886512756,336
1.63086196347727E+018,12,1.63086196347727E+018,r200131356/base_footprint,0,1.63086196347727E+018,alta/m1vW10zy74W/map,0.116031088858,5.16507560965,0,0,0,0.00100111411835,0.999999498885,0,63.6707649231,28.2153530121,70.5040283203,95.0814361572,45.3221168518,45.3221168518,63.6707649231,63.6707649231,45.6982841492,-1.12741589546,0,0.00564265437424,3.21447253227,0.0129065662622,0.0185492206365,-5.47363090515,-0.240686744452,0.741539001465,0.0077386344783,1.64566802979,0.0350382290781,1.01663970947,0.0217626318336,22.7417221069,95.8229751587,46.9677848816,46.7149238586,304
1.63086196357737E+018,13,1.63086196357737E+018,r200131356/base_footprint,0,1.63086196357738E+018,alta/m1vW10zy74W/map,0.177210065636,5.16619436433,0,0,0,-0.000758262689019,0.999999712519,0,63.2457809448,29.8072166443,68.9934005737,93.8105697632,45.4226799011,45.4226799011,63.2457809448,63.2457809448,49.8589363098,-1.03319323063,0,0.00539781572297,2.89229631424,0.0137644913048,0.0191623065621,-7.30428695679,-0.324592709541,2.0365524292,0.0212479252368,1.50037002563,0.0319751165807,-2.97236251831,-0.0633947476745,22.5029296875,95.8471221924,46.9230499268,46.8865737915,291
1.63086196367759E+018,14,1.63086196367759E+018,r200131356/base_footprint,0,1.63086196367759E+018,alta/m1vW10zy74W/map,0.190666405826,5.16710986776,0,0,0,-0.000815305872751,0.999999667638,0,63.4748001099,19.8782958984,68.7178955078,93.3681030273,45.4079971313,45.4079971313,63.4748001099,63.4748001099,43.9851379395,-2.51471495628,0,0.00531648704782,2.75737690926,0.013957425952,0.0192739125341,2.62463378906,0.116635203362,2.47901916504,0.0258643049747,1.51505279541,0.0322880297899,2.90143585205,0.061882019043,22.5029296875,95.8471221924,46.9230499268,46.8865737915,291
1.63086196377741E+018,15,1.63086196377741E+018,r200131356/base_footprint,0,1.63086196377741E+018,alta/m1vW10zy74W/map,0.26575519649,5.16775417809,0,0,0,-0.000779327333279,0.999999696324,0,63.7440948486,29.0060844421,67.1986236572,93.7273712158,45.4706459045,45.4706459045,63.7440948486,63.7440948486,41.1078453064,-1.08420538902,0,0.00345421559177,2.59088730812,0.0156622901559,0.0191165059805,-6.76216506958,-0.304000616074,2.12499237061,0.0221694316715,1.22174835205,0.0261658970267,5.86256027222,0.124813914299,22.2439193726,95.8523635864,46.6923942566,46.9704055786,310
1.63086196387753E+018,16,1.63086196387753E+018,r200131356/base_footprint,0,1.63086196387753E+018,alta/m1vW10zy74W/map,0.343651936906,5.16818310438,0,0,0,-0.00188610097424,0.99999822131,0,63.0470504761,22.2506389618,66.6847457886,93.8137969971,45.3409729004,45.3409729004,63.0470504761,63.0470504761,52.5652580261,-1.21979808807,0,0.00584820425138,2.41435861588,0.00872378330678,0.0145719880238,-0.216249465942,-0.00981418043375,2.02653503418,0.0211449079216,1.25028610229,0.0268352068961,-5.60446166992,-0.119343414903,22.0343894958,95.8403320312,46.5912590027,46.9607963562,304
1.63086196397781E+018,17,1.63086196397781E+018,r200131356/base_footprint,0,1.63086196397781E+018,alta/m1vW10zy74W/map,0.41305041197,5.16581044965,0,0,0,-0.00206511028224,0.999997867657,0,63.5799179077,28.3887462616,66.9387969971,94.6654663086,45.4016571045,45.4016571045,63.5799179077,63.5799179077,46.6950378418,-1.04716813564,0,0.00630330294371,2.1921505928,0.0120502915233,0.00574698857963,-6.50339698792,-0.297157555819,1.15055084229,0.0120079172775,1.12333679199,0.0241448022425,0.341793060303,0.00726649863645,21.8853492737,95.8160171509,46.5249938965,47.0368309021,303
1.63086196407746E+018,18,1.63086196407746E+018,r200131356/base_footprint,0,1.63086196407746E+018,alta/m1vW10zy74W/map,0.487310689563,5.16556461967,0,0,0,-0.0162758658894,0.999867539322,0,63.3014984131,24.2273178101,66.904510498,94.5749740601,45.4191207886,45.4191207886,63.3014984131,63.3014984131,51.5694541931,-1.65711438656,0,0.0122304847464,2.02465796471,0.015551911667,0.00332142598927,-2.23572540283,-0.101662732661,1.21746826172,0.0127094397321,1.08435058594,0.0233176276088,-4.53115844727,-0.0963291376829,21.9915924072,95.7924423218,46.5034713745,47.0382957458,300
1.63086196417691E+018,19,1.63086196417691E+018,r200131356/base_footprint,0,1.63086196417691E+018,alta/m1vW10zy74W/map,0.487310689563,5.16556461967,0,0,0,-0.0162758658894,0.999867539322,0,63.663772583,26.7285861969,64.9029312134,94.5749740601,45.3851013184,45.3851013184,63.663772583,63.663772583,44.6810913086,-1.06756818295,0,0.0126169184223,1.897590518,0.0133763635531,0.000759445130825,-4.73699378967,-0.215400218964,1.21746826172,0.0127094397321,1.11837005615,0.0240491740406,2.35720443726,0.050112452358,21.9915924072,95.7924423218,46.5034713745,47.0382957458,300
1.63086196427707E+018,20,1.63086196427707E+018,r200131356/base_footprint,0,1.63086196427707E+018,alta/m1vW10zy74W/map,0.555671318893,5.16366111583,0,0,0,-0.0323979058807,0.999475050061,0,63.4012908936,23.2736568451,64.6808929443,94.8477096558,45.2561569214,45.2561569214,63.4012908936,63.4012908936,48.995010376,-1.21439921856,0,0.00976833794266,1.68814897537,0.0110220732167,0.00125373504125,-1.05763053894,-0.0476066470146,0.92724609375,0.00968150887638,1.28835296631,0.0276800207794,-1.87424850464,-0.0397754274309,22.2160263062,95.7749557495,46.5445098877,47.1207618713,305
1.63086196437726E+018,21,1.63086196437726E+018,r200131356/base_footprint,0,1.63086196437726E+018,alta/m1vW10zy74W/map,0.626847943207,5.1575159985,0,0,0,-0.0480273132407,0.99884602276,0,63.9112319946,21.9156684875,64.6808929443,95.6536254883,45.2473564148,45.2473564148,63.9112319946,63.9112319946,42.6223449707,-1.16613054276,0,0.00882389210165,1.51725041866,0.0110777840018,0.00225389259867,-0.645551681519,-0.0303501710296,0.158424377441,0.00165349117015,0.789249420166,0.0171439535916,4.14579772949,0.0886457636952,21.270116806,95.8120498657,46.036605835,46.7681427002,364
1.63086196447706E+018,22,1.63086196447706E+018,r200131356/base_footprint,0,1.63086196447706E+018,alta/m1vW10zy74W/map,0.685610052622,5.14945234336,0,0,0,-0.0625749405955,0.99804026813,0,63.5544624329,28.7925701141,65.087348938,96.097984314,45.3033218384,45.3033218384,63.5544624329,63.5544624329,51.2482910156,-1.10410904884,0,0.0111195305362,1.35943198204,0.0148459067568,0.00372637575492,-7.79584693909,-0.371288746595,-0.373542785645,-0.00390227185562,0.165748596191,0.00364530435763,-4.55744552612,-0.0976089760661,20.996723175,95.7244415283,45.4690704346,46.6908454895,353
1.63086196487728E+018,23,1.63086196487728E+018,r200131356/base_footprint,0,1.63086196487728E+018,alta/m1vW10zy74W/map,0.767792836914,5.13647437255,0,0,0,-0.0859503279424,0.99629942343,0,64.1420211792,25.0390415192,64.8326568604,97.12525177,45.3420181274,45.3420181274,64.1420211792,64.1420211792,44.7883262634,-0.910265624523,0,0.0052062748,0.628696084023,0.0737139210105,0.0685076415539,-4.4071559906,-0.213608980179,-1.47164916992,-0.0153851937503,0.240749359131,0.00528158713132,2.17633056641,0.0463397540152,20.6318855286,95.6536026001,45.5827674866,46.9646568298,333
1.63086196497699E+018,24,1.63086196497699E+018,r200131356/base_footprint,0,1.63086196497699E+018,alta/m1vW10zy74W/map,0.767792836914,5.13647437255,0,0,0,-0.0859503279424,0.99629942343,0,64.2598648071,18.4726524353,62.8852081299,97.12525177,45.2613220215,45.2613220215,64.2598648071,64.2598648071,41.7955741882,-1.56530237198,0,0.011728557758,0.500007092953,0.0916889533401,0.0799603909254,2.15923309326,0.104655154049,-1.47164916992,-0.0153851937503,0.321445465088,0.00705190747976,5.1690826416,0.110063247383,20.6318855286,95.6536026001,45.5827674866,46.9646568298,333
1.63086196507721E+018,25,1.63086196507721E+018,r200131356/base_footprint,0,1.63086196507721E+018,alta/m1vW10zy74W/map,0.795822832354,5.13244277976,0,0,0,-0.049264216783,0.998785781309,0,63.9317512512,19.8334197998,61.6144752502,97.0498199463,45.4449272156,45.4449272156,63.9317512512,63.9317512512,49.4130096436,-1.93180894852,0,0.0209512673318,0.334221422672,0.109468363225,0.0885170921683,0.79846572876,0.0387005694211,-1.39621734619,-0.0145966000855,0.137840270996,0.00302395573817,-2.44835281372,-0.0521318167448,20.6318855286,95.6536026001,45.5827674866,46.9646568298,333
1.63086196517707E+018,26,1.63086196517707E+018,r200131356/base_footprint,0,1.63086196517708E+018,alta/m1vW10zy74W/map,0.785574497876,5.13844603843,0,0,0,0.0132962773331,0.999911600597,0,63.6304283142,16.2692108154,61.6144752502,97.5371856689,45.2562904358,45.2562904358,63.6304283142,63.6304283142,54.5540809631,-1.67472863197,0,0.0295322276652,0.165534570813,0.119733370841,0.0902011469007,4.36267471313,0.211453035474,-1.88358306885,-0.0196917112917,0.326477050781,0.00716229109094,-7.5894241333,-0.161598622799,20.6318855286,95.6536026001,45.5827674866,46.9646568298,333
1.6308619652779E+018,27,1.6308619652779E+018,r200131356/base_footprint,0,1.6308619652779E+018,alta/m1vW10zy74W/map,0.783632320113,5.13892950181,0,0,0,0.0409758365077,0.999160137727,0,63.9898452759,15.5080213547,58.8920974731,97.3160400391,45.3052062988,45.3052062988,63.9898452759,63.9898452759,47.8167572021,-2.50082302094,0,0.0334127619863,0.0316179990768,0.119570977986,0.0861582159996,5.12386417389,0.248346865177,-1.66243743896,-0.0173797681928,0.277561187744,0.0060891690664,-0.852100372314,-0.0181434378028,20.6318855286,95.6536026001,45.5827674866,46.9646568298,333
1.63086196537814E+018,28,1.63086196537814E+018,r200131356/base_footprint,0,1.63086196537814E+018,alta/m1vW10zy74W/map,0.772551699789,5.14160498238,0,0,0,0.0761689023884,0.997094929437,0,64.3051223755,15.2093267441,57.2869529724,97.907913208,45.4143257141,45.4143257141,64.3051223755,64.3051223755,45.4510688782,3.02722644806,0,0.0335586108267,0.150078803301,0.121150866151,0.0875922515988,5.66797161102,0.271489709616,-2.25637054443,-0.0235894843936,-0.0305137634277,-0.000672349066008,1.03380584717,0.0222396180034,20.8772983551,95.6515426636,45.3838119507,46.4848747253,393
1.63086196547745E+018,29,1.63086196547745E+018,r200131356/base_footprint,0,1.63086196547745E+018,alta/m1vW10zy74W/map,0.770191678275,5.14258704995,0,0,0,0.107285638222,0.994228239305,0,63.8332519531,17.0168075562,59.16588974,97.6088027954,45.3621788025,45.3621788025,63.8332519531,63.8332519531,52.3046607971,0.930740237236,0,0.0330233611166,0.214943781495,0.121175318956,0.088151961565,3.86049079895,0.184913337231,-1.95726013184,-0.0204623993486,0.0216331481934,0.000476671033539,-5.81978607178,-0.125197410583,20.8772983551,95.6515426636,45.3838119507,46.4848747253,393
1.63086196557736E+018,30,1.63086196557736E+018,r200131356/base_footprint,0,1.63086196557736E+018,alta/m1vW10zy74W/map,0.767946990186,5.14299878533,0,0,0,0.138761478108,0.990325831327,0,64.3116607666,19.4488601685,59.16588974,97.5300750732,45.4628982544,45.4628982544,64.3116607666,64.3116607666,44.4976463318,-0.386598944664,0,0.0353231206536,0.250201016665,0.123224690557,0.0879015773535,1.42843818665,0.0684206411242,-1.87853240967,-0.0196393318474,-0.0790863037109,-0.00174261047505,1.98722839355,0.0427500009537,20.8772983551,95.6515426636,45.3838119507,46.4848747253,393
1.63086196567701E+018,31,1.63086196567701E+018,r200131356/base_footprint,0,1.63086196567701E+018,alta/m1vW10zy74W/map,0.764430131566,5.14374630369,0,0,0,0.168835077517,0.985644315461,0,64.7074127197,23.9350910187,59.4645080566,97.8032684326,45.670917511,45.670917511,64.7074127197,64.7074127197,40.6042633057,-2.53606891632,0,0.0353415124118,0.253728747368,0.123369440436,0.0880279242992,-3.1236076355,-0.150090575218,-2.13051605225,-0.0222687851638,-0.237380981445,-0.00522479647771,6.02381896973,0.129188641906,20.8114833832,95.6727523804,45.4335365295,46.6280822754,380
1.63086196577701E+018,32,1.63086196577701E+018,r200131356/base_footprint,0,1.63086196577701E+018,alta/m1vW10zy74W/map,0.761025037,5.14303879523,0,0,0,0.228264990101,0.973599041851,0,64.3558349609,24.2966747284,59.3738632202,97.3513031006,45.7864341736,45.7864341736,64.3558349609,64.3558349609,46.5532035828,-1.42066121101,0,0.0378092750907,0.228917181492,0.121916614473,0.0841073393822,-3.48519134521,-0.167464822531,-1.67855072021,-0.0175447110087,-0.352897644043,-0.00776733830571,0.074878692627,0.00160587113351,20.8114833832,95.6727523804,45.4335365295,46.6280822754,380
1.63086196587716E+018,33,1.63086196587716E+018,r200131356/base_footprint,0,1.63086196587716E+018,alta/m1vW10zy74W/map,0.761791152169,5.14137085395,0,0,0,0.263462885114,0.964669533139,0,64.1155776978,26.5962791443,58.7474937439,97.2654876709,45.8915519714,45.8915519714,64.1155776978,64.1155776978,51.7041664124,-0.516047239304,0,0.0342341847718,0.204344063997,0.117347635329,0.0831134468317,-5.78479576111,-0.277961730957,-1.59273529053,-0.0166477411985,-0.458015441895,-0.0100809987634,-5.07608413696,-0.108863241971,20.8114833832,95.6727523804,45.4335365295,46.6280822754,380
1.63086196597723E+018,34,1.63086196597723E+018,r200131356/base_footprint,0,1.63086196597723E+018,alta/m1vW10zy74W/map,0.758573898868,5.14058196117,0,0,0,0.293861211025,0.955848099153,0,64.2869491577,25.5907497406,59.7096748352,97.3551177979,46.0117988586,46.0117988586,64.2869491577,64.2869491577,50.2406959534,-1.15007543564,0,0.0402021557093,0.186094373465,0.122904650867,0.0827025026083,-5.07675552368,-0.247477665544,-1.68463134766,-0.0176086835563,-0.376640319824,-0.00825329311192,-3.07909393311,-0.065288156271,20.5139942169,95.6704864502,45.6351585388,47.1616020203,314
1.63086196607825E+018,35,1.63086196607825E+018,r200131356/base_footprint,0,1.63086196607825E+018,alta/m1vW10zy74W/map,0.757460892598,5.14081188354,0,0,0,0.3244189444,0.945913499488,0,64.2578048706,24.5852184296,62.6549568176,97.102180481,46.2080535889,46.2080535889,64.2578048706,64.2578048706,51.9743804932,-0.900786101818,0,0.0394004657865,0.170993581414,0.12212228775,0.0827218219638,-4.07122421265,-0.198460832238,-1.43169403076,-0.0149648450315,-0.572895050049,-0.0125538082793,-4.8127784729,-0.102048665285,20.5139942169,95.6704864502,45.6351585388,47.1616020203,314
1.63086196617694E+018,36,1.63086196617694E+018,r200131356/base_footprint,0,1.63086196617694E+018,alta/m1vW10zy74W/map,0.753938741991,5.14006961795,0,0,0,0.354590176777,0.935021821421,0,64.0791778564,25.9634895325,62.009349823,97.1173019409,46.3656959534,46.3656959534,64.0791778564,64.0791778564,56.9466323853,-0.501590192318,0,0.0360971130431,0.15052960813,0.118850320578,0.0827532038093,-5.44949531555,-0.26564770937,-1.44681549072,-0.0151229025796,-0.730537414551,-0.0160082150251,-9.78503036499,-0.207478746772,20.5139942169,95.6704864502,45.6351585388,47.1616020203,314
1.63086196627729E+018,37,1.63086196627729E+018,r200131356/base_footprint,0,1.63086196627729E+018,alta/m1vW10zy74W/map,0.755315804932,5.14143913612,0,0,0,0.384112840052,0.923286156133,0,64.2894210815,30.6184005737,58.6484222412,97.182762146,46.7291259766,46.7291259766,64.2894210815,64.2894210815,57.3229560852,-1.15770626068,0,0.0404256917536,0.14349989593,0.122958093882,0.0825324058533,-9.80691719055,-0.471226245165,-1.51000976562,-0.0157830696553,-1.29558944702,-0.0285161472857,-10.6948738098,-0.229365512729,20.8114833832,95.6727523804,45.4335365295,46.6280822754,380
1.6308619663776E+018,38,1.6308619663776E+018,r200131356/base_footprint,0,1.6308619663776E+018,alta/m1vW10zy74W/map,0.751786685483,5.1402665002,0,0,0,0.412578577323,0.910922015067,0,65.0168838501,31.8885440826,55.4067268372,97.1782913208,46.9211273193,46.9211273193,65.0168838501,65.0168838501,46.2860527039,-0.365646630526,0,0.0397624894977,0.142173305154,0.122621424496,0.0828589349985,-11.3745498657,-0.554477572441,-1.50780487061,-0.0157603975385,-1.28596878052,-0.0281793437898,0.875549316406,0.018564876169,20.5139942169,95.6704864502,45.6351585388,47.1616020203,314
1.63086196647727E+018,39,1.63086196647727E+018,r200131356/base_footprint,0,1.63086196647727E+018,alta/m1vW10zy74W/map,0.752014369134,5.14225788084,0,0,0,0.440575653589,0.897715485811,0,65.0342178345,36.5728912354,50.2679901123,97.3660583496,47.2437973022,47.2437973022,65.0342178345,65.0342178345,50.1349525452,-0.906158566475,0,0.0416025966406,0.132773414254,0.128292948008,0.0866903439164,-15.7614078522,-0.757341861725,-1.69330596924,-0.0176989361644,-1.81026077271,-0.0398441515863,-3.50687026978,-0.0752094015479,20.8114833832,95.6727523804,45.4335365295,46.6280822754,380
1.63086196657714E+018,40,1.63086196657714E+018,r200131356/base_footprint,0,1.63086196657714E+018,alta/m1vW10zy74W/map,0.752810754055,5.14278554078,0,0,0,0.468874288254,0.883264910327,0,65.4542388916,29.4117641449,48.1280784607,97.2978820801,47.4011573792,47.4011573792,65.4542388916,65.4542388916,44.028591156,-1.39135026932,0,0.035967387259,0.127325102687,0.138700038195,0.102732650936,-8.60028076172,-0.413246899843,-1.62512969971,-0.0169863384217,-1.96762084961,-0.0433076769114,2.59949111938,0.055749475956,20.8114833832,95.6727523804,45.4335365295,46.6280822754,380
1.63086196667708E+018,41,1.63086196667708E+018,r200131356/base_footprint,0,1.63086196667708E+018,alta/m1vW10zy74W/map,0.749538030204,5.1410854354,0,0,0,0.524600659651,0.851348429195,0,65.4613494873,30.6184005737,47.940700531,97.4541015625,47.4832611084,47.4832611084,65.4613494873,65.4613494873,45.3497314453,-1.67697381973,0,0.0430159009993,0.125193953514,0.148691341281,0.105675444007,-9.80691719055,-0.471226245165,-1.78134918213,-0.0186191909015,-2.04972457886,-0.0451147928834,1.27835083008,0.0274158995599,20.8114833832,95.6727523804,45.4335365295,46.6280822754,380
1.63086196677711E+018,42,1.63086196677711E+018,r200131356/base_footprint,0,1.63086196677711E+018,alta/m1vW10zy74W/map,0.750958952016,5.14127404941,0,0,0,0.548962053579,0.835847272969,0,65.3149414062,25.2243270874,47.940700531,97.2834014893,47.2586669922,47.2586669922,65.3149414062,65.3149414062,44.9449653625,-1.51184427738,0,0.0475325994194,0.122048355639,0.144087612629,0.0965550169349,-4.41284370422,-0.212038889527,-1.61064910889,-0.0168349817395,-1.82513046265,-0.0401714369655,1.68311691284,0.0360966362059,20.8114833832,95.6727523804,45.4335365295,46.6280822754,380
1.6308619668781E+018,43,1.6308619668781E+018,r200131356/base_footprint,0,1.63086196687811E+018,alta/m1vW10zy74W/map,0.751392849708,5.14135031932,0,0,0,0.551317934868,0.834295232332,0,65.2841567993,27.9918861389,47.8317146301,97.3678588867,47.1612472534,47.1612472534,65.2841567993,65.2841567993,44.7510147095,-1.30650365353,0,0.0471911095083,0.120120726526,0.14082492888,0.0936338156462,-7.18040275574,-0.345021188259,-1.69510650635,-0.017717756331,-1.72771072388,-0.0380272120237,1.87706756592,0.0402561612427,20.8114833832,95.6727523804,45.4335365295,46.6280822754,380
1.63086196697751E+018,44,1.63086196697751E+018,r200131356/base_footprint,0,1.63086196697751E+018,alta/m1vW10zy74W/map,0.755029661135,5.13627686756,0,0,0,0.596731750249,0.802440787999,0,65.3538665771,26.2213363647,47.6869049072,97.0330047607,47.1324119568,47.1324119568,65.3538665771,65.3538665771,41.9791946411,-1.26124918461,0,0.040297601372,0.11594337225,0.129498749971,0.0892011523247,-5.70734214783,-0.278217017651,-1.36251831055,-0.0142417829484,-1.49725341797,-0.0328092090786,5.18240737915,0.109886161983,20.5139942169,95.6704864502,45.6351585388,47.1616020203,314
1.63086196707754E+018,45,1.63086196707754E+018,r200131356/base_footprint,0,1.63086196707754E+018,alta/m1vW10zy74W/map,0.756370326125,5.13746913687,0,0,0,0.618526856016,0.78576365937,0,64.9660415649,26.4705886841,47.5354270935,96.9502868652,46.936668396,46.936668396,64.9660415649,64.9660415649,46.5483436584,-1.4204158783,0,0.0381726063788,0.111435137689,0.125382244587,0.0872096344829,-5.95659446716,-0.290367364883,-1.27980041504,-0.0133771710098,-1.30150985718,-0.0285198930651,0.613258361816,0.013003339991,20.5139942169,95.6704864502,45.6351585388,47.1616020203,314
1.63086196717731E+018,46,1.63086196717731E+018,r200131356/base_footprint,0,1.63086196717731E+018,alta/m1vW10zy74W/map,0.756499901974,5.13775860027,0,0,0,0.626145439773,0.779706283322,0,65.072479248,24.2273178101,47.4530410767,96.9460372925,46.8099517822,46.8099517822,65.072479248,65.072479248,43.248626709,-0.996742904186,0,0.036328047514,0.110612258315,0.122048854828,0.0857208073139,-3.71332359314,-0.181014165282,-1.27555084229,-0.0133327515796,-1.17479324341,-0.0257431603968,3.91297531128,0.0829695165157,20.5139942169,95.6704864502,45.6351585388,47.1616020203,314
1.63086196727776E+018,47,1.63086196727776E+018,r200131356/base_footprint,0,1.63086196727776E+018,alta/m1vW10zy74W/map,0.761061882854,5.13978139216,0,0,0,0.65190945831,0.758296814029,0,65.3028945923,28.2153530121,47.3617134094,97.1352844238,46.6713294983,46.6713294983,65.3028945923,65.3028945923,38.2852973938,-1.82333707809,0,0.0353333316743,0.108559519053,0.11912675947,0.0837934315205,-7.70135879517,-0.375419765711,-1.46479797363,-0.0153108658269,-1.03617095947,-0.022705540061,8.87630462646,0.18821041286,20.5139942169,95.6704864502,45.6351585388,47.1616020203,314
1.63086196867761E+018,48,1.63086196867761E+018,r200131356/base_footprint,0,1.63086196867761E+018,alta/m1vW10zy74W/map,0.757587804485,5.13373014861,0,0,0,0.695056643237,0.7189549796,0,65.571395874,25.2243270874,47.4484138489,97.0905227661,46.5618247986,46.5618247986,65.571395874,65.571395874,32.1085090637,-1.82239210606,0,0.0286667514592,0.00708237336949,0.110736057162,0.0820693075657,-4.71033287048,-0.229615584016,-1.42003631592,-0.0148429926485,-0.926666259766,-0.0203059725463,15.0530929565,0.319181114435,20.5139942169,95.6704864502,45.6351585388,47.1616020203,314
1.63086196877758E+018,49,1.63086196877758E+018,r200131356/base_footprint,0,1.63086196877758E+018,alta/m1vW10zy74W/map,0.757587804485,5.13373014861,0,0,0,0.695056643237,0.7189549796,0,65.0517730713,22.8868026733,47.6267166138,97.0905227661,46.4132041931,46.4132041931,65.0517730713,65.0517730713,39.856590271,-0.924773693085,0,0.0506049729884,0.0439748987556,0.174740105867,0.124135136604,-2.37280845642,-0.115667797625,-1.42003631592,-0.0148429926485,-0.778045654297,-0.0170492585748,7.30501174927,0.15489320457,20.5139942169,95.6704864502,45.6351585388,47.1616020203,314
1.63086196887707E+018,50,1.63086196887707E+018,r200131356/base_footprint,0,1.63086196887707E+018,alta/m1vW10zy74W/map,0.758456679014,5.13758755003,0,0,0,0.670032444302,0.742331815014,0,65.138381958,25.8526935577,47.6267166138,96.7549591064,46.4046554565,46.4046554565,65.138381958,65.138381958,36.997215271,-1.63361024857,0,0.0536609441042,0.0569258742034,0.180262938142,0.126601994038,-5.33869934082,-0.260246694088,-1.08447265625,-0.0113354986534,-0.769496917725,-0.0168619323522,10.1643867493,0.215522512794,20.5139942169,95.6704864502,45.6351585388,47.1616020203,314
1.63086196897696E+018,51,1.63086196897696E+018,r200131356/base_footprint,0,1.63086196897696E+018,alta/m1vW10zy74W/map,0.759898397042,5.15515940333,0,0,0,0.642113841228,0.766609297428,0,64.8594512939,22.5490188599,47.6267166138,96.6077194214,46.2933578491,46.2933578491,64.8594512939,64.8594512939,40.2859306335,-1.2049536705,0,0.0535125434399,0.070821531117,0.179119095206,0.125606536865,-1.73753547668,-0.0834892690182,-0.934967041016,-0.00977255310863,-0.85982131958,-0.0189248155802,6.34215164185,0.136015713215,20.8114833832,95.6727523804,45.4335365295,46.6280822754,380
1.63086196907723E+018,52,1.63086196907723E+018,r200131356/base_footprint,0,1.63086196907723E+018,alta/m1vW10zy74W/map,0.763838983436,5.17759389852,0,0,0,0.621288385626,0.783581994361,0,64.6580276489,18.3276615143,47.6267166138,96.4964523315,46.1408805847,46.1408805847,64.6580276489,64.6580276489,41.8642234802,-1.373919487,0,0.0488315746188,0.0840010419488,0.155156314373,0.106324732304,2.4838218689,0.119348622859,-0.823699951172,-0.008609556593,-0.707344055176,-0.0155687648803,4.76385879517,0.102167159319,20.8114833832,95.6727523804,45.4335365295,46.6280822754,380
1.63086196917758E+018,53,1.63086196917758E+018,r200131356/base_footprint,0,1.63086196917758E+018,alta/m1vW10zy74W/map,0.777800621502,5.22717173017,0,0,0,0.586710445065,0.809796797753,0,64.5920791626,20.8924942017,47.8508720398,96.1014785767,45.9397239685,45.9397239685,64.5920791626,64.5920791626,39.4569358826,-1.1702927351,0,0.0485603250563,0.0902440994978,0.132272273302,0.0837119594216,0.265481948853,0.012547605671,-0.502937316895,-0.00526093086228,-0.591617584229,-0.0130461361259,6.72295761108,0.145581915975,21.1579761505,95.5985412598,45.3481063843,46.1798934937,409
1.6308619692777E+018,54,1.6308619692777E+018,r200131356/base_footprint,0,1.6308619692777E+018,alta/m1vW10zy74W/map,0.777800621502,5.22717173017,0,0,0,0.586710445065,0.809796797753,0,64.3291702271,17.849899292,48.0569190979,96.1014785767,45.7578201294,45.7578201294,64.3291702271,64.3291702271,42.2247581482,-0.625504851341,0,0.0400780588388,0.0900371149182,0.107930101454,0.0678520426154,3.30807685852,0.156351283193,-0.502937316895,-0.00526093086228,-0.409713745117,-0.00903485901654,3.95513534546,0.085646264255,21.1579761505,95.5985412598,45.3481063843,46.1798934937,409
1.63086196937738E+018,55,1.63086196937738E+018,r200131356/base_footprint,0,1.63086196937738E+018,alta/m1vW10zy74W/map,0.796718841094,5.2824392038,0,0,0,0.571821959786,0.820377746106,0,64.6982345581,18.5520362854,48.2991867065,96.4174804688,45.7093887329,45.7093887329,64.6982345581,64.6982345581,36.1960830688,-1.62045240402,0,0.0252223685384,0.0932069271803,0.0771798714995,0.0519575029612,2.52334976196,0.119729705155,-0.904365539551,-0.00946849584579,-0.415004730225,-0.00916238781065,9.91729736328,0.215063333511,21.0753860474,95.5131149292,45.2943840027,46.1133804321,410
1.63086196947714E+018,56,1.63086196947714E+018,r200131356/base_footprint,0,1.63086196947714E+018,alta/m1vW10zy74W/map,0.82116585504,5.33776893599,0,0,0,0.577182282772,0.816615339345,0,64.6560287476,17.5465049744,48.4322814941,97.1214981079,45.7521247864,45.7521247864,64.6560287476,64.6560287476,39.9518318176,-1.18614125252,0,0.018796056509,0.0913900062442,0.0624641962349,0.0436681434512,3.31322479248,0.158833548427,-1.61954498291,-0.016958238557,-0.551795959473,-0.0122077865526,6.24761962891,0.135231465101,20.8597297668,95.501953125,45.2003288269,46.1994514465,402
1.63086196957737E+018,57,1.63086196957737E+018,r200131356/base_footprint,0,1.63086196957738E+018,alta/m1vW10zy74W/map,0.82116585504,5.33776893599,0,0,0,0.577182282772,0.816615339345,0,64.3519897461,21.2362918854,48.4322814941,97.1214981079,45.7040328979,45.7040328979,64.3519897461,64.3519897461,44.9051132202,-1.21550798416,0,0.0102892657742,0.0926154181361,0.043669141829,0.0333798751235,-0.37656211853,-0.0180521085858,-1.61954498291,-0.016958238557,-0.503704071045,-0.011143813841,1.29433822632,0.0280163120478,20.8597297668,95.501953125,45.2003288269,46.1994514465,402
1.63086196967719E+018,58,1.63086196967719E+018,r200131356/base_footprint,0,1.63086196967719E+018,alta/m1vW10zy74W/map,0.838553610052,5.39717971564,0,0,0,0.595651854345,0.803242720736,0,65.0304946899,18.8640975952,48.4322814941,97.5260162354,45.6724205017,45.6724205017,65.0304946899,65.0304946899,33.8068504333,-2.05766248703,0,0.00547948060557,0.0921829417348,0.0289194639772,0.023439982906,2.13464546204,0.101655870676,-2.02309417725,-0.0211835838854,-0.506206512451,-0.0112076364458,12.161113739,0.264556288719,20.9987430573,95.5029220581,45.1662139893,45.9679641724,377
1.63086196977715E+018,59,1.63086196977715E+018,r200131356/base_footprint,0,1.63086196977715E+018,alta/m1vW10zy74W/map,0.856911433881,5.46357781561,0,0,0,0.618651581272,0.785665463788,0,64.3537063599,18.2452640533,51.1762313843,97.1876754761,45.5772132874,45.5772132874,64.3537063599,64.3537063599,43.742805481,-1.28957366943,0,0.00209201616235,0.09016790241,0.0205890778452,0.0184970609844,2.52615737915,0.121616974473,-1.74175262451,-0.0182485803962,-0.539081573486,-0.0119694480672,2.09132003784,0.0456280112267,20.7714214325,95.4459228516,45.0381317139,45.8341255188,346
1.63086196987688E+018,60,1.63086196987688E+018,r200131356/base_footprint,0,1.63086196987688E+018,alta/m1vW10zy74W/map,0.86772218621,5.52170620968,0,0,0,0.640943451431,0.767588100525,0,64.5372238159,14.529914856,57.7213935852,96.4814987183,45.5032539368,45.5032539368,64.5372238159,64.5372238159,37.0985031128,-1.61159074306,0,0.013641031459,0.0909516736865,0.0229641515762,0.00932312104851,5.77108192444,0.28427579999,-1.07314300537,-0.011247892864,-0.682346343994,-0.0152238402516,8.66122436523,0.189276129007,20.3009967804,95.4083557129,44.8209075928,45.759727478,314
1.63086196997691E+018,61,1.63086196997691E+018,r200131356/base_footprint,0,1.63086196997691E+018,alta/m1vW10zy74W/map,0.86772218621,5.52170620968,0,0,0,0.640943451431,0.767588100525,0,64.0031814575,15.5354452133,57.7213935852,96.4814987183,45.3392524719,45.3392524719,64.0031814575,64.0031814575,44.9400939941,-1.71096467972,0,0.0134442197159,0.0915178135037,0.0200144201517,0.00657020136714,4.76555156708,0.23474471271,-1.07314300537,-0.011247892864,-0.51834487915,-0.0115648014471,0.819633483887,0.0179116781801,20.3009967804,95.4083557129,44.8209075928,45.759727478,314
1.63086197007764E+018,62,1.63086197007764E+018,r200131356/base_footprint,0,1.63086197007764E+018,alta/m1vW10zy74W/map,0.877328828293,5.58768848326,0,0,0,0.661904411768,0.749588253431,0,64.0382537842,17.6470584869,63.8135490417,95.7158813477,45.2928276062,45.2928276062,64.0382537842,64.0382537842,41.0511817932,-1.19236218929,0,0.0125610651448,0.0914459004998,0.0183940846473,0.00583301996812,2.47596168518,0.123041257262,-0.319404602051,-0.0033481803257,-0.771087646484,-0.0173193514347,4.46589279175,0.098114669323,20.1230201721,95.3964767456,44.5217399597,45.517074585,263
1.63086197017784E+018,63,1.63086197017784E+018,r200131356/base_footprint,0,1.63086197017784E+018,alta/m1vW10zy74W/map,0.88454720069,5.65446933323,0,0,0,0.682274587211,0.731096018076,0,63.5274543762,12.2632102966,66.0263214111,95.5596618652,45.1796455383,45.1796455383,63.5274543762,63.5274543762,48.4607963562,-1.79612898827,0,0.0112905604765,0.0911441966891,0.00588506041095,0.00540550006554,8.69136619568,0.414771735668,-0.36775970459,-0.00386335072108,-0.741527557373,-0.016686744988,-3.76326751709,-0.0841940864921,20.9545764923,95.1919021606,44.438117981,44.6975288391,210
1.63086197027747E+018,64,1.63086197027747E+018,r200131356/base_footprint,0,1.63086197027747E+018,alta/m1vW10zy74W/map,0.88454720069,5.65446933323,0,0,0,0.682274587211,0.731096018076,0,63.8046035767,14.2572278976,65.8131408691,95.5596618652,45.1557502747,45.1557502747,63.8046035767,63.8046035767,43.2140007019,-0.850197017193,0,0.0105551574379,0.0913686454296,0.000485318916617,0.010069838725,6.69734859467,0.319612681866,-0.36775970459,-0.00386335072108,-0.717632293701,-0.0161490254104,1.48352813721,0.0331903845072,20.9545764923,95.1919021606,44.438117981,44.6975288391,210
1.63086197037745E+018,65,1.63086197037745E+018,r200131356/base_footprint,0,1.63086197037745E+018,alta/m1vW10zy74W/map,0.885717361729,5.71963268546,0,0,0,0.698867888223,0.715250777568,0,63.3036689758,13.7254905701,65.8131408691,95.8879165649,45.1318397522,45.1318397522,63.3036689758,63.3036689758,53.1543235779,-1.36058604717,0,0.00845540873706,0.0928380638361,0.00494878971949,0.0134041979909,7.28812980652,0.346828848124,-0.775192260742,-0.00815024785697,-0.678905487061,-0.0152724562213,-8.57266998291,-0.19229143858,21.0136203766,95.1127243042,44.4529342651,44.581653595,211
1.63086197047737E+018,66,1.63086197047737E+018,r200131356/base_footprint,0,1.63086197047737E+018,alta/m1vW10zy74W/map,0.888908777457,5.79820200749,0,0,0,0.710006292863,0.704195330924,0,63.5603370667,14.9777555466,63.8524131775,95.6057281494,45.2186584473,45.2186584473,63.5603370667,63.5603370667,48.4560775757,-0.975657522678,0,0.00661559775472,0.0928312987089,0.00652330135927,0.0131388986483,6.64385128021,0.307278335094,-0.663421630859,-0.00698762899265,-0.682914733887,-0.015334081836,-4.22509002686,-0.0955233052373,21.6216068268,94.9423065186,44.5357437134,44.2309875488,210
1.63086197057706E+018,67,1.63086197057706E+018,r200131356/base_footprint,0,1.63086197057706E+018,alta/m1vW10zy74W/map,0.888908777457,5.79820200749,0,0,0,0.710006292863,0.704195330924,0,63.9832382202,17.248254776,59.4332199097,95.6057281494,45.1747589111,45.1747589111,63.9832382202,63.9832382202,40.3697395325,-1.14429533482,0,0.00602735253051,0.0911063477397,0.00998756568879,0.016014918685,4.37335205078,0.202267676592,-0.663421630859,-0.00698762899265,-0.639015197754,-0.0143483672291,3.86124801636,0.0872973501682,21.6216068268,94.9423065186,44.5357437134,44.2309875488,210
1.63086197067724E+018,68,1.63086197067724E+018,r200131356/base_footprint,0,1.63086197067724E+018,alta/m1vW10zy74W/map,0.884819441775,5.87441699478,0,0,0,0.717449984254,0.696610020093,0,63.4418640137,17.5465049744,55.9544334412,95.3473129272,45.196598053,45.196598053,63.4418640137,63.4418640137,49.4200172424,-1.32596564293,0,0.00539856636897,0.0922352746129,0.0136107690632,0.0190093368292,4.46028709412,0.202677756548,-0.490242004395,-0.00516821769997,-0.669589996338,-0.0150378393009,-5.5147819519,-0.125606477261,22.0067920685,94.8570709229,44.5270080566,43.9052352905,208
1.63086197077717E+018,69,1.63086197077717E+018,r200131356/base_footprint,0,1.63086197077718E+018,alta/m1vW10zy74W/map,0.882019476442,5.95085138992,0,0,0,0.720311505382,0.693650729989,0,63.6518058777,18.2452640533,52.6519165039,95.4596786499,45.2116851807,45.2116851807,63.6518058777,63.6518058777,46.2085380554,-1.1623249054,0,0.00265570729971,0.0925996378064,0.020732242614,0.0233879499137,4.20472335815,0.187292903662,-0.709762573242,-0.0074909045361,-0.647838592529,-0.0145373130217,-2.43036651611,-0.055515486747,22.4499874115,94.7499160767,44.5638465881,43.7781715393,203
1.63086197087748E+018,70,1.63086197087748E+018,r200131356/base_footprint,0,1.63086197087748E+018,alta/m1vW10zy74W/map,0.882019476442,5.95085138992,0,0,0,0.720311505382,0.693650729989,0,63.3262939453,16.2512454987,52.6519165039,95.4596786499,45.1701774597,45.1701774597,63.3262939453,63.3262939453,51.6195030212,-1.19250357151,0,7.63170610298E-05,0.0933482944965,0.0277533717453,0.0278296880424,6.19874191284,0.276113390923,-0.709762573242,-0.0074909045361,-0.606330871582,-0.0136058917269,-7.84133148193,-0.179115101695,22.4499874115,94.7499160767,44.5638465881,43.7781715393,203
1.6308619709776E+018,71,1.6308619709776E+018,r200131356/base_footprint,0,1.6308619709776E+018,alta/m1vW10zy74W/map,0.880723037843,6.02561380302,0,0,0,0.714300641009,0.699838977376,0,63.9259719849,15.5354452133,48.6558952332,95.2842102051,45.0309371948,45.0309371948,63.9259719849,63.9259719849,38.6897697449,-1.23156237602,0,0.00111016537994,0.0755618289113,0.0224675443023,0.0235777106136,7.19230747223,0.316454857588,-0.580940246582,-0.0061343209818,-0.501056671143,-0.0112521452829,5.00888061523,0.114623233676,22.7277526855,94.7032699585,44.5298805237,43.6986503601,200
1.6308619710772E+018,72,1.6308619710772E+018,r200131356/base_footprint,0,1.6308619710772E+018,alta/m1vW10zy74W/map,0.880723037843,6.02561380302,0,0,0,0.714300641009,0.699838977376,0,63.6432876587,14.9777555466,48.6558952332,95.2842102051,45.0328865051,45.0328865051,63.6432876587,63.6432876587,43.7991371155,-1.04618096352,0,0.0140109937638,0.0545417964458,0.0537208653986,0.0397098734975,7.74999713898,0.34099265933,-0.580940246582,-0.0061343209818,-0.503005981445,-0.0112959202379,-0.100486755371,-0.00229953904636,22.7277526855,94.7032699585,44.5298805237,43.6986503601,200
1.63086197117717E+018,73,1.63086197117717E+018,r200131356/base_footprint,0,1.63086197117717E+018,alta/m1vW10zy74W/map,0.88124702165,6.09932650012,0,0,0,0.705435771503,0.708773851298,0,64.50025177,12.2632102966,48.4765853882,95.838973999,45.0389175415,45.0389175415,64.50025177,64.50025177,30.4360485077,-1.08194184303,0,0.0191308762878,0.0360198952258,0.0637685731053,0.0446376986802,12.2100563049,0.498914033175,-1.77579498291,-0.0188787467778,-0.169235229492,-0.00377170555294,12.8221073151,0.296409010887,24.4732666016,94.0631790161,44.869682312,43.2581558228,148
1.63086197127725E+018,74,1.63086197127725E+018,r200131356/base_footprint,0,1.63086197127725E+018,alta/m1vW10zy74W/map,0.88124702165,6.09932650012,0,0,0,0.705435771503,0.708773851298,0,64.0496902466,17.6470584869,48.3684158325,95.838973999,45.1383590698,45.1383590698,64.0496902466,64.0496902466,39.6201591492,-0.870064914227,0,0.017542341724,0.0231263320893,0.0650128945708,0.0474705509841,6.82620811462,0.278925091028,-1.77579498291,-0.0188787467778,-0.268676757812,-0.00598793523386,3.63799667358,0.0840996727347,24.4732666016,94.0631790161,44.869682312,43.2581558228,148
1.63086197547714E+018,75,1.63086197547714E+018,r200131356/base_footprint,0,1.63086197547714E+018,alta/m1vW10zy74W/map,0.885121970367,7.4388494984,0,0,0,0.705551445074,0.708658703717,0,63.1500167847,20.239282608,48.2546653748,90.3476028442,45.3177452087,45.3177452087,63.1500167847,63.1500167847,37.9826927185,-1.68394589424,0,0.0026917825453,0.00633807154372,0.00523046869785,0.00792225077748,-6.97052192688,-0.525333285332,4.40277099609,0.0464670583606,-3.97738647461,-0.0962107405066,3.08665847778,0.075157225132,13.2687606812,94.7503738403,41.3403587341,41.0693511963,38
1.6308620290769E+018,76,1.6308620290769E+018,r200131356/base_footprint,0,1.6308620290769E+018,alta/m1vW10zy74W/map,0.886700641174,7.57378789876,0,0,0,0.70362133578,0.710575130324,0,62.4916496277,15.2093267441,47.9095916748,89.760887146,44.8418273926,44.8418273926,62.4916496277,62.4916496277,42.5812263489,-2.34841942787,0,0,0.00501631945372,2.43633668795E-09,2.43633668795E-09,-3.53188514709,-0.302453666925,5.11766815186,0.0539391450584,-3.50859451294,-0.0848855599761,-1.41492080688,-0.0343708470464,11.677441597,94.8785552979,41.3332328796,41.166305542,31
1.63086202917714E+018,77,1.63086202917714E+018,r200131356/base_footprint,0,1.63086202917715E+018,alta/m1vW10zy74W/map,0.886700641174,7.57378789876,0,0,0,0.70362133578,0.710575130324,0,62.9017372131,8.49673175812,47.5275497437,89.760887146,44.2405509949,44.2405509949,62.9017372131,62.9017372131,28.7058753967,-3.11101269722,0,0.000306211877614,0.0447552874684,0.000300212297589,0.000606424175203,3.18070983887,0.272380709648,5.11766815186,0.0539391450584,-2.90731811523,-0.0703385099769,12.4604301453,0.302685171366,11.677441597,94.8785552979,41.3332328796,41.166305542,31
1.63086202927743E+018,78,1.63086202927743E+018,r200131356/base_footprint,0,1.63086202927743E+018,alta/m1vW10zy74W/map,0.886700641174,7.57378789876,0,0,0,0.70362133578,0.710575130324,0,62.2339859009,7.27816534042,47.5275497437,89.760887146,43.5588684082,43.5588684082,62.2339859009,62.2339859009,33.3632354736,-3.11599421501,0,0.00153204041999,0.0820951014757,0.00276528927498,0.00429732957855,4.39927625656,0.376732885838,5.11766815186,0.0539391450584,-2.22563552856,-0.0538461506367,7.80307006836,0.189549922943,11.677441597,94.8785552979,41.3332328796,41.166305542,31
1.6308620293774E+018,79,1.6308620293774E+018,r200131356/base_footprint,0,1.6308620293774E+018,alta/m1vW10zy74W/map,0.886700641174,7.57378789876,0,0,0,0.70362133578,0.710575130324,0,61.5713119507,9.73630809784,47.5275497437,89.760887146,42.9116020203,42.9116020203,61.5713119507,61.5713119507,38.3008575439,-3.10804581642,0,0.00162923859898,0.108985602856,0.00265237782151,0.00428161630407,1.94113349915,0.166229352355,5.11766815186,0.0539391450584,-1.57836914062,-0.038186442107,2.86544799805,0.0696066319942,11.677441597,94.8785552979,41.3332328796,41.166305542,31
1.63086202947725E+018,80,1.63086202947725E+018,r200131356/base_footprint,0,1.63086202947725E+018,alta/m1vW10zy74W/map,0.886700641174,7.57378789876,0,0,0,0.70362133578,0.710575130324,0,61.4394607544,12.5188541412,47.5275497437,89.760887146,42.4845428467,42.4845428467,61.4394607544,61.4394607544,36.0619430542,3.14009165764,0,0.00133590225596,0.119950167835,0.00194735161494,0.0032832538709,-0.84141254425,-0.0720545276999,5.11766815186,0.0539391450584,-1.15130996704,-0.0278543420136,5.10436248779,0.123993702233,11.677441597,94.8785552979,41.3332328796,41.166305542,31
1.63086202957698E+018,81,1.63086202957698E+018,r200131356/base_footprint,0,1.63086202957698E+018,alta/m1vW10zy74W/map,0.886700641174,7.57378789876,0,0,0,0.70362133578,0.710575130324,0,61.4220123291,9.27218341827,47.5275497437,89.760887146,42.0598182678,42.0598182678,61.4220123291,61.4220123291,31.7889823914,-3.1010658741,0,0.00158075604122,0.120739452541,0.00170853792224,0.00328929396346,2.40525817871,0.205974757671,5.11766815186,0.0539391450584,-0.726585388184,-0.0175787210464,9.37732315063,0.22779121995,11.677441597,94.8785552979,41.3332328796,41.166305542,31
1.63086202967706E+018,82,1.63086202967706E+018,r200131356/base_footprint,0,1.63086202967706E+018,alta/m1vW10zy74W/map,0.890308461353,7.49826261071,0,0,0,0.703724699059,0.710472763682,0,61.3063278198,14.3446855545,47.5275497437,90.8169021606,41.7924308777,41.7924308777,61.3063278198,61.3063278198,34.7852210999,-2.89793252945,0,0.0017469843151,0.119651995599,0.00149157678243,0.00323856109753,-2.31694984436,-0.192633911967,4.09284210205,0.0431235171854,-0.364868164062,-0.00880737695843,6.49996566772,0.157440632582,12.0277357101,94.9097442627,41.4275627136,41.2851867676,32
1.6308620297771E+018,83,1.6308620297771E+018,r200131356/base_footprint,0,1.6308620297771E+018,alta/m1vW10zy74W/map,0.890308461353,7.49826261071,0,0,0,0.703724699059,0.710472763682,0,61.2752456665,5.6795129776,47.5275497437,90.8169021606,41.3838806152,41.3838806152,61.2752456665,61.2752456665,30.9323310852,-2.76248216629,0,0.00251326779835,0.120197355747,0.00327463890426,0.00578790670261,6.34822273254,0.527798652649,4.09284210205,0.0431235171854,0.0436820983887,0.00105442118365,10.3528556824,0.250764399767,12.0277357101,94.9097442627,41.4275627136,41.2851867676,32
1.63086202987677E+018,84,1.63086202987677E+018,r200131356/base_footprint,0,1.63086202987677E+018,alta/m1vW10zy74W/map,0.889588566291,7.42834943292,0,0,0,0.703703923146,0.710493341664,0,61.2699928284,11.2487096786,47.5275497437,92.4099731445,41.2270698547,41.2270698547,61.2699928284,61.2699928284,35.0684204102,-2.70760655403,0,0.00389109016396,0.122055105865,0.00265477248468,0.00654586264864,2.0200510025,0.152241125703,2.3404006958,0.0247007012367,0.113288879395,0.00274039409123,6.00093078613,0.146117016673,13.2687606812,94.7503738403,41.3403587341,41.0693511963,38
1.63086202997701E+018,85,1.63086202997701E+018,r200131356/base_footprint,0,1.63086202997701E+018,alta/m1vW10zy74W/map,0.889588566291,7.42834943292,0,0,0,0.703703923146,0.710493341664,0,61.1182327271,11.5133228302,47.1384544373,92.4099731445,40.9265861511,40.9265861511,61.1182327271,61.1182327271,34.5548324585,-2.71133375168,0,0.00353405135684,0.121931098402,0.0033034523949,0.00683750351891,1.75543785095,0.13229855895,2.3404006958,0.0247007012367,0.413772583008,0.010008925572,6.51451873779,0.158622398973,13.2687606812,94.7503738403,41.3403587341,41.0693511963,38
1.63086203007757E+018,86,1.63086203007757E+018,r200131356/base_footprint,0,1.63086203007757E+018,alta/m1vW10zy74W/map,0.889474157088,7.35756417217,0,0,0,0.704592128826,0.709612522435,0,61.1845474243,10.7505073547,47.1384544373,93.7221755981,40.6925468445,40.6925468445,61.1845474243,61.1845474243,35.5574645996,-2.64910531044,0,0.00360235664994,0.120791882277,0.00451607163996,0.00811842828989,2.51825332642,0.189788132906,1.02819824219,0.0108516532928,0.647811889648,0.0156702045351,5.51188659668,0.134209245443,13.2687606812,94.7503738403,41.3403587341,41.0693511963,38
1.6308620301774E+018,87,1.6308620301774E+018,r200131356/base_footprint,0,1.6308620301774E+018,alta/m1vW10zy74W/map,0.889474157088,7.35756417217,0,0,0,0.704592128826,0.709612522435,0,61.4021606445,13.5243844986,47.1384544373,93.7221755981,40.7275657654,40.7275657654,61.4021606445,61.4021606445,32.0186271667,-2.41774201393,0,0.00492200627923,0.119585163891,0.00471359770745,0.00963560398668,-0.255623817444,-0.0192650854588,1.02819824219,0.0108516532928,0.61279296875,0.0148231172934,9.05072402954,0.220376595855,13.2687606812,94.7503738403,41.3403587341,41.0693511963,38
1.63086203027691E+018,88,1.63086203027691E+018,r200131356/base_footprint,0,1.63086203027691E+018,alta/m1vW10zy74W/map,0.891286351749,7.29209607694,0,0,0,0.704352142147,0.709850730684,0,60.7268066406,12.2807016373,46.6699829102,94.0335617065,40.8056869507,40.8056869507,60.7268066406,60.7268066406,46.1397247314,3.12168812752,0,0.00467840908095,0.119039200246,0.00557276094332,0.0102511700243,2.34706783295,0.160452887416,0.689445495605,0.00727854296565,0.607238769531,0.0146630248055,-5.12622070312,-0.124988608062,14.6277694702,94.7230072021,41.4129257202,41.0135040283,42
1.63086203037687E+018,89,1.63086203037687E+018,r200131356/base_footprint,0,1.63086203037687E+018,alta/m1vW10zy74W/map,0.892433419029,7.22677202257,0,0,0,0.70635939149,0.70785338175,0,60.9859809875,7.70791053772,46.2859268188,94.2843475342,40.9113235474,40.9113235474,60.9859809875,60.9859809875,43.5182991028,-3.11572813988,0,0.00428380770609,0.121676087379,0.00689103966579,0.0111748473719,8.8017578125,0.533127486706,0.320335388184,0.00338604161516,0.623863220215,0.0150201134384,-3.34107589722,-0.0831584557891,16.5096683502,94.6046829224,41.5351867676,40.1772232056,50
1.63086203047716E+018,90,1.63086203047716E+018,r200131356/base_footprint,0,1.63086203047716E+018,alta/m1vW10zy74W/map,0.892255425732,7.21153205709,0,0,0,0.705384145488,0.70882523043,0,61.3246498108,8.72210979462,46.2859268188,94.5253219604,41.1581230164,41.1581230164,61.3246498108,61.3246498108,40.9552192688,-3.10428285599,0,0.00528682023287,0.122287347913,0.00727032404393,0.0125571442768,7.7875585556,0.471696853638,0.0793609619141,0.000838869251311,0.377063751221,0.00907817669213,-0.777996063232,-0.0193641074002,16.5096683502,94.6046829224,41.5351867676,40.1772232056,50
1.63086203057707E+018,91,1.63086203057707E+018,r200131356/base_footprint,0,1.63086203057707E+018,alta/m1vW10zy74W/map,0.893130441849,7.15003446605,0,0,0,0.706750332952,0.707463049828,0,61.4535484314,18.9322795868,45.9329071045,94.0084381104,41.6070175171,41.6070175171,61.4535484314,61.4535484314,41.6222763062,-3.13026285172,0,0.00481926370412,0.124735064805,0.00728194089606,0.0121012050658,13.4122638702,0.414668530226,-1.24872589111,-0.0134619418532,6.35133743286,0.132434427738,-2.35572814941,-0.0599932596087,32.344543457,92.7597122192,47.95835495,39.2665481567,137
1.63086203067712E+018,92,1.63086203067712E+018,r200131356/base_footprint,0,1.63086203067712E+018,alta/m1vW10zy74W/map,0.893779619964,7.1268232656,0,0,0,0.705300451343,0.708908508438,0,61.8503913879,22.5490188599,45.6712379456,94.2520904541,42.0329818726,42.0329818726,61.8503913879,61.8503913879,39.9566650391,-3.04918551445,0,0.00469798175618,0.123862966895,0.00816408265382,0.0128620639443,10.1409912109,0.31021681428,-1.48663330078,-0.0160257201642,5.85434341431,0.122252464294,-0.836036682129,-0.0213707368821,32.6900100708,92.7654571533,47.8873252869,39.1206283569,140
1.63086203077695E+018,93,1.63086203077695E+018,r200131356/base_footprint,0,1.63086203077695E+018,alta/m1vW10zy74W/map,0.893779619964,7.1268232656,0,0,0,0.705300451343,0.708908508438,0,62.0372276306,20.9095401764,45.4428710938,94.2520904541,42.6019515991,42.6019515991,62.0372276306,62.0372276306,42.738483429,-3.13366317749,0,0.00528998346999,0.124303653836,0.00795522797853,0.0132452109829,11.7804698944,0.360369116068,-1.48663330078,-0.0160257201642,5.28537368774,0.110371038318,-3.61785507202,-0.0924794748425,32.6900100708,92.7654571533,47.8873252869,39.1206283569,140
1.63086203087772E+018,94,1.63086203087772E+018,r200131356/base_footprint,0,1.63086203087772E+018,alta/m1vW10zy74W/map,0.894562653896,7.06489847628,0,0,0,0.704898444958,0.709308242089,0,62.7643661499,22.5490188599,45.4428710938,95.2160720825,43.1517562866,43.1517562866,62.7643661499,62.7643661499,39.0582466125,-3.11650013924,0,0.00593533506617,0.124398872256,0.00814718194306,0.0140825174749,10.9242019653,0.326356470585,-2.5034942627,-0.0270027462393,4.73993301392,0.0989719331264,-0.132354736328,-0.00340017233975,33.4732208252,92.7125778198,47.8916893005,38.9258918762,143
1.63086203097686E+018,95,1.63086203097686E+018,r200131356/base_footprint,0,1.63086203097686E+018,alta/m1vW10zy74W/map,0.894987358417,6.98476816512,0,0,0,0.705250540715,0.708958161545,0,62.935459137,23.8187084198,45.2294692993,95.4862365723,43.7029762268,43.7029762268,62.935459137,62.935459137,42.9043464661,-3.07619428635,0,0.00548945507035,0.124266900122,0.00943823438138,0.0149276889861,10.4466648102,0.304875254631,-2.83686828613,-0.0306194014847,4.34745025635,0.0904768332839,-3.76514816284,-0.0961989089847,34.26537323,92.6493682861,48.0504264832,39.1391983032,142
1.63086203107706E+018,96,1.63086203107706E+018,r200131356/base_footprint,0,1.63086203107706E+018,alta/m1vW10zy74W/map,0.894987358417,6.98476816512,0,0,0,0.705250540715,0.708958161545,0,63.4789772034,31.5332698822,45.1140785217,95.4862365723,44.2875938416,44.2875938416,63.4789772034,63.4789772034,39.4348945618,-3.08696508408,0,0.00557375745848,0.123084023595,0.00971146393567,0.0152852218598,2.73210334778,0.0797336548567,-2.83686828613,-0.0306194014847,3.7628326416,0.0783100798726,-0.295696258545,-0.00755499023944,34.26537323,92.6493682861,48.0504264832,39.1391983032,142
1.63086203117692E+018,97,1.63086203117692E+018,r200131356/base_footprint,0,1.63086203117692E+018,alta/m1vW10zy74W/map,0.89538422255,6.91912787978,0,0,0,0.705366624173,0.708842666255,0,63.8271331787,27.3075084686,45.0991439819,95.1598968506,44.9791603088,44.9791603088,63.8271331787,63.8271331787,39.4621696472,-3.11916017532,0,0.00638904003426,0.124081082642,0.00955332349986,0.0159423630685,7.11387825012,0.206670299172,-2.51966094971,-0.0271983426064,3.04327392578,0.0633719190955,-0.322319030762,-0.00823506060988,34.4213867188,92.6402359009,48.0224342346,39.1398506165,143
1.63086203127711E+018,98,1.63086203127711E+018,r200131356/base_footprint,0,1.63086203127711E+018,alta/m1vW10zy74W/map,0.895875303325,6.92195596726,0,0,0,0.705172730321,0.709035556522,0,64.3974685669,32.0899085999,45.0991439819,95.5010375977,45.572303772,45.572303772,64.3974685669,64.3974685669,36.8301429749,-3.09593582153,0,0.00632562069222,0.124516025186,0.0102568520233,0.0165824722499,2.3314781189,0.0677334144711,-2.86080169678,-0.0308807678521,2.45013046265,0.051020540297,2.3097076416,0.0590116605163,34.4213867188,92.6402359009,48.0224342346,39.1398506165,143
1.63086203137688E+018,99,1.63086203137688E+018,r200131356/base_footprint,0,1.63086203137688E+018,alta/m1vW10zy74W/map,0.894781867003,6.84519085193,0,0,0,0.704676702949,0.70952853665,0,64.8831329346,27.5294113159,45.1916732788,95.1456985474,46.0774726868,46.0774726868,64.8831329346,64.8831329346,32.2648277283,-3.08833813667,0,0.00756543548778,0.123908907175,0.00974429864436,0.0173097345978,7.12215042114,0.205536201596,-2.52659606934,-0.0272794272751,2.01115036011,0.0418217480183,6.87493133545,0.175650835037,34.6515617371,92.619102478,48.0886230469,39.1397590637,143
1.63086203147714E+018,100,1.63086203147714E+018,r200131356/base_footprint,0,1.63086203147714E+018,alta/m1vW10zy74W/map,0.892099938671,6.78515133187,0,0,0,0.703331378697,0.710862132724,0,64.9512329102,30.9056949615,45.4123153687,94.7438201904,46.4705200195,46.4705200195,64.9512329102,64.9512329102,33.837184906,-3.11329293251,0,0.0076235756278,0.122929669917,0.00994452554733,0.0175681002438,4.29286766052,0.121961444616,-2.16354370117,-0.0233693812042,1.69915008545,0.0352742746472,5.28588104248,0.135109066963,35.1985626221,92.5802764893,48.169670105,39.1230659485,146
1.63086203157692E+018,101,1.63086203157692E+018,r200131356/base_footprint,0,1.63086203157692E+018,alta/m1vW10zy74W/map,0.892099938671,6.78515133187,0,0,0,0.703331378697,0.710862132724,0,65.0812072754,31.985294342,45.7815437317,94.7438201904,46.7828407288,46.7828407288,65.0812072754,65.0812072754,34.8707580566,-3.11243081093,0,0.0082551734522,0.117232248187,0.00959832873195,0.0178535021842,3.21326828003,0.0912897586823,-2.16354370117,-0.0233693812042,1.38682937622,0.0287905093282,4.25230789185,0.108690559864,35.1985626221,92.5802764893,48.169670105,39.1230659485,146
