%time,field.header.seq,field.header.stamp,field.header.frame_id,field.pose.header.seq,field.pose.header.stamp,field.pose.header.frame_id,field.pose.pose.position.x,field.pose.pose.position.y,field.pose.pose.position.z,field.pose.pose.orientation.x,field.pose.pose.orientation.y,field.pose.pose.orientation.z,field.pose.pose.orientation.w,field.label,field.main_output,field.scan_score,field.pose_score,field.cov_score,field.lhood_map_score,field.lhood_robot_score,field.lhood_map_score_all,field.lhood_robot_score_all,field.point_angle_diff,field.average_orientation,field.map_average_orientation,field.sensor_div,field.odom_div_x,field.odom_div_w,field.imu_div_w,field.kdtree_div,field.kdtree_div_p,field.cov_div,field.cov_div_p,field.likelihood_div,field.likelihood_div_p,field.normal_diff_div,field.normal_diff_div_p,field.kdtree_average,field.cov_average,field.likelihood_average,field.normal_diff_average,field.map_update_count
1630861368155336206,0,1630861368155336206,r200131356/base_footprint,0,1630861368155336543,alta/m1vW10zy74W/map,-1.22193250103,5.1599838259,0.0,0.0,0.0,0.000472053298085,0.999999888583,0,60.1537895203,11.0911540985,100.0,94.1812438965,39.3664131165,39.3664131165,60.1537895203,60.1537895203,41.4415283203,-1.70266258717,0.0,0.00187565770466,4.10853099823,0.00534499948844,0.00722065754235,12.7423229218,0.534639716148,1.62763214111,0.0169883240014,7.96657562256,0.168309167027,4.89545440674,0.105648964643,23.8334770203,95.8088760376,47.332988739,46.3369827271,229
1630861368255421798,1,1630861368255421798,r200131356/base_footprint,0,1630861368255422192,alta/m1vW10zy74W/map,-1.13118690168,5.1601786977,0.0,0.0,0.0,-0.001417566494,0.999998995252,0,59.6487426758,13.165266037,87.1798629761,94.6837615967,39.6027870178,39.6027870178,59.6487426758,59.6487426758,54.8942718506,-0.442858487368,0.0,0.000873401178978,4.10807085037,0.00864136312157,0.00951476488262,10.9888248444,0.454946726561,1.24561309814,0.0129846893251,7.62423324585,0.161437943578,-8.79391860962,-0.190755993128,24.1540908813,95.9293746948,47.2270202637,46.100353241,263
1630861368355275546,2,1630861368355275546,r200131356/base_footprint,0,1630861368355275750,alta/m1vW10zy74W/map,-1.04346703374,5.16110605665,0.0,0.0,0.0,-0.000229224411925,0.999999973728,0,60.4860267639,14.5220584869,81.8866958618,96.2990493774,40.0675086975,40.0675086975,60.4860267639,60.4860267639,50.6571960449,-1.71243143082,0.0,0.000167213060195,4.12086486816,0.0093669174239,0.00953413080424,9.88357925415,0.404971152544,-0.355255126953,-0.00370274204761,7.17334747314,0.151846259832,-4.53279495239,-0.098273254931,24.4056377411,95.9437942505,47.2408561707,46.1244010925,265
1630861368455645297,3,1630861368455645297,r200131356/base_footprint,0,1630861368455645546,alta/m1vW10zy74W/map,-0.865172204498,5.15745180601,0.0,0.0,0.0,0.000263077086202,0.999999965395,0,60.7235374451,18.7675075531,84.1573257446,95.5127334595,40.3742485046,40.3742485046,60.7235374451,60.7235374451,46.8640556335,-0.780033886433,0.0,0.00156006624456,4.12314033508,0.00773871084675,0.00929877720773,5.62049293518,0.230461403728,0.412399291992,0.00429917871952,6.81226730347,0.144368946552,-1.15543365479,-0.0252782423049,24.3880004883,95.9251327515,47.1865158081,45.7086219788,323
1630861368555792490,4,1630861368555792490,r200131356/base_footprint,0,1630861368555793485,alta/m1vW10zy74W/map,-0.764492438927,5.16056616082,0.0,0.0,0.0,0.00044073727979,0.999999902875,0,60.7845954895,17.2794113159,78.9619903564,96.0629043579,40.4883880615,40.4883880615,60.7845954895,60.7845954895,48.9782867432,-1.11152696609,0.0,0.00249031977728,4.1052365303,0.00766298081726,0.0101533001289,7.13074684143,0.292122095823,-0.178909301758,-0.00186589325313,6.71500396729,0.142256811261,-3.79309463501,-0.0839455276728,24.4101581573,95.8839950562,47.2033920288,45.1851921082,366
1630861368655461854,5,1630861368655461854,r200131356/base_footprint,0,1630861368655462050,alta/m1vW10zy74W/map,-0.659715542724,5.16051614433,0.0,0.0,0.0,-0.000404561603025,0.999999918165,0,61.1571655273,17.4573059082,81.3623046875,96.5713653564,40.6766433716,40.6766433716,61.1571655273,61.1571655273,46.1356811523,-1.00339400768,0.0,0.00244598835707,4.06966400146,0.0077742729336,0.0102202612907,7.46945762634,0.299656122923,-0.691352844238,-0.00721060438082,6.2364692688,0.13293659687,-1.11306762695,-0.0247224122286,24.9267635345,95.8800125122,46.9131126404,45.0226135254,453
1630861368755873292,6,1630861368755873292,r200131356/base_footprint,0,1630861368755873924,alta/m1vW10zy74W/map,-0.518204369904,5.16046551772,0.0,0.0,0.0,0.000890022616937,0.99999960393,0,61.5348434448,20.3036060333,79.6800231934,96.9281921387,40.8904304504,40.8904304504,61.5348434448,61.5348434448,42.9309539795,-0.386856526136,0.0,0.00533390138298,3.98277115822,0.00394664797932,0.0092805493623,4.56421089172,0.183538869023,-1.05298614502,-0.0109828831628,6.07069778442,0.1292707026,2.05987548828,0.045784343034,24.867816925,95.8752059937,46.9611282349,44.9908294678,474
1630861368855368825,7,1630861368855368825,r200131356/base_footprint,0,1630861368855369159,alta/m1vW10zy74W/map,-0.421182934698,5.15949191856,0.0,0.0,0.0,0.00097427416056,0.999999525395,0,61.4069099426,17.0684661865,81.5138092041,96.4917907715,41.0235214233,41.0235214233,61.4069099426,61.4069099426,45.1000938416,-0.635252594948,0.0,0.00465816026554,3.87577486038,0.00388215738349,0.00854031741619,7.30078887939,0.299590140581,-0.627082824707,-0.00654133129865,5.96054840088,0.126863181591,0.13117980957,0.00290020159446,24.3692550659,95.8647079468,46.9840698242,45.2312736511,415
1630861368955281280,8,1630861368955281280,r200131356/base_footprint,0,1630861368955281458,alta/m1vW10zy74W/map,-0.287862896088,5.16120504075,0.0,0.0,0.0,0.00148812502335,0.999998892741,0,60.6268615723,17.4573059082,82.1585845947,96.1048049927,41.1348762512,41.1348762512,60.6268615723,60.6268615723,58.950466156,-1.40710198879,0.0,0.00323690916412,3.72984075546,0.00498328078538,0.00822019018233,6.05004310608,0.257368147373,-0.169868469238,-0.00177066330798,6.05872344971,0.128380194306,-13.4401817322,-0.295321851969,23.5073490143,95.9349365234,47.1935997009,45.5102844238,405
1630861369055496686,9,1630861369055496686,r200131356/base_footprint,0,1630861369055496901,alta/m1vW10zy74W/map,-0.19259782363,5.15920440355,0.0,0.0,0.0,0.00161245156255,0.999998699999,0,60.7486076355,15.966386795,83.6706924438,96.4027404785,41.1817092896,41.1817092896,60.7486076355,60.7486076355,58.3373718262,-1.32624769211,0.0,0.00407124077901,3.54800581932,0.00391538441181,0.00798662472516,7.44472122192,0.317999511957,-0.461578369141,-0.00481105688959,5.92373657227,0.12575481832,-12.6075363159,-0.275696069002,23.411108017,95.9411621094,47.1054458618,45.7298355103,390
1630861369155288540,10,1630861369155288540,r200131356/base_footprint,0,1630861369155288759,alta/m1vW10zy74W/map,-0.0929059644087,5.15939702648,0.0,0.0,0.0,0.000967907844179,0.999999531577,0,61.6799087524,18.117647171,84.2260131836,96.2699661255,41.379535675,41.379535675,61.6799087524,61.6799087524,43.2324829102,-1.04236090183,0.0,0.00454456591979,3.34898948669,0.00904293172061,0.0135874971747,5.13937759399,0.220981732011,-0.455558776855,-0.00475459592417,5.72765350342,0.12158767134,2.97755050659,0.0644351541996,23.257024765,95.8144073486,47.1071891785,46.2100334167,336
1630861369256056604,11,1630861369256056604,r200131356/base_footprint,0,1630861369256057165,alta/m1vW10zy74W/map,0.0686841787774,5.15909652459,0.0,0.0,0.0,0.000920719854549,0.999999576137,0,61.0225906372,19.7012138367,85.2077407837,95.0472717285,41.49634552,41.49634552,61.0225906372,61.0225906372,51.9241104126,-1.14617097378,0.0,0.00205811928026,3.1560280323,0.00814395025373,0.0102020697668,3.19721984863,0.139626130462,0.775581359863,0.00809390842915,5.46709442139,0.116411708295,-5.44987869263,-0.11726667732,22.8984336853,95.8228530884,46.9634399414,46.47423172,320
1630861369355826037,12,1630861369355826037,r200131356/base_footprint,0,1630861369355826352,alta/m1vW10zy74W/map,0.139159490739,5.1600742084,0.0,0.0,0.0,0.00205299452752,0.999997892605,0,61.0161247253,23.4815883636,84.631690979,94.7315673828,41.746711731,41.746711731,61.0161247253,61.0161247253,53.607875824,-1.59946632385,0.0,0.00418581441045,2.97461938858,0.0070185996592,0.0112044140697,-0.739866256714,-0.0325334332883,1.09140777588,0.011389833875,5.22107315063,0.111162856221,-6.89295196533,-0.147553533316,22.7417221069,95.8229751587,46.9677848816,46.7149238586,304
1630861369455761293,13,1630861369455761293,r200131356/base_footprint,0,1630861369455762040,alta/m1vW10zy74W/map,0.206101231815,5.15995882151,0.0,0.0,0.0,0.00206973319341,0.9999978581,0,61.2796707153,19.9614276886,84.3791351318,94.3757629395,41.9490890503,41.9490890503,61.2796707153,61.2796707153,49.7688179016,-1.6260393858,0.0,0.00353005016223,2.79193425179,0.00852452963591,0.0120545802638,2.5415019989,0.112940937281,1.47135925293,0.0153511054814,4.97396087646,0.106002509594,-2.88224411011,-0.0614726953208,22.5029296875,95.8471221924,46.9230499268,46.8865737915,291
1630861369555795734,14,1630861369555795734,r200131356/base_footprint,0,1630861369555796186,alta/m1vW10zy74W/map,0.27213044886,5.15787537993,0.0,0.0,0.0,0.00122145490248,0.999999254024,0,61.539100647,17.3553714752,81.1189804077,94.8950500488,42.0178146362,42.0178146362,61.539100647,61.539100647,47.7107810974,-2.07100343704,0.0,0.00484626414254,2.56947851181,0.00768083147705,0.0125270960853,4.88854789734,0.219770073891,0.957313537598,0.00998737569898,4.67457962036,0.100114367902,-0.740375518799,-0.0157625954598,22.2439193726,95.8523635864,46.6923942566,46.9704055786,310
1630861369655389114,15,1630861369655389114,r200131356/base_footprint,0,1630861369655390305,alta/m1vW10zy74W/map,0.327050245176,5.15625547594,0.0,0.0,0.0,0.00181043965342,0.999998361153,0,61.8650779724,16.1041469574,78.1360626221,95.5067901611,42.0807876587,42.0807876587,61.8650779724,61.8650779724,44.7255554199,-2.67220020294,0.0,0.00366984424181,2.48285603523,0.00987560953945,0.0135454535484,5.93024253845,0.269135773182,0.333541870117,0.0034801827278,4.51047134399,0.096809387207,2.23524093628,0.0475980192423,22.0343894958,95.8403320312,46.5912590027,46.9607963562,304
1630861369755480085,16,1630861369755480085,r200131356/base_footprint,0,1630861369755480360,alta/m1vW10zy74W/map,0.389955022538,5.15449499742,0.0,0.0,0.0,0.00164444884894,0.999998647893,0,61.6846160889,15.1398267746,75.692527771,94.1564483643,42.2161521912,42.2161521912,61.6846160889,61.6846160889,44.5745811462,-2.88158535957,0.0,0.00374205852859,2.2729370594,0.00624412437901,0.00250206608325,6.74552249908,0.308220922947,1.65956878662,0.017320368439,4.30884170532,0.0926134809852,2.46224975586,0.0523472726345,21.8853492737,95.8160171509,46.5249938965,47.0368309021,303
1630861369855272716,17,1630861369855272716,r200131356/base_footprint,0,1630861369855272946,alta/m1vW10zy74W/map,0.447460968703,5.15156279205,0.0,0.0,0.0,-0.00213403479771,0.999997722945,0,62.2961502075,14.1755065918,76.1014633179,95.6063079834,42.3666687012,42.3666687012,62.2961502075,62.2961502075,40.4120559692,-2.56085824966,0.0,0.00781619362533,2.10438656807,0.0174142196774,0.00959802698344,7.84099006653,0.356141597033,0.195243835449,0.00203800294548,4.17533874512,0.08971118927,6.58908081055,0.140189811587,22.0164966583,95.8015518188,46.5420074463,47.0011367798,299
1630861369955685890,18,1630861369955685890,r200131356/base_footprint,0,1630861369955686312,alta/m1vW10zy74W/map,0.499763418413,5.14996073527,0.0,0.0,0.0,-0.0159180562238,0.999873299717,0,61.6198310852,18.032787323,75.5026397705,95.7504196167,42.4275436401,42.4275436401,61.6198310852,61.6198310852,53.7620201111,-0.97185832262,0.0,0.00989275146276,1.89030385017,0.0115717118606,0.00167895981576,3.95880508423,0.18001447618,0.0420227050781,0.000438684975961,4.07592773438,0.0876478180289,-6.72372436523,-0.142941489816,21.9915924072,95.7924423218,46.5034713745,47.0382957458,300
1630861370055296216,19,1630861370055296216,r200131356/base_footprint,0,1630861370055296470,alta/m1vW10zy74W/map,0.499763418413,5.14996073527,0.0,0.0,0.0,-0.0159180562238,0.999873299717,0,62.4324989319,12.9603061676,75.5590591431,95.7504196167,42.4636497498,42.4636497498,62.4324989319,62.4324989319,39.5239105225,-0.697094678879,0.0,0.0104542821646,1.71685194969,0.0071482216008,0.0033060607966,9.03128623962,0.410669952631,0.0420227050781,0.000438684975961,4.03982162476,0.0868714004755,7.51438522339,0.159750372171,21.9915924072,95.7924423218,46.5034713745,47.0382957458,300
1630861370155472037,20,1630861370155472037,r200131356/base_footprint,0,1630861370155472173,alta/m1vW10zy74W/map,0.55325133448,5.1452999228,0.0,0.0,0.0,-0.0256771340592,0.999670288038,0,62.1314353943,16.1041469574,76.2207870483,96.8139877319,42.5508918762,42.5508918762,62.1314353943,62.1314353943,49.7141418457,-1.05990481377,0.0,0.00991010479629,1.54544723034,0.000660720921587,0.00924938451499,6.11187934875,0.275111287832,-1.03903198242,-0.0108486814424,3.99361801147,0.0858021304011,-2.59337997437,-0.0550368838012,22.2160263062,95.7749557495,46.5445098877,47.1207618713,305
1630861370255889903,21,1630861370255889903,r200131356/base_footprint,0,1630861370255891902,alta/m1vW10zy74W/map,0.610543391905,5.14121968653,0.0,0.0,0.0,-0.0348117250297,0.999393888214,0,62.1007652283,18.032787323,76.1777191162,96.8812026978,42.5753097534,42.5753097534,62.1007652283,62.1007652283,50.7718734741,-1.55012917519,0.0,0.0101483613253,1.46133816242,0.00132686505094,0.0114752268419,3.59408760071,0.16618616879,-1.09256744385,-0.0114060239866,3.81175613403,0.0821728259325,-3.85205078125,-0.0820985808969,21.6268749237,95.7886352539,46.3870658875,46.9198226929,322
1630861370356307827,22,1630861370356307827,r200131356/base_footprint,0,1630861370356308846,alta/m1vW10zy74W/map,0.610543391905,5.14121968653,0.0,0.0,0.0,-0.0348117250297,0.999393888214,0,62.5945625305,18.627450943,77.6386489868,96.8812026978,42.6094474792,42.6094474792,62.5945625305,62.5945625305,42.252204895,-1.23667275906,0.0,0.00981715228409,1.30030286312,0.00438015162945,0.0141973039135,2.99942398071,0.138689666986,-1.09256744385,-0.0114060239866,3.7776184082,0.0814368873835,4.66761779785,0.0994807183743,21.6268749237,95.7886352539,46.3870658875,46.9198226929,322
1630861370455239673,23,1630861370455239673,r200131356/base_footprint,0,1630861370455239928,alta/m1vW10zy74W/map,0.66794308143,5.13598668563,0.0,0.0,0.0,-0.0402235884567,0.999190703986,0,61.9101829529,22.8543872833,77.7293701172,96.7070922852,42.6001396179,42.6001396179,61.9101829529,61.9101829529,53.8437271118,-1.08849799633,0.0,0.00926440674812,1.17343735695,0.0070396210067,0.0163040272892,-2.03593444824,-0.0977947041392,-1.03070068359,-0.0107727795839,3.18676757812,0.0695999711752,-6.52014160156,-0.137777850032,20.8184528351,95.6763916016,45.786907196,47.3235855103,291
1630861370755358195,24,1630861370755358195,r200131356/base_footprint,0,1630861370755358413,alta/m1vW10zy74W/map,0.76950330891,5.12606144524,0.0,0.0,0.0,-0.045980710184,0.99894232781,0,61.9679832458,24.509803772,80.2210235596,96.5350952148,42.6434593201,42.6434593201,61.9679832458,61.9679832458,52.6520271301,-0.991042375565,0.0,0.00469087297097,0.715996384621,0.0640058293939,0.0686967074871,-3.87791824341,-0.187957525253,-0.881492614746,-0.00921546667814,2.9393081665,0.0644828826189,-5.68737030029,-0.121098943055,20.6318855286,95.6536026001,45.5827674866,46.9646568298,333
1630861370855538262,25,1630861370855538262,r200131356/base_footprint,0,1630861370855538763,alta/m1vW10zy74W/map,0.76950330891,5.12606144524,0.0,0.0,0.0,-0.045980710184,0.99894232781,0,62.5142784119,19.9209098816,81.4062042236,96.5350952148,42.6345748901,42.6345748901,62.5142784119,62.5142784119,42.7227668762,-0.458179444075,0.0,0.0057166046463,0.531222581863,0.0870457813144,0.0813291743398,0.710975646973,0.034460041672,-0.881492614746,-0.00921546667814,2.94819259644,0.0646777898073,4.24188995361,0.0903209000826,20.6318855286,95.6536026001,45.5827674866,46.9646568298,333
1630861370955541944,26,1630861370955541944,r200131356/base_footprint,0,1630861370955542195,alta/m1vW10zy74W/map,0.76950330891,5.12606144524,0.0,0.0,0.0,-0.045980710184,0.99894232781,0,62.2690582275,17.849899292,81.1277389526,96.5350952148,42.6892204285,42.6892204285,62.2690582275,62.2690582275,47.726890564,-1.10810244083,0.0,0.00857943110168,0.440634250641,0.0989333987236,0.0903539732099,2.78198623657,0.13483916223,-0.881492614746,-0.00921546667814,2.89354705811,0.0634789690375,-0.762233734131,-0.0162299443036,20.6318855286,95.6536026001,45.5827674866,46.9646568298,333
1630861371055628201,27,1630861371055628201,r200131356/base_footprint,0,1630861371055628631,alta/m1vW10zy74W/map,0.797011107261,5.12337664564,0.0,0.0,0.0,-0.0104884565619,0.999944994627,0,62.7027397156,21.2362918854,81.8173217773,95.921913147,42.8118247986,42.8118247986,62.7027397156,62.7027397156,39.037322998,-1.82551085949,0.0,0.0186433456838,0.266294330359,0.111733905971,0.0930905640125,-0.604406356812,-0.029294770211,-0.268310546875,-0.00280502298847,2.77094268799,0.0607892610133,7.92733383179,0.168793603778,20.6318855286,95.6536026001,45.5827674866,46.9646568298,333
1630861371155461686,28,1630861371155461686,r200131356/base_footprint,0,1630861371155461897,alta/m1vW10zy74W/map,0.790722600215,5.12295363884,0.0,0.0,0.0,0.0180095087591,0.999837815645,0,61.8786506653,18.627450943,83.2013702393,95.5132827759,42.9231414795,42.9231414795,61.8786506653,61.8786506653,53.6020545959,-1.95063304901,0.0,0.0210092514753,0.146221876144,0.114238642156,0.0932293906808,2.00443458557,0.0971522703767,0.140319824219,0.00146695808508,2.65962600708,0.0583471804857,-6.63739776611,-0.141327500343,20.6318855286,95.6536026001,45.5827674866,46.9646568298,333
1630861371255392442,29,1630861371255392442,r200131356/base_footprint,0,1630861371255392638,alta/m1vW10zy74W/map,0.786451541576,5.12329516283,0.0,0.0,0.0,0.048853304171,0.998805964475,0,62.5800514221,16.6666660309,84.0648269653,95.5686645508,43.1833267212,43.1833267212,62.5800514221,62.5800514221,43.9861755371,-0.578940927982,0.0,0.0213120710105,0.0639737248421,0.112246736884,0.090934664011,3.96521949768,0.192188903689,0.0849380493164,0.000887975445949,2.39944076538,0.052639208734,2.97848129272,0.0634196326137,20.6318855286,95.6536026001,45.5827674866,46.9646568298,333
1630861371355248162,30,1630861371355248162,r200131356/base_footprint,0,1630861371355248326,alta/m1vW10zy74W/map,0.780069635698,5.12220914739,0.0,0.0,0.0,0.111990617882,0.993709264074,0,62.41847229,12.0118637085,84.5658493042,94.76512146,43.3036499023,43.3036499023,62.41847229,62.41847229,45.3013572693,1.89476394653,0.0,0.0214260108769,0.137767523527,0.111507587135,0.0900815799832,8.62002182007,0.417800962925,0.888481140137,0.0092885280028,2.27911758423,0.0499995425344,1.66329956055,0.0354159846902,20.6318855286,95.6536026001,45.5827674866,46.9646568298,333
1630861371455400098,31,1630861371455400098,r200131356/base_footprint,0,1630861371455400307,alta/m1vW10zy74W/map,0.777083370802,5.12178530426,0.0,0.0,0.0,0.112703359363,0.993628679532,0,62.0483627319,23.2303085327,84.4463195801,95.0745544434,43.5326080322,43.5326080322,62.0483627319,62.0483627319,55.5500030518,-0.642388820648,0.0,0.0240294728428,0.204537212849,0.112879864872,0.0888503864408,-2.59842300415,-0.125942096114,0.579048156738,0.00605359487236,2.05015945435,0.0449766330421,-8.58534622192,-0.182804405689,20.6318855286,95.6536026001,45.5827674866,46.9646568298,333
1630861371555324718,32,1630861371555324718,r200131356/base_footprint,0,1630861371555325445,alta/m1vW10zy74W/map,0.764913424304,5.11777959523,0.0,0.0,0.0,0.175395941115,0.984497975539,0,62.3796958923,28.6403083801,82.2506484985,94.935043335,43.8588562012,43.8588562012,62.3796958923,62.3796958923,52.6073150635,0.0447907485068,0.0,0.0219209063798,0.243726834655,0.110981799662,0.0890608951449,-8.12631416321,-0.396135151386,0.735443115234,0.00768725154921,1.77630233765,0.0389239862561,-5.44571304321,-0.11546920985,20.5139942169,95.6704864502,45.6351585388,47.1616020203,314
1630861371655271757,33,1630861371655271757,r200131356/base_footprint,0,1630861371655271988,alta/m1vW10zy74W/map,0.765713479855,5.11841435921,0.0,0.0,0.0,0.206900680904,0.97836195155,0,62.6776351929,27.8299560547,78.9212493896,95.3951034546,43.9914588928,43.9914588928,62.6776351929,62.6776351929,50.3327293396,-0.768971443176,0.0,0.023309238255,0.260466843843,0.11097112298,0.0876618847251,-7.19807052612,-0.348880887032,0.258499145508,0.00270245061256,1.59130859375,0.0349103100598,-3.36807250977,-0.071715041995,20.6318855286,95.6536026001,45.5827674866,46.9646568298,333
1630861371755642207,34,1630861371755642207,r200131356/base_footprint,0,1630861371755642612,alta/m1vW10zy74W/map,0.761892032276,5.11622872693,0.0,0.0,0.0,0.269183818182,0.963088818349,0,62.1569862366,25.8526935577,77.1961364746,94.2183227539,44.1116409302,44.1116409302,62.1569862366,62.1569862366,56.7659187317,-0.72557258606,0.0,0.0238900221884,0.248275190592,0.110492765903,0.0866027399898,-5.33869934082,-0.260246694088,1.45216369629,0.0151788052171,1.52351760864,0.0333847329021,-9.60431671143,-0.203646957874,20.5139942169,95.6704864502,45.6351585388,47.1616020203,314
1630861371855620015,35,1630861371855620015,r200131356/base_footprint,0,1630861371855620383,alta/m1vW10zy74W/map,0.758909304097,5.11561598754,0.0,0.0,0.0,0.300010362141,0.953935942612,0,62.59815979,25.490196228,75.0533752441,94.3405456543,44.3179740906,44.3179740906,62.59815979,62.59815979,51.4932174683,-0.902212560177,0.0,0.0262702554464,0.221702709794,0.106905035675,0.0806347876787,-4.97620201111,-0.242575973272,1.3299407959,0.0139012653381,1.31718444824,0.0288633704185,-4.331615448,-0.0918462350965,20.5139942169,95.6704864502,45.6351585388,47.1616020203,314
1630861371955881482,36,1630861371955881482,r200131356/base_footprint,0,1630861371955882945,alta/m1vW10zy74W/map,0.766175016225,5.11494092622,0.0,0.0,0.0,0.33088168261,0.943672248248,0,63.0219993591,20.2722415924,71.8121643066,94.8160324097,44.4655151367,44.4655151367,63.0219993591,63.0219993591,47.1692695618,-0.749442994595,0.0,0.0247960090637,0.196997836232,0.105933301151,0.0811372920871,0.359643936157,0.0174314621836,0.83757019043,0.00875628460199,1.11725234985,0.0245104115456,-0.204612731934,-0.00435673864558,20.6318855286,95.6536026001,45.5827674866,46.9646568298,333
1630861372055279369,37,1630861372055279369,r200131356/base_footprint,0,1630861372055279552,alta/m1vW10zy74W/map,0.770165621371,5.11762064286,0.0,0.0,0.0,0.360411680596,0.932793342863,0,63.090297699,24.7830276489,66.1951141357,95.5874557495,44.5869979858,44.5869979858,63.090297699,63.090297699,50.0290641785,-0.268825620413,0.0,0.024301096797,0.17912940681,0.104119963944,0.079818867147,-4.15114212036,-0.201200321317,0.0661468505859,0.000691524939612,0.995769500732,0.0218453053385,-3.06440734863,-0.0652492195368,20.6318855286,95.6536026001,45.5827674866,46.9646568298,333
1630861372155321176,38,1630861372155321176,r200131356/base_footprint,0,1630861372155321432,alta/m1vW10zy74W/map,0.769035928631,5.11745893521,0.0,0.0,0.0,0.389432904985,0.921054836867,0,63.455532074,23.8187084198,61.3586807251,95.5427474976,44.5143623352,44.5143623352,63.455532074,63.455532074,42.5094413757,-0.77014452219,0.0,0.026180582121,0.16276705265,0.105487920344,0.0793073400855,-3.18682289124,-0.154461055994,0.110855102539,0.00115892244503,1.06840515137,0.0234387945384,4.4552154541,0.0948631539941,20.6318855286,95.6536026001,45.5827674866,46.9646568298,333
1630861372255213615,39,1630861372255213615,r200131356/base_footprint,0,1630861372255213803,alta/m1vW10zy74W/map,0.768061750541,5.11832976596,0.0,0.0,0.0,0.418999164853,0.907986618763,0,63.8511314392,22.8868026733,56.7965393066,95.9831848145,44.5251121521,44.5251121521,63.8511314392,63.8511314392,37.0903320312,-0.945577681065,0.0,0.0281971786171,0.143930017948,0.106098711491,0.0779015347362,-2.25491714478,-0.109292827547,-0.329582214355,-0.00344558083452,1.05765533447,0.023202965036,9.87432479858,0.210250124335,20.6318855286,95.6536026001,45.5827674866,46.9646568298,333
1630861372355528357,40,1630861372355528357,r200131356/base_footprint,0,1630861372355528615,alta/m1vW10zy74W/map,0.769669143991,5.11839870546,0.0,0.0,0.0,0.475896054603,0.87950153224,0,63.4912567139,26.7116680145,52.9673423767,96.0961456299,44.5807991028,44.5807991028,63.4912567139,63.4912567139,44.5761413574,-0.745076239109,0.0,0.0270177405328,0.137081116438,0.103178434074,0.0761606916785,-6.07978248596,-0.29467895627,-0.442543029785,-0.00462651718408,1.00196838379,0.0219812970608,2.38851547241,0.0508577227592,20.6318855286,95.6536026001,45.5827674866,46.9646568298,333
1630861372455424606,41,1630861372455424606,r200131356/base_footprint,0,1630861372455424785,alta/m1vW10zy74W/map,0.769506861521,5.11802815493,0.0,0.0,0.0,0.475725233245,0.879593941802,0,63.3381462097,20.2722415924,49.277633667,96.0902404785,44.7789154053,44.7789154053,63.3381462097,63.3381462097,49.4505386353,-1.01287066936,0.0,0.0268981903791,0.133004516363,0.108067087829,0.08116889745,0.359643936157,0.0174314621836,-0.436637878418,-0.00456478213891,0.803852081299,0.017634999007,-2.48588180542,-0.052930906415,20.6318855286,95.6536026001,45.5827674866,46.9646568298,333
1630861372556043948,42,1630861372556043948,r200131356/base_footprint,0,1630861372556044376,alta/m1vW10zy74W/map,0.77101330928,5.1156051065,0.0,0.0,0.0,0.504500865719,0.863411186219,0,63.573184967,19.6556663513,47.6748161316,96.6377563477,44.9676895142,44.9676895142,63.573184967,63.573184967,49.2296600342,-1.40308117867,0.0,0.0277420002967,0.127423480153,0.118450909853,0.0907089114189,0.976219177246,0.047316044569,-0.984153747559,-0.0102887265384,0.615077972412,0.0134936515242,-2.26500320435,-0.0482278242707,20.6318855286,95.6536026001,45.5827674866,46.9646568298,333
1630861372655731154,43,1630861372655731154,r200131356/base_footprint,0,1630861372655731424,alta/m1vW10zy74W/map,0.776450758272,5.11539467451,0.0,0.0,0.0,0.557598403426,0.830110848319,0,63.8104476929,18.3276615143,47.6006278992,96.6971282959,44.7700958252,44.7700958252,63.8104476929,63.8104476929,43.0386772156,-0.882157742977,0.0,0.0304420795292,0.121757015586,0.125691995025,0.0952499136329,2.30422401428,0.111682668328,-1.0435256958,-0.0109094241634,0.812671661377,0.0178284849972,3.92597961426,0.0835943445563,20.6318855286,95.6536026001,45.5827674866,46.9646568298,333
1630861372756061076,44,1630861372756061076,r200131356/base_footprint,0,1630861372756061722,alta/m1vW10zy74W/map,0.77580243666,5.11439550518,0.0,0.0,0.0,0.58184595,0.81329901664,0,63.931968689,22.5251083374,47.5763626099,97.1326904297,44.6369895935,44.6369895935,63.931968689,63.931968689,40.9817466736,-1.22297585011,0.0,0.0314543098211,0.120839565992,0.122748970985,0.0912946611643,-1.89322280884,-0.0917619839311,-1.47908782959,-0.0154629601166,0.945777893066,0.0207485835999,5.98291015625,0.127391755581,20.6318855286,95.6536026001,45.5827674866,46.9646568298,333
1630861372855576786,45,1630861372855576786,r200131356/base_footprint,0,1630861372855576954,alta/m1vW10zy74W/map,0.77580243666,5.11439550518,0.0,0.0,0.0,0.58184595,0.81329901664,0,63.6337738037,18.4060726166,47.4743232727,97.1326904297,44.5240974426,44.5240974426,63.6337738037,63.6337738037,45.1299858093,-0.995168685913,0.0,0.0308092944324,0.120532676578,0.113953284919,0.0831439867616,2.22581291199,0.10788218677,-1.47908782959,-0.0154629601166,1.05867004395,0.0232252255082,1.83467102051,0.0390649288893,20.6318855286,95.6536026001,45.5827674866,46.9646568298,333
1630861372955481044,46,1630861372955481044,r200131356/base_footprint,0,1630861372955481566,alta/m1vW10zy74W/map,0.777642186229,5.11585350132,0.0,0.0,0.0,0.623868484836,0.781529342782,0,63.6832771301,20.6121463776,47.3762893677,97.0866699219,44.4489212036,44.4489212036,63.6832771301,63.6832771301,43.2613525391,-1.39761519432,0.0,0.0270494204015,0.117542773485,0.103780686855,0.0767312645912,0.019739151001,0.00095673033502,-1.43306732178,-0.0149818435311,1.13384628296,0.0248744506389,3.70330429077,0.0788530036807,20.6318855286,95.6536026001,45.5827674866,46.9646568298,333
1630861373055598691,47,1630861373055598691,r200131356/base_footprint,0,1630861373055598989,alta/m1vW10zy74W/map,0.779320157354,5.11590332472,0.0,0.0,0.0,0.632710685673,0.774388267108,0,63.9621124268,15.8297462463,47.3756713867,97.3606109619,44.2747612,44.2747612,63.9621124268,63.9621124268,37.3476104736,-1.08551645279,0.0,0.0257542841136,0.116397872567,0.0986724942923,0.0729182064533,4.80213928223,0.232753291726,-1.70700836182,-0.0178457293659,1.30800628662,0.028695192188,9.6170463562,0.204771995544,20.6318855286,95.6536026001,45.5827674866,46.9646568298,333
1630861373155551062,48,1630861373155551062,r200131356/base_footprint,0,1630861373155551225,alta/m1vW10zy74W/map,0.781236379926,5.11852553825,0.0,0.0,0.0,0.658401807191,0.752666632904,0,63.7476387024,16.1041469574,47.3464241028,96.8729400635,44.1530227661,44.1530227661,63.7476387024,63.7476387024,38.1377258301,-0.848462462425,0.0,0.0240090992302,0.11420365423,0.0887647196651,0.0647556185722,4.52773857117,0.219453454018,-1.21933746338,-0.01274742838,1.42974472046,0.0313659049571,8.82693099976,0.18794837594,20.6318855286,95.6536026001,45.5827674866,46.9646568298,333
1630861374455388788,49,1630861374455388788,r200131356/base_footprint,0,1630861374455388978,alta/m1vW10zy74W/map,0.782438796087,5.12059283878,0.0,0.0,0.0,0.680531644114,0.732718691832,0,63.7027244568,17.0684661865,47.3481178284,96.6724090576,44.0573921204,44.0573921204,63.7027244568,63.7027244568,37.1914405823,-0.596834003925,0.0,0.0244515109807,0.00080931285629,0.0713509321213,0.0468994230032,3.56341934204,0.172714188695,-1.01880645752,-0.0106509989128,1.52537536621,0.0334638617933,9.77321624756,0.208097249269,20.6318855286,95.6536026001,45.5827674866,46.9646568298,333
1630861374555428125,50,1630861374555428125,r200131356/base_footprint,0,1630861374555428310,alta/m1vW10zy74W/map,0.782438796087,5.12059283878,0.0,0.0,0.0,0.680531644114,0.732718691832,0,63.2106056213,16.3830814362,47.4083747864,96.6724090576,43.868183136,43.868183136,63.2106056213,63.2106056213,44.0061302185,-1.00400233269,0.0,0.024270715192,0.0246501062065,0.12775722146,0.103486508131,4.24880409241,0.205933868885,-1.01880645752,-0.0106509989128,1.71458435059,0.0376147478819,2.95852661133,0.062994748354,20.6318855286,95.6536026001,45.5827674866,46.9646568298,333
1630861374655478039,51,1630861374655478039,r200131356/base_footprint,0,1630861374655478227,alta/m1vW10zy74W/map,0.782438796087,5.12059283878,0.0,0.0,0.0,0.680531644114,0.732718691832,0,63.1076316833,17.7427062988,47.522228241,96.6724090576,43.7561607361,43.7561607361,63.1076316833,63.1076316833,44.6498374939,-0.994384050369,0.0,0.0425491407514,0.0607597306371,0.20813319087,0.165584042668,2.88917922974,0.140034660697,-1.01880645752,-0.0106509989128,1.82660675049,0.0400723107159,2.31481933594,0.0492885410786,20.6318855286,95.6536026001,45.5827674866,46.9646568298,333
1630861374755581029,52,1630861374755581029,r200131356/base_footprint,0,1630861374755581629,alta/m1vW10zy74W/map,0.782438796087,5.12059283878,0.0,0.0,0.0,0.680531644114,0.732718691832,0,62.8881187439,10.0908660889,47.6396179199,96.6724090576,43.5317649841,43.5317649841,62.8881187439,62.8881187439,46.1775856018,-0.437161237001,0.0,0.0543878152966,0.0771898850799,0.214410349727,0.160022541881,10.5410194397,0.51090914011,-1.01880645752,-0.0106509989128,2.05100250244,0.0449951291084,0.787071228027,0.0167587995529,20.6318855286,95.6536026001,45.5827674866,46.9646568298,333
1630861374855338652,53,1630861374855338652,r200131356/base_footprint,0,1630861374855338841,alta/m1vW10zy74W/map,0.787982868967,5.16272375597,0.0,0.0,0.0,0.654102133199,0.756406239626,0,62.1073646545,9.86717224121,47.7242202759,95.3697280884,43.2350387573,43.2350387573,62.1073646545,62.1073646545,52.336856842,-0.391539335251,0.0,0.050260618329,0.0837007984519,0.198596119881,0.148335501552,11.0101261139,0.52737313509,0.281814575195,0.00294626271352,2.14877319336,0.047346688807,-5.8519821167,-0.125890031457,20.8772983551,95.6515426636,45.3838119507,46.4848747253,393
1630861374955507689,54,1630861374955507689,r200131356/base_footprint,0,1630861374955507884,alta/m1vW10zy74W/map,0.795042600224,5.20127528083,0.0,0.0,0.0,0.625716541162,0.780050517669,0,62.1845855713,5.88235282898,47.8117027283,95.5398864746,42.9547348022,42.9547348022,62.1845855713,62.1845855713,48.5321464539,-0.474130183458,0.0,0.0469411984086,0.0882556736469,0.171246573329,0.12430536747,15.2756233215,0.721979439259,0.0586547851562,0.000613553158473,2.39337158203,0.0527777634561,-2.35225296021,-0.0509367324412,21.1579761505,95.5985412598,45.3481063843,46.1798934937,409
1630861375055411444,55,1630861375055411444,r200131356/base_footprint,0,1630861375055411661,alta/m1vW10zy74W/map,0.810070702211,5.26146548689,0.0,0.0,0.0,0.602272318215,0.798290708146,0,62.0024337769,8.91840648651,47.9506568909,95.1499481201,42.7761993408,42.7761993408,62.0024337769,62.0024337769,48.478969574,-0.50572258234,0.0,0.0350870750844,0.0906711891294,0.133784785867,0.098697707057,12.1569795609,0.576833069324,0.363166809082,0.00380227155983,2.51818466187,0.0555959567428,-2.36558914185,-0.0512994080782,21.0753860474,95.5131149292,45.2943840027,46.1133804321,410
1630861375155675472,56,1630861375155675472,r200131356/base_footprint,0,1630861375155675691,alta/m1vW10zy74W/map,0.810070702211,5.26146548689,0.0,0.0,0.0,0.602272318215,0.798290708146,0,61.9898719788,9.86717224121,48.4921302795,95.1499481201,42.6316413879,42.6316413879,61.9898719788,61.9898719788,47.1438407898,-0.884395062923,0.0,0.0304910559207,0.0907851979136,0.122641503811,0.0921504423022,11.2082138062,0.531815350056,0.363166809082,0.00380227155983,2.66274261475,0.0587874799967,-1.03046035767,-0.0223462339491,21.0753860474,95.5131149292,45.2943840027,46.1133804321,410
1630861375255298020,57,1630861375255298020,r200131356/base_footprint,0,1630861375255298359,alta/m1vW10zy74W/map,0.829863067652,5.32397905126,0.0,0.0,0.0,0.598402164646,0.801195887001,0,62.3732299805,14.6110057831,52.0860824585,95.2219696045,42.6668663025,42.6668663025,62.3732299805,62.3732299805,40.8831367493,-0.769356131554,0.0,0.0203240867704,0.0897639617324,0.100593425333,0.080269344151,6.24872398376,0.29955920577,0.279983520508,0.0029317047447,2.53346252441,0.0560496486723,5.31631469727,0.115073114634,20.8597297668,95.501953125,45.2003288269,46.1994514465,402
1630861375355319417,58,1630861375355319417,r200131356/base_footprint,0,1630861375355319561,alta/m1vW10zy74W/map,0.847486298665,5.39186924639,0.0,0.0,0.0,0.604490788849,0.796612130335,0,62.4122886658,20.9411773682,53.2341346741,95.0165405273,42.7329788208,42.7329788208,62.4122886658,62.4122886658,40.1545639038,-0.920217990875,0.0,0.017088489607,0.0893921256065,0.0877564325929,0.0706679448485,0.0575656890869,0.00274138734676,0.486381530762,0.00509284436703,2.43323516846,0.0538729056716,5.81340026855,0.126466348767,20.9987430573,95.5029220581,45.1662139893,45.9679641724,377
1630861375455314060,59,1630861375455314060,r200131356/base_footprint,0,1630861375455314231,alta/m1vW10zy74W/map,0.868054136319,5.46138335234,0.0,0.0,0.0,0.61937292029,0.785096927527,0,62.2800865173,18.117647171,53.8698043823,95.5949020386,42.7900810242,42.7900810242,62.2800865173,62.2800865173,45.2329673767,-0.868615865707,0.0,0.0103781931102,0.0903521850705,0.0716860741377,0.0613078810275,2.57959938049,0.12463490665,-0.135818481445,-0.00142279267311,2.22884368896,0.049509037286,0.694816589355,0.0151284588501,20.6972465515,95.4590835571,45.0189247131,45.9277839661,349
1630861375555393882,60,1630861375555393882,r200131356/base_footprint,0,1630861375555394108,alta/m1vW10zy74W/map,0.868054136319,5.46138335234,0.0,0.0,0.0,0.61937292029,0.785096927527,0,62.7094535828,19.354839325,52.5019836426,95.5949020386,42.9304275513,42.9304275513,62.7094535828,62.7094535828,39.020072937,-0.875467777252,0.0,0.00495364004746,0.0915809124708,0.0328459665179,0.0278923269361,1.34240722656,0.0648592188954,-0.135818481445,-0.00142279267311,2.08849716187,0.0463915392756,6.90771102905,0.150403752923,20.6972465515,95.4590835571,45.0189247131,45.9277839661,349
1630861375655614199,61,1630861375655614199,r200131356/base_footprint,0,1630861375655614373,alta/m1vW10zy74W/map,0.883361072077,5.52265082869,0.0,0.0,0.0,0.639935901688,0.768428293161,0,62.7739372253,19.7012138367,47.9954376221,95.8656234741,42.9469070435,42.9469070435,62.7739372253,62.7739372253,39.0120162964,-1.04910469055,0.0,0.00746074598283,0.0917137116194,0.0310774594545,0.0385382063687,0.599782943726,0.029544506222,-0.45726776123,-0.00479274336249,1.87400054932,0.0418108552694,6.74771118164,0.147459596395,20.3009967804,95.4083557129,44.8209075928,45.759727478,314
1630861375755890555,62,1630861375755890555,r200131356/base_footprint,0,1630861375755890892,alta/m1vW10zy74W/map,0.896235248074,5.59272302669,0.0,0.0,0.0,0.660634621168,0.750707597746,0,62.5775184631,19.7012138367,47.7327194214,95.6972045898,42.9966621399,42.9966621399,62.5775184631,62.5775184631,42.4785346985,-1.18360459805,0.0,0.00637696962804,0.0899650976062,0.0294283665717,0.035805337131,0.694122314453,0.0340333841741,-0.33797454834,-0.00354422489181,1.43640136719,0.0323273092508,2.54262924194,0.0564763098955,20.3953361511,95.3592300415,44.4330635071,45.0211639404,230
1630861375856099746,63,1630861375856099746,r200131356/base_footprint,0,1630861375856101167,alta/m1vW10zy74W/map,0.902480027428,5.65456349045,0.0,0.0,0.0,0.684680855195,0.728843005406,0,62.5194206238,21.2523727417,47.4881210327,95.2030181885,43.0445785522,43.0445785522,62.5194206238,62.5194206238,42.2627677917,-0.512559592724,0.0,0.00960842240602,0.0907332673669,0.0375577546656,0.0471661761403,-0.29779624939,-0.0142115140334,-0.011116027832,-0.000116774928756,1.39353942871,0.031359102577,2.43476104736,0.0544719398022,20.9545764923,95.1919021606,44.438117981,44.6975288391,210
1630861375956195972,64,1630861375956195972,r200131356/base_footprint,0,1630861375956197312,alta/m1vW10zy74W/map,0.902480027428,5.65456349045,0.0,0.0,0.0,0.684680855195,0.728843005406,0,62.3486175537,19.6556663513,47.2794265747,95.2030181885,43.1555671692,43.1555671692,62.3486175537,62.3486175537,46.5358810425,-1.032076478,0.0,0.00804225169122,0.0921121612191,0.0504724271595,0.0585146807134,1.29891014099,0.0619869418442,-0.011116027832,-0.000116774928756,1.28255081177,0.0288615021855,-1.83835220337,-0.0411287210882,20.9545764923,95.1919021606,44.438117981,44.6975288391,210
1630861376055284659,65,1630861376055284659,r200131356/base_footprint,0,1630861376055284818,alta/m1vW10zy74W/map,0.903075784466,5.71119709111,0.0,0.0,0.0,0.704223911893,0.70997794467,0,62.4772033691,17.4573059082,47.2018203735,95.4777755737,43.1045265198,43.1045265198,62.4772033691,62.4772033691,44.6592597961,-1.15835773945,0.0,0.00408152583987,0.0905791223049,0.0584707185626,0.0625522434711,3.55631446838,0.16923853755,-0.365051269531,-0.00383809069172,1.34840774536,0.0303333792835,-0.0776062011719,-0.00174076540861,21.0136203766,95.1127243042,44.4529342651,44.581653595,211
1630861376155392378,66,1630861376155392378,r200131356/base_footprint,0,1630861376155392583,alta/m1vW10zy74W/map,0.903902137716,5.78414478857,0.0,0.0,0.0,0.715626432698,0.698483220145,0,62.4858436584,20.9411773682,47.2270927429,94.982963562,43.0868721008,43.0868721008,62.4858436584,62.4858436584,42.5316848755,-1.14071452618,0.0,0.00386172765866,0.0909677147865,0.0606176033616,0.064479328692,0.521577835083,0.024301532656,0.0205612182617,0.000216425847611,1.40693664551,0.031620953232,1.75563430786,0.0396419204772,21.4627552032,95.0035247803,44.4938087463,44.2873191833,212
1630861376255358201,67,1630861376255358201,r200131356/base_footprint,0,1630861376255358490,alta/m1vW10zy74W/map,0.901738675202,5.84915471714,0.0,0.0,0.0,0.722716367078,0.691144740816,0,62.3669700623,22.8543872833,47.2441520691,94.9128417969,43.2208099365,43.2208099365,62.3669700623,62.3669700623,45.8655128479,-1.27616274357,0.0,0.000908294925466,0.0917788818479,0.0694218948483,0.0703301951289,-0.847595214844,-0.0385151654482,-0.0557708740234,-0.000587946386077,1.30619812012,0.029334962368,-1.96027755737,-0.044647924602,22.0067920685,94.8570709229,44.5270080566,43.9052352905,208
1630861376355331559,68,1630861376355331559,r200131356/base_footprint,0,1630861376355331772,alta/m1vW10zy74W/map,0.896702493227,5.9071928272,0.0,0.0,0.0,0.723001874318,0.690846068045,0,62.358745575,26.3510284424,47.3217163086,93.7694778442,43.3279953003,43.3279953003,62.358745575,62.358745575,43.0550689697,-1.21164298058,0.0,0.010562104173,0.0916586369276,0.0972434580326,0.0866813510656,-4.06741142273,-0.182529225945,1.04150390625,0.0109850559384,1.23486328125,0.0277105942369,0.846603393555,0.019284080714,22.2836170197,94.8109817505,44.5628585815,43.9016723633,206
1630861376455405361,69,1630861376455405361,r200131356/base_footprint,0,1630861376455405540,alta/m1vW10zy74W/map,0.896702493227,5.9071928272,0.0,0.0,0.0,0.723001874318,0.690846068045,0,62.4340820312,19.9614276886,47.493724823,93.7694778442,43.3410987854,43.3410987854,62.4340820312,62.4340820312,41.8405303955,-1.37656891346,0.0,0.0118100363761,0.0911416560411,0.0980995818973,0.0862895473838,2.32218933105,0.104210607708,1.04150390625,0.0109850559384,1.22175979614,0.027416549623,2.06114196777,0.0469490550458,22.2836170197,94.8109817505,44.5628585815,43.9016723633,206
1630861376555817169,70,1630861376555817169,r200131356/base_footprint,0,1630861376555817449,alta/m1vW10zy74W/map,0.892266706737,5.96678128566,0.0,0.0,0.0,0.713422983459,0.700733648879,0,62.091091156,20.6121463776,47.7024230957,93.6403503418,43.3053627014,43.3053627014,62.091091156,62.091091156,47.1635398865,-1.18652582169,0.0,0.011504240334,0.0913769900799,0.0971508920193,0.0856466516852,1.83784103394,0.0818637907505,1.10956573486,0.011710466817,1.25848388672,0.0282400194556,-3.38536834717,-0.0773300528526,22.4499874115,94.7499160767,44.5638465881,43.7781715393,203
1630861376655617379,71,1630861376655617379,r200131356/base_footprint,0,1630861376655618035,alta/m1vW10zy74W/map,0.893329806434,6.03271538722,0.0,0.0,0.0,0.702289022878,0.711891935861,0,62.1926689148,24.7058830261,49.1303787231,92.9452819824,43.5324249268,43.5324249268,62.1926689148,62.1926689148,45.2851905823,-1.15796291828,0.0,0.0130235711113,0.0680265277624,0.0345880128443,0.0215644426644,-1.97813034058,-0.0870358943939,1.75798797607,0.0185631178319,0.997455596924,0.0223996918648,-1.58654022217,-0.0363063886762,22.7277526855,94.7032699585,44.5298805237,43.6986503601,200
1630861376756570245,72,1630861376756570245,r200131356/base_footprint,0,1630861376756572076,alta/m1vW10zy74W/map,0.893329806434,6.03271538722,0.0,0.0,0.0,0.702289022878,0.711891935861,0,62.4877204895,25.6470584869,55.7360038757,92.9452819824,43.6135826111,43.6135826111,62.4877204895,62.4877204895,40.8507080078,-2.52726531029,0.0,0.00812856294215,0.0436891950667,0.0378333292902,0.0459618940949,-2.91930580139,-0.128446742892,1.75798797607,0.0185631178319,0.916297912598,0.020577147603,2.84794235229,0.0651723146439,22.7277526855,94.7032699585,44.5298805237,43.6986503601,200
1630861376855880183,73,1630861376855880183,r200131356/base_footprint,0,1630861376855880738,alta/m1vW10zy74W/map,0.894263194639,6.09690943522,0.0,0.0,0.0,0.693209953345,0.72073570786,0,62.6366729736,24.0986709595,62.5914802551,93.1431884766,43.8957748413,43.8957748413,62.6366729736,62.6366729736,41.9297180176,-1.93828856945,0.0,0.0186782516539,0.0238070897758,0.0700665488839,0.05138829723,0.37459564209,0.0153063200414,0.919990539551,0.00978055968881,0.973907470703,0.0217052455992,1.32843780518,0.0307095348835,24.4732666016,94.0631790161,44.869682312,43.2581558228,148
1630861376955482043,74,1630861376955482043,r200131356/base_footprint,0,1630861376955482213,alta/m1vW10zy74W/map,0.895338481417,6.15797677247,0.0,0.0,0.0,0.688955855352,0.724803303922,0,62.4339637756,21.882352829,68.5774230957,92.3017501831,44.024597168,44.024597168,62.4339637756,62.4339637756,43.940612793,-1.96158671379,0.0,0.0184256248176,0.0123198702931,0.0705544054508,0.0521287769079,3.5314617157,0.138958349824,0.956611633301,0.0102576501667,0.810031890869,0.0180671028793,-1.28325653076,-0.0300828889012,25.4138145447,93.2583618164,44.8346290588,42.6573562622,94
1630861377055479792,75,1630861377055479792,r200131356/base_footprint,0,1630861377055480073,alta/m1vW10zy74W/map,0.895338481417,6.15797677247,0.0,0.0,0.0,0.688955855352,0.724803303922,0,62.8553657532,25.3945484161,75.0310668945,92.3017501831,44.2538452148,44.2538452148,62.8553657532,62.8553657532,38.8312530518,-2.89131259918,0.0,0.0170000456274,0.00603128131479,0.0655668452382,0.0485667996109,0.01926612854,0.000758096692152,0.956611633301,0.0102576501667,0.580783843994,0.012953911908,3.82610321045,0.0896938666701,25.4138145447,93.2583618164,44.8346290588,42.6573562622,94
1630861381255522992,76,1630861381255522992,r200131356/base_footprint,0,1630861381255523273,alta/m1vW10zy74W/map,0.901686524628,7.4230894722,0.0,0.0,0.0,0.707158834729,0.707054723812,0,63.4361343384,21.875,77.1470718384,95.4524612427,44.4112701416,44.4112701416,63.4361343384,63.4361343384,41.4201469421,-2.71506071091,0.0,0.00189229939133,0.00684662442654,0.00384536851197,0.0057376679033,-8.60623931885,-0.648609101772,-0.702087402344,-0.00740986410528,-3.07091140747,-0.0742836147547,-0.35079574585,-0.00854154583067,13.2687606812,94.7503738403,41.3403587341,41.0693511963,38
1630861385255235890,77,1630861385255235890,r200131356/base_footprint,0,1630861385255236036,alta/m1vW10zy74W/map,0.910439061742,7.60216167788,0.0,0.0,0.0,0.705411769351,0.708797739599,0,63.1519546509,12.745098114,78.2043380737,95.7093582153,43.8809776306,43.8809776306,63.1519546509,63.1519546509,41.7330818176,-2.51707839966,0.0,6.05514242125e-06,0.0450129881501,6.03318540016e-06,2.19568612181e-08,-1.46078491211,-0.129452705383,-0.694053649902,-0.00730465119705,-2.40079879761,-0.0578782185912,-0.652877807617,-0.0158927589655,11.2843132019,95.0153045654,41.480178833,41.08020401,26
1630861385356110259,78,1630861385356110259,r200131356/base_footprint,0,1630861385356111411,alta/m1vW10zy74W/map,0.910439061742,7.60216167788,0.0,0.0,0.0,0.705411769351,0.708797739599,0,63.6066551208,19.1815853119,75.8387145996,95.7093582153,43.4259223938,43.4259223938,63.6066551208,63.6066551208,28.633852005,-2.63001847267,0.0,0.00125401490368,0.0738065615296,0.00276921782643,0.00402323249727,-7.89727210999,-0.699845194817,-0.694053649902,-0.00730465119705,-1.94574356079,-0.0469077900052,12.446352005,0.302976876497,11.2843132019,95.0153045654,41.480178833,41.08020401,26
1630861385456581207,79,1630861385456581207,r200131356/base_footprint,0,1630861385456581607,alta/m1vW10zy74W/map,0.910439061742,7.60216167788,0.0,0.0,0.0,0.705411769351,0.708797739599,0,63.3879165649,17.1355495453,72.8718795776,95.7093582153,43.0572433472,43.0572433472,63.3879165649,63.3879165649,28.5894012451,-2.93968605995,0.0,0.000837093568407,0.107005015016,0.00131070078351,0.0021477942355,-5.85123634338,-0.518528342247,-0.694053649902,-0.00730465119705,-1.57706451416,-0.0380197130144,12.4908027649,0.304058939219,11.2843132019,95.0153045654,41.480178833,41.08020401,26
1630861385555915244,80,1630861385555915244,r200131356/base_footprint,0,1630861385555916449,alta/m1vW10zy74W/map,0.910439061742,7.60216167788,0.0,0.0,0.0,0.705411769351,0.708797739599,0,63.1767234802,19.1815853119,69.482460022,95.7093582153,42.6715202332,42.6715202332,63.1767234802,63.1767234802,28.2250881195,-3.03694176674,0.0,0.000607613590546,0.125256672502,0.00183119473513,0.00243880832568,-7.89727210999,-0.699845194817,-0.694053649902,-0.00730465119705,-1.19134140015,-0.0287207383662,12.8551158905,0.312927275896,11.2843132019,95.0153045654,41.480178833,41.08020401,26
1630861385655435374,81,1630861385655435374,r200131356/base_footprint,0,1630861385655435633,alta/m1vW10zy74W/map,0.913088835857,7.55192756043,0.0,0.0,0.0,0.705095720873,0.709112138104,0,62.9091110229,11.764705658,65.9856033325,95.2458267212,42.2129898071,42.2129898071,62.9091110229,62.9091110229,26.4212646484,-3.11034464836,0.0,0.000894628989045,0.128183662891,0.00193230935838,0.00282693840563,-0.0872640609741,-0.00747287506238,-0.36727142334,-0.00387096358463,-0.87975692749,-0.0212844926864,14.7450408936,0.358182281256,11.677441597,94.8785552979,41.3332328796,41.166305542,31
1630861385755561431,82,1630861385755561431,r200131356/base_footprint,0,1630861385755561662,alta/m1vW10zy74W/map,0.913088835857,7.55192756043,0.0,0.0,0.0,0.705095720873,0.709112138104,0,62.527507782,16.9550170898,63.0981941223,95.2458267212,41.8891677856,41.8891677856,62.527507782,62.527507782,29.7928562164,-2.86290001869,0.0,0.0013278281549,0.129498437047,0.00172815320548,0.00305598136038,-5.27757549286,-0.45194619894,-0.36727142334,-0.00387096358463,-0.555934906006,-0.0134500702843,11.3734493256,0.276280552149,11.677441597,94.8785552979,41.3332328796,41.166305542,31
1630861385855241611,83,1630861385855241611,r200131356/base_footprint,0,1630861385855241816,alta/m1vW10zy74W/map,0.910248611809,7.48308113407,0.0,0.0,0.0,0.704937834428,0.709269095332,0,62.1601638794,13.9891252518,59.0905685425,95.3195571899,41.5498313904,41.5498313904,62.1601638794,62.1601638794,33.0056381226,-2.56596970558,0.0,0.00111247727182,0.130813971162,0.00389707577415,0.00500955292955,-1.45242500305,-0.115853853524,-0.495254516602,-0.00522286491469,-0.160755157471,-0.00388399953954,8.18762969971,0.198761358857,12.5367002487,94.8243026733,41.3890762329,41.1932678223,34
1630861385955313061,84,1630861385955313061,r200131356/base_footprint,0,1630861385955313297,alta/m1vW10zy74W/map,0.90848846495,7.41331348243,0.0,0.0,0.0,0.704920754319,0.709286070729,0,61.9861106873,14.4385023117,54.407207489,94.8677597046,41.1774940491,41.1774940491,61.9861106873,61.9861106873,30.490896225,-3.02309322357,0.0,0.00168527674396,0.131638005376,0.00395928695798,0.00564456358552,-1.16974163055,-0.0881575644016,-0.117385864258,-0.00123889604583,0.162864685059,0.00393960485235,10.5784549713,0.257575422525,13.2687606812,94.7503738403,41.3403587341,41.0693511963,38
1630861386055478213,85,1630861386055478213,r200131356/base_footprint,0,1630861386055478439,alta/m1vW10zy74W/map,0.90848846495,7.41331348243,0.0,0.0,0.0,0.704920754319,0.709286070729,0,61.6590309143,10.3182258606,51.7094154358,94.8677597046,40.9048271179,40.9048271179,61.6590309143,61.6590309143,33.4334907532,-2.52626895905,0.0,0.00197825394571,0.130918040872,0.00425532227382,0.00623357621953,2.95053482056,0.222367018461,-0.117385864258,-0.00123889604583,0.435531616211,0.0105352643877,7.63586044312,0.185926005244,13.2687606812,94.7503738403,41.3403587341,41.0693511963,38
1630861386155740845,86,1630861386155740845,r200131356/base_footprint,0,1630861386155741505,alta/m1vW10zy74W/map,0.908284679193,7.34320014088,0.0,0.0,0.0,0.705688027564,0.708522693887,0,61.5059585571,14.6110057831,51.1828155518,95.1490097046,40.7901496887,40.7901496887,61.5059585571,61.5059585571,35.9627952576,3.12430500984,0.0,0.00172217621002,0.131159722805,0.00572684267536,0.00744901923463,-1.34224510193,-0.101158283651,-0.398635864258,-0.00420722225681,0.55020904541,0.0133092468604,5.10655593872,0.124339826405,13.2687606812,94.7503738403,41.3403587341,41.0693511963,38
1630861386255861740,87,1630861386255861740,r200131356/base_footprint,0,1630861386255862093,alta/m1vW10zy74W/map,0.908284679193,7.34320014088,0.0,0.0,0.0,0.705688027564,0.708522693887,0,60.7576408386,12.9603061676,51.6620101929,95.1490097046,40.5493469238,40.5493469238,60.7576408386,60.7576408386,46.8318634033,-1.16829788685,0.0,0.00247668707743,0.130574122071,0.00740760983899,0.00988429691643,0.30845451355,0.0232466701418,-0.398635864258,-0.00420722225681,0.791011810303,0.0191341303289,-5.76251220703,-0.140311747789,13.2687606812,94.7503738403,41.3403587341,41.0693511963,38
1630861386355853656,88,1630861386355853656,r200131356/base_footprint,0,1630861386355855118,alta/m1vW10zy74W/map,0.902462045696,7.268946291,0.0,0.0,0.0,0.705966372116,0.708245353985,0,61.1337966919,13.4117650986,51.4213447571,95.1429824829,40.6056098938,40.6056098938,61.1337966919,61.1337966919,40.6469764709,-3.00843954086,0.0,0.00269246404059,0.129940271378,0.00839139334857,0.0110838580877,2.20592308044,0.141245171428,-0.47087097168,-0.00497370306402,0.819007873535,0.0197710432112,-0.355133056641,-0.00881401821971,15.617688179,94.6721115112,41.4246177673,40.2918434143,47
1630861386455399301,89,1630861386455399301,r200131356/base_footprint,0,1630861386455399516,alta/m1vW10zy74W/map,0.910509257892,7.21439441478,0.0,0.0,0.0,0.707464604533,0.706748776676,0,60.449760437,11.764705658,55.2039451599,94.3551864624,40.6872367859,40.6872367859,60.449760437,60.449760437,51.0051574707,-3.02040028572,0.0,0.00358694884926,0.129631012678,0.00707301637158,0.0106599647552,4.74496269226,0.287405073643,0.249496459961,0.00263725267723,0.847949981689,0.0204152204096,-10.8279342651,-0.269504308701,16.5096683502,94.6046829224,41.5351867676,40.1772232056,50
1630861386555520019,90,1630861386555520019,r200131356/base_footprint,0,1630861386555520231,alta/m1vW10zy74W/map,0.904817006404,7.14376797679,0.0,0.0,0.0,0.705470420057,0.708739364241,0,60.8461914062,19.4071331024,60.2327346802,94.4218902588,40.8807182312,40.8807182312,60.8461914062,60.8461914062,46.1991500854,3.1206638813,0.0,0.00276543525979,0.131107330322,0.0066101863049,0.00937562156469,12.9374103546,0.39998742938,-1.66217803955,-0.0179191809148,7.07763671875,0.147578805685,-6.93260192871,-0.176552370191,32.344543457,92.7597122192,47.95835495,39.2665481567,137
1630861386655382073,91,1630861386655382073,r200131356/base_footprint,0,1630861386655382258,alta/m1vW10zy74W/map,0.903672279332,7.1420166064,0.0,0.0,0.0,0.705424407329,0.70878516177,0,61.2165718079,18.5520362854,63.7267913818,94.885093689,41.2088012695,41.2088012695,61.2165718079,61.2165718079,44.7430839539,-3.13710021973,0.0,0.00303253601305,0.130572959781,0.00643257843331,0.00946511421353,13.7925071716,0.426424533129,-2.12538146973,-0.0229127649218,6.74955368042,0.14073780179,-5.47653579712,-0.139470770955,32.344543457,92.7597122192,47.95835495,39.2665481567,137
1630861386755249342,92,1630861386755249342,r200131356/base_footprint,0,1630861386755249561,alta/m1vW10zy74W/map,0.90673335529,7.09145244826,0.0,0.0,0.0,0.707342951888,0.706870531579,0,61.5571174622,22.1861972809,67.1190567017,95.111328125,41.4658737183,41.4658737183,61.5571174622,61.5571174622,42.2041053772,-3.08140611649,0.0,0.00273888674565,0.132157832384,0.00710555445403,0.00984444096684,10.5038127899,0.321315675974,-2.34587097168,-0.025288194418,6.4214515686,0.134095013142,-3.08347702026,-0.0788197219372,32.6900100708,92.7654571533,47.8873252869,39.1206283569,140
1630861386855413317,93,1630861386855413317,r200131356/base_footprint,0,1630861386855413847,alta/m1vW10zy74W/map,0.90673335529,7.09145244826,0.0,0.0,0.0,0.707342951888,0.706870531579,0,61.6469421387,20.9558830261,70.1900939941,95.111328125,41.9544410706,41.9544410706,61.6469421387,61.6469421387,45.8638038635,-3.12979960442,0.0,0.00251646875404,0.132141634822,0.00759118748829,0.0101076560095,11.7341270447,0.358951479197,-2.34587097168,-0.025288194418,5.93288421631,0.123892575502,-6.74317550659,-0.17236879468,32.6900100708,92.7654571533,47.8873252869,39.1206283569,140
1630861386955875296,94,1630861386955875296,r200131356/base_footprint,0,1630861386955875818,alta/m1vW10zy74W/map,0.906712113527,7.03341927161,0.0,0.0,0.0,0.707075909037,0.707137651989,0,62.0535202026,23.3926124573,72.9208602905,94.9241714478,42.4985313416,42.4985313416,62.0535202026,62.0535202026,43.7477722168,-3.13194155693,0.0,0.00372627913021,0.131839826703,0.00699426513165,0.0107205444947,10.4848175049,0.309492707253,-2.26477813721,-0.0244419705123,5.51643371582,0.114889882505,-4.62343215942,-0.118172779679,33.8774299622,92.6593933105,48.0149650574,39.1243400574,142
1630861387055924403,95,1630861387055924403,r200131356/base_footprint,0,1630861387055924756,alta/m1vW10zy74W/map,0.906712113527,7.03341927161,0.0,0.0,0.0,0.707075909037,0.707137651989,0,62.4800491333,26.6968326569,75.4427566528,94.9241714478,43.0425262451,43.0425262451,62.4800491333,62.4800491333,41.9454421997,-3.12793207169,0.0,0.00338618201204,0.1312751472,0.00700150988996,0.0103876916692,7.1805973053,0.211958155036,-2.26477813721,-0.0244419705123,4.97243881226,0.103560186923,-2.82110214233,-0.0721060633659,33.8774299622,92.6593933105,48.0149650574,39.1243400574,142
1630861387155974197,96,1630861387155974197,r200131356/base_footprint,0,1630861387155975297,alta/m1vW10zy74W/map,0.90730170272,6.96786556621,0.0,0.0,0.0,0.70605753514,0.708154472606,0,62.558216095,23.3511581421,74.6759643555,94.8312911987,43.30493927,43.30493927,62.558216095,62.558216095,43.0380821228,-3.11598014832,0.0,0.00305315805599,0.130390897393,0.00731192482635,0.0103650828823,10.9142150879,0.318520247936,-2.1819229126,-0.0235503260046,4.74548721313,0.0987605601549,-3.89888381958,-0.0996158346534,34.26537323,92.6493682861,48.0504264832,39.1391983032,142
1630861387256011924,97,1630861387256011924,r200131356/base_footprint,0,1630861387256013591,alta/m1vW10zy74W/map,0.90730170272,6.96786556621,0.0,0.0,0.0,0.70605753514,0.708154472606,0,62.8647422791,29.2348518372,72.4040679932,94.8312911987,43.7255744934,43.7255744934,62.8647422791,62.8647422791,42.0634613037,-3.09024333954,0.0,0.00325033650734,0.131217494607,0.00730948755518,0.010559823364,5.03052139282,0.146810635924,-2.1819229126,-0.0235503260046,4.32485198975,0.0900065302849,-2.92426300049,-0.0747144296765,34.26537323,92.6493682861,48.0504264832,39.1391983032,142
1630861387355305315,98,1630861387355305315,r200131356/base_footprint,0,1630861387355305516,alta/m1vW10zy74W/map,0.906632487432,6.90822182623,0.0,0.0,0.0,0.705928410204,0.708283191715,0,63.2058029175,26.9162216187,68.0140380859,94.6111984253,44.1590766907,44.1590766907,63.2058029175,63.2058029175,39.8138771057,-3.08965134621,0.0,0.00298925884999,0.132915735245,0.00722055928782,0.0102098183706,7.5051651001,0.218037843704,-1.97096252441,-0.0212754476815,3.86335754395,0.0804490149021,-0.674026489258,-0.0172209776938,34.4213867188,92.6402359009,48.0224342346,39.1398506165,143
1630861387455388720,99,1630861387455388720,r200131356/base_footprint,0,1630861387455388960,alta/m1vW10zy74W/map,0.906632487432,6.90822182623,0.0,0.0,0.0,0.705928410204,0.708283191715,0,63.4410514832,29.5900173187,65.9176177979,94.6111984253,44.4689254761,44.4689254761,63.4410514832,63.4410514832,38.9258117676,-3.1217854023,0.0,0.00300604128279,0.134126439691,0.00732820713893,0.0103342486545,4.83136940002,0.140359520912,-1.97096252441,-0.0212754476815,3.55350875854,0.0739968493581,0.214038848877,0.00546856597066,34.4213867188,92.6402359009,48.0224342346,39.1398506165,143
1630861387555487018,100,1630861387555487018,r200131356/base_footprint,0,1630861387555487302,alta/m1vW10zy74W/map,0.908099151365,6.84675092236,0.0,0.0,0.0,0.70628740792,0.707925206087,0,63.5858268738,27.4657230377,64.0734100342,94.9009628296,44.7573738098,44.7573738098,63.5858268738,63.5858268738,40.478225708,-3.11851525307,0.0,0.00325737870298,0.13485455513,0.00715036550537,0.0104077439755,7.18583869934,0.207374170423,-2.28186035156,-0.0246370378882,3.33124923706,0.0692731291056,-1.33846664429,-0.0341971106827,34.6515617371,92.619102478,48.0886230469,39.1397590637,143
1630861387655268939,101,1630861387655268939,r200131356/base_footprint,0,1630861387655269119,alta/m1vW10zy74W/map,0.905398397254,6.78605910207,0.0,0.0,0.0,0.70309864974,0.711092320823,0,63.8403816223,34.1527671814,62.3672714233,94.9897232056,45.1032752991,45.1032752991,63.8403816223,63.8403816223,39.9515151978,-3.11608862877,0.0,0.003454931546,0.133667916059,0.00692832283676,0.0103832548484,1.04579544067,0.0297113116831,-2.40944671631,-0.02602548711,3.06639480591,0.063658207655,-0.828449249268,-0.0211754683405,35.1985626221,92.5802764893,48.169670105,39.1230659485,146
