%time,field.header.seq,field.header.stamp,field.header.frame_id,field.pose.header.seq,field.pose.header.stamp,field.pose.header.frame_id,field.pose.pose.position.x,field.pose.pose.position.y,field.pose.pose.position.z,field.pose.pose.orientation.x,field.pose.pose.orientation.y,field.pose.pose.orientation.z,field.pose.pose.orientation.w,field.label,field.main_output,field.scan_score,field.pose_score,field.cov_score,field.lhood_map_score,field.lhood_robot_score,field.lhood_map_score_all,field.lhood_robot_score_all,field.point_angle_diff,field.average_orientation,field.map_average_orientation,field.sensor_div,field.odom_div_x,field.odom_div_w,field.imu_div_w,field.kdtree_div,field.kdtree_div_p,field.cov_div,field.cov_div_p,field.likelihood_div,field.likelihood_div_p,field.normal_diff_div,field.normal_diff_div_p,field.kdtree_average,field.cov_average,field.likelihood_average,field.normal_diff_average,field.map_update_count
1638021324961052898,0,1638021324961052898,r200191364/base_footprint,0,1638021324961053123,alta/m1vW10zy74W/map,-9.21985939789,6.04073302059,0.0,0.0,0.0,0.697181529971,0.716894632611,0,69.6790084839,47.4789924622,100.0,94.9512176514,53.9910697937,53.9910697937,69.6790084839,69.6790084839,30.7058353424,-0.121203988791,0.0,0.00121209409554,0.0815561637282,0.0156116252765,0.0168237183243,-40.8714370728,-6.18556070328,-13.2935256958,-0.162795752287,-13.8757095337,-0.345895171165,-0.491296768188,-0.0162602774799,6.60755586624,81.6576919556,40.11536026,30.2145385742,6
1638021325060981314,1,1638021325060981314,r200191364/base_footprint,0,1638021325060981731,alta/m1vW10zy74W/map,-9.22022436976,6.09306595248,0.0,0.0,0.0,0.701315581837,0.712850934399,0,69.4396591187,25.8081607819,48.9940032959,96.0858535767,53.4577293396,53.4577293396,69.4396591187,69.4396591187,33.3386421204,-0.125270962715,0.0,0.00100554001983,0.0608411990106,0.0479817315936,0.0469761937857,-19.2662754059,-2.94506454468,-17.2968826294,-0.219534307718,-13.2614479065,-0.329917281866,-5.19116210938,-0.184427246451,6.54188537598,78.7889709473,40.1962814331,28.147480011,5
1638021325160753399,2,1638021325160753399,r200191364/base_footprint,0,1638021325160753841,alta/m1vW10zy74W/map,-9.22022436976,6.09306595248,0.0,0.0,0.0,0.701315581837,0.712850934399,0,68.989692688,33.2273445129,48.8871307373,96.0858535767,52.890335083,52.890335083,68.989692688,68.989692688,35.3102340698,-0.0999171435833,0.0,0.00362324528396,0.0468993932009,0.0727447718382,0.0691215246916,-26.685459137,-4.07916927338,-17.2968826294,-0.219534307718,-12.6940536499,-0.315801680088,-7.16275405884,-0.254472315311,6.54188537598,78.7889709473,40.1962814331,28.147480011,5
1638021335960663266,3,1638021335960663266,r200191364/base_footprint,0,1638021335960663444,alta/m1vW10zy74W/map,-9.22559803689,6.81418434008,0.0,0.0,0.0,0.702553400292,0.711631027807,0,64.7683868408,4.41176462173,52.258354187,92.3028106689,44.1999588013,44.1999588013,64.7683868408,64.7683868408,3.81873369217,-0.0390646569431,0.0,0.0021110731177,0.00425567990169,0.0342188961804,0.0363299660385,12.3744621277,0.737179517746,-15.6528396606,-0.204211950302,-3.36256027222,-0.0823402181268,18.0563373566,0.825429916382,16.7862262726,76.6499710083,40.8373985291,21.8750705719,1
1638021336060677124,4,1638021336060677124,r200191364/base_footprint,0,1638021336060677336,alta/m1vW10zy74W/map,-9.22788446989,6.75912940007,0.0,0.0,0.0,0.700476049204,0.713675909984,0,64.3110733032,1.26050424576,53.1456260681,91.6321182251,43.804069519,43.804069519,64.3110733032,64.3110733032,5.36020517349,-0.0348083339632,0.0,0.00160749058705,0.00408665975556,0.0267862044275,0.0283936951309,15.5257225037,0.924908459187,-14.9821472168,-0.195461884141,-2.96667098999,-0.072645932436,16.5148658752,0.754962861538,16.7862262726,76.6499710083,40.8373985291,21.8750705719,1
1638021336161684557,5,1638021336161684557,r200191364/base_footprint,0,1638021336161684993,alta/m1vW10zy74W/map,-9.22802565297,6.75443976485,0.0,0.0,0.0,0.699669031348,0.714467106712,0,63.4096794128,3.1754295826,54.3092346191,91.6932296753,43.5714492798,43.5714492798,63.4096794128,63.4096794128,19.2930583954,0.0482526347041,0.0,0.00216544512659,0.00301920226775,0.0259400326759,0.0281054787338,13.6107969284,0.81083124876,-15.043258667,-0.196259155869,-2.73405075073,-0.0669496804476,2.58201217651,0.118034459651,16.7862262726,76.6499710083,40.8373985291,21.8750705719,1
1638021336261420225,6,1638021336261420225,r200191364/base_footprint,0,1638021336261421127,alta/m1vW10zy74W/map,-9.22895432761,6.6868971769,0.0,0.0,0.0,0.699251850335,0.714875408587,0,64.2384338379,2.13430500031,53.8030662537,91.7220230103,43.393951416,43.393951416,64.2384338379,64.2384338379,2.56213068962,-0.0277487095445,0.0,0.00273756100796,0.00305597856641,0.0289242956787,0.0316618569195,6.25880813599,0.745707571507,-15.0408401489,-0.196147739887,-2.77773284912,-0.0683897435665,25.1385917664,0.907506763935,8.39311313629,76.6811828613,40.6162185669,27.7007217407,2
1638021336361422662,7,1638021336361422662,r200191364/base_footprint,0,1638021336361423314,alta/m1vW10zy74W/map,-9.23033486769,6.64056974299,0.0,0.0,0.0,0.69814174915,0.715959564566,0,63.7133216858,3.5506093502,52.2872161865,91.6237716675,43.264465332,43.264465332,63.7133216858,63.7133216858,10.2619934082,0.0432005524635,0.0,0.00215638731606,0.00217552273534,0.0239519681782,0.0261083561927,2.43695616722,0.407002836466,-14.8261489868,-0.193054795265,-2.83407592773,-0.0700976625085,15.5814170837,0.602916419506,5.98756551743,76.7976226807,40.4303894043,25.8434104919,3
1638021336860718331,8,1638021336860718331,r200191364/base_footprint,0,1638021336860718620,alta/m1vW10zy74W/map,-9.23312875378,6.50715325684,0.0,0.0,0.0,0.69766943897,0.716419816816,0,63.587020874,6.54205608368,48.9600791931,92.187286377,43.1744689941,43.1744689941,63.587020874,63.587020874,13.5920944214,0.00356665719301,0.0,0.00193995120935,0.0950409695506,0.020780256018,0.0227202083915,-0.554490566254,-0.0926070138812,-15.3896636963,-0.200392454863,-2.74407958984,-0.0678717046976,12.2513160706,0.474059581757,5.98756551743,76.7976226807,40.4303894043,25.8434104919,3
1638021336961120631,9,1638021336961120631,r200191364/base_footprint,0,1638021336961121759,alta/m1vW10zy74W/map,-9.23312875378,6.50715325684,0.0,0.0,0.0,0.69766943897,0.716419816816,0,63.460144043,12.0395822525,48.7154579163,92.187286377,43.2065544128,43.2065544128,63.460144043,63.460144043,16.2224082947,-0.18815509975,0.0,0.00225981231779,0.0464851669967,0.0182878803462,0.0205476935953,-6.05201673508,-1.01076412201,-15.3896636963,-0.200392454863,-2.77616500854,-0.0686653032899,9.62100219727,0.372280657291,5.98756551743,76.7976226807,40.4303894043,25.8434104919,3
1638021337061662205,10,1638021337061662205,r200191364/base_footprint,0,1638021337061662653,alta/m1vW10zy74W/map,-9.23312875378,6.50715325684,0.0,0.0,0.0,0.69766943897,0.716419816816,0,63.521156311,12.2994651794,48.4758758545,92.187286377,43.3822631836,43.3822631836,63.521156311,63.521156311,17.0218963623,-0.116261586547,0.0,0.0016710673226,0.0010715671815,0.0174670498818,0.0191381182522,-6.31189966202,-1.05416798592,-15.3896636963,-0.200392454863,-2.9518737793,-0.073011264205,8.82151412964,0.341344803572,5.98756551743,76.7976226807,40.4303894043,25.8434104919,3
1638021337161496647,11,1638021337161496647,r200191364/base_footprint,0,1638021337161497692,alta/m1vW10zy74W/map,-9.23312875378,6.50715325684,0.0,0.0,0.0,0.69766943897,0.716419816816,0,63.9710731506,14.5394010544,48.2320823669,92.187286377,43.4751663208,43.4751663208,63.9710731506,63.9710731506,9.92669677734,0.0611318424344,0.0,0.0015870933421,0.0372999943793,0.0122058456764,0.0137929394841,-8.55183601379,-1.42826592922,-15.3896636963,-0.200392454863,-3.0447769165,-0.0753091201186,15.9167137146,0.615890622139,5.98756551743,76.7976226807,40.4303894043,25.8434104919,3
1638021337261385153,12,1638021337261385153,r200191364/base_footprint,0,1638021337261386043,alta/m1vW10zy74W/map,-9.23456779602,6.44477293464,0.0,0.0,0.0,0.699735978067,0.714401540451,0,63.2518882751,13.3689842224,48.0508003235,91.8767547607,43.5340156555,43.5340156555,63.2518882751,63.2518882751,22.3897171021,-0.0238244906068,0.0,0.00158640358131,0.0445761233568,0.0130626354367,0.0146490391344,-7.38141870499,-1.23279130459,-15.0791320801,-0.196348950267,-3.10362625122,-0.0767646878958,3.45369338989,0.133639231324,5.98756551743,76.7976226807,40.4303894043,25.8434104919,3
1638021337360603626,13,1638021337360603626,r200191364/base_footprint,0,1638021337360603853,alta/m1vW10zy74W/map,-9.23456779602,6.44477293464,0.0,0.0,0.0,0.699735978067,0.714401540451,0,62.994934082,18.6366138458,47.8854179382,91.8767547607,43.8778114319,43.8778114319,62.994934082,62.994934082,30.7278423309,-0.128922984004,0.0,0.00116882869042,0.0494821034372,0.0126658333465,0.0138346618041,-12.6490478516,-2.11255264282,-15.0791320801,-0.196348950267,-3.44742202759,-0.0852680876851,-4.88443183899,-0.189001053572,5.98756551743,76.7976226807,40.4303894043,25.8434104919,3
1638021337460616441,14,1638021337460616441,r200191364/base_footprint,0,1638021337460616669,alta/m1vW10zy74W/map,-9.23590158246,6.38531277124,0.0,0.0,0.0,0.698784430256,0.715332314405,0,63.4403190613,13.3689842224,47.7856407166,92.2842330933,44.1627540588,44.1627540588,63.4403190613,63.4403190613,27.2551994324,-0.146119177341,0.0,0.000995707465336,0.0506004802883,0.0105344373733,0.0115301450714,-7.31581020355,-1.20859074593,-14.5453796387,-0.18710565567,-3.86483383179,-0.0959065333009,-1.10728645325,-0.0423470288515,6.05317401886,77.7388534546,40.2979202271,26.1479129791,4
1638021337561456299,15,1638021337561456299,r200191364/base_footprint,0,1638021337561457418,alta/m1vW10zy74W/map,-9.23698292705,6.31345290476,0.0,0.0,0.0,0.699658499036,0.714477420726,0,63.6191635132,20.1295204163,47.738861084,92.6299438477,44.5217094421,44.5217094421,63.6191635132,63.6191635132,29.1573371887,-0.0672506093979,0.0,0.000998127507046,0.0519170165062,0.00712418975309,0.00812231749296,-13.5876350403,-2.0770213604,-13.8409729004,-0.175671458244,-4.32542800903,-0.107607662678,-1.00985717773,-0.0358773581684,6.54188537598,78.7889709473,40.1962814331,28.147480011,5
1638021337660642677,16,1638021337660642677,r200191364/base_footprint,0,1638021337660643127,alta/m1vW10zy74W/map,-9.23806586419,6.24441337937,0.0,0.0,0.0,0.699643513414,0.714492095224,0,64.1148147583,16.2692108154,47.6554489136,91.9428329468,44.811882019,44.811882019,64.1148147583,64.1148147583,20.8958587646,-0.0371006242931,0.0,0.000754267501179,0.0525776781142,0.0054274238646,0.00618169177324,-9.72732543945,-1.4869300127,-13.1538619995,-0.166950553656,-4.61560058594,-0.11482656002,7.25162124634,0.257629513741,6.54188537598,78.7889709473,40.1962814331,28.147480011,5
1638021337761252921,17,1638021337761252921,r200191364/base_footprint,0,1638021337761253532,alta/m1vW10zy74W/map,-9.24039410346,6.18488386503,0.0,0.0,0.0,0.698232772294,0.715870795392,0,64.3673858643,19.7860965729,47.6025161743,92.1627807617,45.256149292,45.256149292,64.3673858643,64.3673858643,21.9395370483,-0.130283862352,0.0,0.000639972684439,0.0497428625822,0.00358067709021,0.00422065006569,-13.2442111969,-2.02452516556,-13.3738098145,-0.169742152095,-5.05986785889,-0.125879004598,6.20794296265,0.220550581813,6.54188537598,78.7889709473,40.1962814331,28.147480011,5
1638021337861758526,18,1638021337861758526,r200191364/base_footprint,0,1638021337861760243,alta/m1vW10zy74W/map,-9.24109122468,6.11623038415,0.0,0.0,0.0,0.698855136037,0.715263237441,0,63.8632278442,15.8121967316,47.694984436,91.9655685425,45.545211792,45.545211792,63.8632278442,63.8632278442,33.4262008667,-0.129658341408,0.0,0.0002153848327,0.0509906746447,0.00203439919278,0.00224978406914,-9.27031135559,-1.41707026958,-13.1765975952,-0.167239114642,-5.34893035889,-0.133070275187,-5.27872085571,-0.187537953258,6.54188537598,78.7889709473,40.1962814331,28.147480011,5
1638021337961412730,19,1638021337961412730,r200191364/base_footprint,0,1638021337961413783,alta/m1vW10zy74W/map,-9.24251612071,6.05728365205,0.0,0.0,0.0,0.698998331251,0.715123299095,0,64.7958526611,19.3899784088,47.8649673462,92.3267364502,45.8064308167,45.8064308167,64.7958526611,64.7958526611,20.760345459,-0.00556191010401,0.0,0.00095559930196,0.0522268824279,0.00144129665568,0.00239689601585,-12.7824230194,-1.93451607227,-10.6690444946,-0.13065572083,-5.69107055664,-0.141867622733,9.45419311523,0.312902122736,6.60755586624,81.6576919556,40.11536026,30.2145385742,6
1638021342360652659,20,1638021342360652659,r200191364/base_footprint,0,1638021342360652849,alta/m1vW10zy74W/map,-9.24547497732,5.91543430859,0.0,0.0,0.0,0.699028984933,0.715093335323,0,64.3566207886,21.2088508606,47.9939346313,92.9116821289,46.0147781372,46.0147781372,64.3566207886,64.3566207886,33.0225563049,-0.190489292145,0.0,0.00214692787267,3.15872130159e-05,0.0482582263649,0.0461113005877,-14.5343923569,-2.1776137352,-9.16284179688,-0.109408579767,-5.98900985718,-0.149628847837,-1.85338973999,-0.0594622828066,6.67445850372,83.748840332,40.02576828,31.1691665649,7
1638021342461332484,21,1638021342461332484,r200191364/base_footprint,0,1638021342461333259,alta/m1vW10zy74W/map,-9.24533077269,5.87256886377,0.0,0.0,0.0,0.673498150582,0.739188907629,0,64.8418273926,25.0390415192,48.1319580078,92.8317337036,46.4398498535,46.4398498535,64.8418273926,64.8418273926,28.5916728973,-0.121052570641,0.0,0.00454567931592,4.12147928728e-05,0.0625816211104,0.0580359436572,-18.3645820618,-2.75147151947,-9.08289337158,-0.108453959227,-6.41408157349,-0.160248801112,2.5774936676,0.082693696022,6.67445850372,83.748840332,40.02576828,31.1691665649,7
1638021342561829896,22,1638021342561829896,r200191364/base_footprint,0,1638021342561830959,alta/m1vW10zy74W/map,-9.24552403182,5.86856396931,0.0,0.0,0.0,0.653634813419,0.75681010213,0,65.217300415,31.8885440826,48.2853279114,93.3852539062,46.8827056885,46.8827056885,65.217300415,65.217300415,28.6086959839,-0.221167474985,0.0,0.00618969043717,8.3059676399e-06,0.070725761354,0.0645360723138,-25.2140846252,-3.77769732475,-9.63641357422,-0.115063250065,-6.85693740845,-0.171313077211,2.56047058105,0.0821475461125,6.67445850372,83.748840332,40.02576828,31.1691665649,7
1638021342661570111,23,1638021342661570111,r200191364/base_footprint,0,1638021342661591735,alta/m1vW10zy74W/map,-9.24837131846,5.8518508087,0.0,0.0,0.0,0.617452902673,0.786607852097,0,65.4537887573,31.1075782776,48.4746589661,94.2465438843,47.3376808167,47.3376808167,65.4537887573,65.4537887573,32.3663711548,-0.0331518091261,0.0,0.0070834509097,0.000261006847722,0.0689254105091,0.0618419609964,-24.4331207275,-3.66068959236,-10.4977035522,-0.125347450376,-7.31191253662,-0.182680130005,-1.19720458984,-0.0384098999202,6.67445850372,83.748840332,40.02576828,31.1691665649,7
1638021342761103364,24,1638021342761103364,r200191364/base_footprint,0,1638021342761103685,alta/m1vW10zy74W/map,-9.24617079293,5.85700144405,0.0,0.0,0.0,0.591690091433,0.806165513837,0,65.3382339478,29.1938991547,48.7009849548,94.7514877319,47.5789108276,47.5789108276,65.3382339478,65.3382339478,38.8693695068,-0.380706489086,0.0,0.00707688322291,0.000135325317387,0.0696459412575,0.0625690594316,-22.5194396973,-3.37397265434,-11.0026473999,-0.131376713514,-7.55314254761,-0.188706994057,-7.70020294189,-0.247045516968,6.67445850372,83.748840332,40.02576828,31.1691665649,7
1638021342861254726,25,1638021342861254726,r200191364/base_footprint,0,1638021342861255481,alta/m1vW10zy74W/map,-9.24599220827,5.85521487481,0.0,0.0,0.0,0.566392961334,0.824135312526,0,66.3876113892,29.8434963226,48.9758071899,95.4566421509,47.9861564636,47.9861564636,66.3876113892,66.3876113892,26.9173755646,-0.223206505179,0.0,0.00694979354739,8.23046284495e-05,0.0721847787499,0.0652349889278,-23.1690368652,-3.47129845619,-11.7078018188,-0.139796584845,-7.96038818359,-0.198881581426,4.25179100037,0.136410161853,6.67445850372,83.748840332,40.02576828,31.1691665649,7
1638021342961439958,26,1638021342961439958,r200191364/base_footprint,0,1638021342961440187,alta/m1vW10zy74W/map,-9.24652635885,5.84679066769,0.0,0.0,0.0,0.540865013322,0.841109408676,0,65.9724349976,27.1708679199,57.5619239807,95.4943237305,48.4342079163,48.4342079163,65.9724349976,65.9724349976,39.3651351929,-0.189487144351,0.0,0.00665709422901,0.000455526984297,0.0712335258722,0.0645764321089,-20.4964103699,-3.07087230682,-11.7454833984,-0.140246525407,-8.40843963623,-0.21007566154,-8.19596862793,-0.262951165438,6.67445850372,83.748840332,40.02576828,31.1691665649,7
1638021343061089817,27,1638021343061089817,r200191364/base_footprint,0,1638021343061089960,alta/m1vW10zy74W/map,-9.24634521791,5.83672491848,0.0,0.0,0.0,0.486459021476,0.87370339385,0,66.4184951782,36.6515846252,66.8151168823,95.6992034912,49.022518158,49.022518158,66.4184951782,66.4184951782,38.4273986816,-0.257872402668,0.0,0.00704414118081,0.000776644796133,0.0728523731232,0.0658082291484,-31.6624202728,-6.34623718262,-10.7672042847,-0.126774415374,-9.13202285767,-0.228927284479,-5.70921707153,-0.174496769905,4.98916435242,84.9319992065,39.8904953003,32.7181816101,6
1638021343161088247,28,1638021343161088247,r200191364/base_footprint,0,1638021343161088391,alta/m1vW10zy74W/map,-9.24958936076,5.8280324527,0.0,0.0,0.0,0.458256628297,0.888819926994,0,66.766418457,27.7810134888,62.0541305542,96.0574645996,49.3974952698,49.3974952698,66.766418457,66.766418457,37.5042495728,-0.369073331356,0.0,0.00683887442574,0.000682790996507,0.073114335537,0.0662754625082,-22.7918491364,-4.56826972961,-11.1254653931,-0.130992621183,-9.50699996948,-0.2383274436,-4.78606796265,-0.146281599998,4.98916435242,84.9319992065,39.8904953003,32.7181816101,6
1638021343261246235,29,1638021343261246235,r200191364/base_footprint,0,1638021343261247524,alta/m1vW10zy74W/map,-9.25140554792,5.82252010338,0.0,0.0,0.0,0.430468255616,0.902605717302,0,67.0016403198,37.0172309875,52.4261665344,96.3348236084,49.7769355774,49.7769355774,67.0016403198,67.0016403198,38.3667373657,-0.249780416489,0.0,0.00727090006694,0.000405928702094,0.0733527168632,0.0660818219185,-32.0280685425,-6.41952562332,-11.4028244019,-0.134258285165,-9.8864402771,-0.24783949554,-5.64855575562,-0.172642722726,4.98916435242,84.9319992065,39.8904953003,32.7181816101,6
1638021343361165114,30,1638021343361165114,r200191364/base_footprint,0,1638021343361165301,alta/m1vW10zy74W/map,-9.25500825091,5.80814326333,0.0,0.0,0.0,0.372594692982,0.927994178194,0,67.2478942871,31.2754802704,49.0360870361,96.0948944092,50.0863723755,50.0863723755,67.2478942871,67.2478942871,36.4123764038,-0.301282078028,0.0,0.00697795627639,5.93190270592e-05,0.073410667479,0.0664327144623,-26.286315918,-5.26868104935,-11.1628952026,-0.131433323026,-10.1958770752,-0.255596667528,-3.6941947937,-0.112909540534,4.98916435242,84.9319992065,39.8904953003,32.7181816101,6
1638021343461515399,31,1638021343461515399,r200191364/base_footprint,0,1638021343461516024,alta/m1vW10zy74W/map,-9.25631002477,5.80716059633,0.0,0.0,0.0,0.342905768015,0.939369806978,0,66.9503555298,37.7162628174,48.8892593384,96.3071975708,50.4159698486,50.4159698486,66.9503555298,66.9503555298,46.091960907,-0.428037315607,0.0,0.00661289459094,2.31722897297e-05,0.0728877857327,0.0662748888135,-32.7270965576,-6.55963468552,-11.3751983643,-0.133933007717,-10.5254745483,-0.263859212399,-13.3737792969,-0.408756792545,4.98916435242,84.9319992065,39.8904953003,32.7181816101,6
1638021343560659428,32,1638021343560659428,r200191364/base_footprint,0,1638021343560660004,alta/m1vW10zy74W/map,-9.25908524165,5.81708773023,0.0,0.0,0.0,0.312781280472,0.94982517896,0,67.5534591675,37.254901886,48.7219276428,96.5504074097,50.6391334534,50.6391334534,67.5534591675,67.5534591675,38.5218887329,-0.349666684866,0.0,0.00677544157952,0.000144602381624,0.0732335150242,0.0664580762386,-32.2657394409,-6.46716308594,-11.6184082031,-0.136796593666,-10.7486381531,-0.26945361495,-5.8037071228,-0.177384763956,4.98916435242,84.9319992065,39.8904953003,32.7181816101,6
1638021343660995282,33,1638021343660995282,r200191364/base_footprint,0,1638021343660995653,alta/m1vW10zy74W/map,-9.26121682175,5.80690634169,0.0,0.0,0.0,0.283130858784,0.959081287902,0,67.2232894897,36.0365524292,48.5841064453,96.3587036133,50.7664833069,50.7664833069,67.2232894897,67.2232894897,45.1502037048,-0.375072300434,0.0,0.00695461267605,0.000250639015576,0.0730193927884,0.0660647824407,-31.0473880768,-6.22296380997,-11.4267044067,-0.134539455175,-10.8759880066,-0.272646099329,-12.4320220947,-0.379972904921,4.98916435242,84.9319992065,39.8904953003,32.7181816101,6
1638021343761197628,34,1638021343761197628,r200191364/base_footprint,0,1638021343761198091,alta/m1vW10zy74W/map,-9.25691469499,5.81191525605,0.0,0.0,0.0,0.220362424331,0.975418065212,0,67.5321350098,30.3255290985,48.4871788025,96.5216445923,50.8189620972,50.8189620972,67.5321350098,67.5321350098,40.74426651,-0.493371963501,0.0,0.00702658900991,0.000241560861468,0.0725717395544,0.0655451491475,-25.3363647461,-5.07827806473,-11.5896453857,-0.136457934976,-10.9284667969,-0.273961663246,-8.0260848999,-0.245309621096,4.98916435242,84.9319992065,39.8904953003,32.7181816101,6
1638021343860707190,35,1638021343860707190,r200191364/base_footprint,0,1638021343860707386,alta/m1vW10zy74W/map,-9.25566874641,5.81301697373,0.0,0.0,0.0,0.18900813638,0.981975521275,0,67.4589996338,34.3891410828,48.4201202393,96.6671218872,51.1851425171,51.1851425171,67.4589996338,67.4589996338,46.5391921997,-0.304907649755,0.0,0.00678381556645,0.000157089496497,0.0722632333636,0.0654794201255,-29.3999767303,-5.892765522,-11.7351226807,-0.138170808554,-11.2946472168,-0.283141314983,-13.8210105896,-0.422425985336,4.98916435242,84.9319992065,39.8904953003,32.7181816101,6
1638021343960506132,36,1638021343960506132,r200191364/base_footprint,0,1638021343960506289,alta/m1vW10zy74W/map,-9.25868514076,5.81212826809,0.0,0.0,0.0,0.158803081894,0.987310276043,0,67.9760742188,35.2941169739,48.3414916992,96.7158126831,51.3216285706,51.3216285706,67.9760742188,67.9760742188,38.8811950684,-0.468031972647,0.0,0.0072276731953,0.000256763887592,0.072449862957,0.0652221888304,-30.3049526215,-6.07415390015,-11.7838134766,-0.138744100928,-11.4311332703,-0.28656283021,-6.16301345825,-0.188366621733,4.98916435242,84.9319992065,39.8904953003,32.7181816101,6
1638021344060916605,37,1638021344060916605,r200191364/base_footprint,0,1638021344060916885,alta/m1vW10zy74W/map,-9.25586293903,5.81341028108,0.0,0.0,0.0,0.0969623335897,0.995288051704,0,67.7957305908,38.264415741,48.2188491821,96.6788253784,51.5072860718,51.5072860718,67.7957305908,67.7957305908,43.9992485046,-0.532175481319,0.0,0.00696287536994,0.000517407373991,0.0721206963062,0.0651578232646,-33.2752532959,-6.66950416565,-11.7468261719,-0.138308599591,-11.6167907715,-0.291216999292,-11.2810668945,-0.344795048237,4.98916435242,84.9319992065,39.8904953003,32.7181816101,6
1638021344160976066,38,1638021344160976066,r200191364/base_footprint,0,1638021344160976260,alta/m1vW10zy74W/map,-9.25563133491,5.81160479702,0.0,0.0,0.0,0.0664720962545,0.997788284367,0,68.1588363647,36.5628585815,48.1867370605,96.8373641968,51.7104797363,51.7104797363,68.1588363647,68.1588363647,40.2286911011,-0.375185012817,0.0,0.00735706090927,0.000320694234688,0.0723106712103,0.064953610301,-31.5736942291,-6.3284535408,-11.9053649902,-0.140175253153,-11.819984436,-0.296310782433,-7.51050949097,-0.229551553726,4.98916435242,84.9319992065,39.8904953003,32.7181816101,6
1638021344261303533,39,1638021344261303533,r200191364/base_footprint,0,1638021344261304033,alta/m1vW10zy74W/map,-9.25554831275,5.80582033414,0.0,0.0,0.0,0.0337061194131,0.999431787324,0,67.8939208984,30.0776920319,48.2859649658,96.7423019409,51.877166748,51.877166748,67.8939208984,67.8939208984,46.4551582336,-0.401181548834,0.0,0.00735485600308,0.00036340841325,0.0718036144972,0.0644487589598,-25.0885276794,-5.02860307693,-11.8103027344,-0.139055982232,-11.9866714478,-0.300489425659,-13.7369766235,-0.419857591391,4.98916435242,84.9319992065,39.8904953003,32.7181816101,6
1638021344360983939,40,1638021344360983939,r200191364/base_footprint,0,1638021344360984117,alta/m1vW10zy74W/map,-9.26483009471,5.79406934245,0.0,0.0,0.0,0.000626278294276,0.999999803888,0,68.2440414429,38.9567146301,48.3447990417,96.9735412598,52.0545463562,52.0545463562,68.2440414429,68.2440414429,42.9011268616,-0.497630566359,0.0,0.00701442547143,0.000471287261462,0.0719361901283,0.0649217665195,-33.9675521851,-6.80826473236,-12.0415420532,-0.141778618097,-12.1640510559,-0.304936081171,-10.1829452515,-0.311232000589,4.98916435242,84.9319992065,39.8904953003,32.7181816101,6
1638021344461381937,41,1638021344461381937,r200191364/base_footprint,0,1638021344461382355,alta/m1vW10zy74W/map,-9.2608518134,5.79621806443,0.0,0.0,0.0,-0.0618107780992,0.998087885765,0,68.3849945068,34.7593574524,48.4427757263,96.6617965698,52.2690925598,52.2690925598,68.3849945068,68.3849945068,41.5587120056,-0.431373506784,0.0,0.00687285372987,0.000281140382867,0.0729420483112,0.0660691931844,-29.7701931,-5.96696996689,-11.7297973633,-0.138108104467,-12.3785972595,-0.310314446688,-8.84053039551,-0.270202368498,4.98916435242,84.9319992065,39.8904953003,32.7181816101,6
1638021344561291477,42,1638021344561291477,r200191364/base_footprint,0,1638021344561291750,alta/m1vW10zy74W/map,-9.263927681,5.79356378972,0.0,0.0,0.0,-0.0928209039519,0.995682820877,0,68.3858184814,37.8468360901,48.5849571228,96.7090682983,52.3950119019,52.3950119019,68.3858184814,68.3858184814,43.074005127,-0.405090510845,0.0,0.00732005527243,0.000438923074398,0.0732109621167,0.0658909082413,-32.857673645,-6.58580684662,-11.7770690918,-0.13866469264,-12.5045166016,-0.313471078873,-10.3558235168,-0.316515862942,4.98916435242,84.9319992065,39.8904953003,32.7181816101,6
1638021344660689256,43,1638021344660689256,r200191364/base_footprint,0,1638021344660689408,alta/m1vW10zy74W/map,-9.26590196194,5.79217462905,0.0,0.0,0.0,-0.123019385042,0.992404267879,0,68.6477813721,35.520362854,48.5982551575,96.8628692627,52.5276260376,52.5276260376,68.6477813721,68.6477813721,40.3445739746,-0.378692001104,0.0,0.0074074594304,0.000450559600722,0.0600775331259,0.0526700727642,-30.5311985016,-6.11950159073,-11.9308700562,-0.140475556254,-12.6371307373,-0.316795527935,-7.6263923645,-0.23309341073,4.98916435242,84.9319992065,39.8904953003,32.7181816101,6
1638021344760896471,44,1638021344760896471,r200191364/base_footprint,0,1638021344760896647,alta/m1vW10zy74W/map,-9.2653996703,5.79274136265,0.0,0.0,0.0,-0.153615254179,0.988130737141,0,68.810585022,36.0365524292,48.5713386536,96.8665771484,52.6350593567,52.6350593567,68.810585022,68.810585022,38.5877342224,-0.259948730469,0.0,0.00644065020606,5.61066881346e-05,0.0361941754818,0.0297535229474,-31.0473880768,-6.22296380997,-11.9345779419,-0.140519216657,-12.7445640564,-0.319488734007,-5.8695526123,-0.179397270083,4.98916435242,84.9319992065,39.8904953003,32.7181816101,6
1638021344860652415,45,1638021344860652415,r200191364/base_footprint,0,1638021344860652549,alta/m1vW10zy74W/map,-9.25026658087,5.79565651456,0.0,0.0,0.0,-0.215011661258,0.976611481359,0,68.6175613403,38.3209609985,48.5757980347,96.732925415,52.6608734131,52.6608734131,68.6175613403,68.6175613403,41.8599281311,-0.271824240685,0.0,0.00388789293356,0.000257660722127,0.0215304344893,0.0176425427198,-33.3317947388,-6.68083715439,-11.8009262085,-0.138945579529,-12.7703781128,-0.320135861635,-9.141746521,-0.279408752918,4.98916435242,84.9319992065,39.8904953003,32.7181816101,6
1638021344961745066,46,1638021344961745066,r200191364/base_footprint,0,1638021344961745405,alta/m1vW10zy74W/map,-9.240181117,5.7950531648,0.0,0.0,0.0,-0.244203097113,0.969724108889,0,68.3514862061,41.1764717102,48.6308250427,96.3028945923,52.8092079163,52.8092079163,68.3514862061,68.3514862061,46.7031097412,-0.349644482136,0.0,0.00163370533846,0.00012472034723,0.00584488501772,0.00421117991209,-36.1873092651,-7.25318050385,-11.3708953857,-0.133882343769,-12.918712616,-0.323854416609,-13.9849281311,-0.427435994148,4.98916435242,84.9319992065,39.8904953003,32.7181816101,6
1638021345061161522,47,1638021345061161522,r200191364/base_footprint,0,1638021345061161868,alta/m1vW10zy74W/map,-9.24168667121,5.79447134978,0.0,0.0,0.0,-0.275211438327,0.96138372371,0,69.179473877,30.0776920319,48.7257537842,96.5456008911,52.7509269714,52.7509269714,69.179473877,69.179473877,32.0435829163,-0.225297361612,0.0,0.000551804900169,0.000202357347007,0.00769459456205,0.00714278966188,-25.0885276794,-5.02860307693,-11.6136016846,-0.136739999056,-12.8604316711,-0.322393387556,0.674598693848,0.0206184647977,4.98916435242,84.9319992065,39.8904953003,32.7181816101,6
1638021345161215710,48,1638021345161215710,r200191364/base_footprint,0,1638021345161216506,alta/m1vW10zy74W/map,-9.24357945514,5.79658682571,0.0,0.0,0.0,-0.332891747934,0.942965049277,0,68.4822845459,32.9301795959,48.764629364,96.4817810059,52.7674255371,52.7674255371,68.4822845459,68.4822845459,44.5414466858,-0.325116127729,0.0,0.000712894194294,3.04534860334e-05,0.00944634154439,0.00873344764113,-27.9410152435,-5.60033988953,-11.5497817993,-0.1359885782,-12.8769302368,-0.322806984186,-11.8232650757,-0.361366808414,4.98916435242,84.9319992065,39.8904953003,32.7181816101,6
1638021345261493565,49,1638021345261493565,r200191364/base_footprint,0,1638021345261494746,alta/m1vW10zy74W/map,-9.24022768458,5.79027867217,0.0,0.0,0.0,-0.363266556474,0.931685252082,0,68.2928085327,38.526763916,48.8075904846,96.6229705811,52.695186615,52.695186615,68.2928085327,68.2928085327,47.680103302,-0.41950917244,0.0,0.000526141375303,0.000448424892966,0.00751429004595,0.00698814867064,-33.5375976562,-6.72208738327,-11.6909713745,-0.137650966644,-12.8046913147,-0.320996046066,-14.9619216919,-0.457296848297,4.98916435242,84.9319992065,39.8904953003,32.7181816101,6
1638021345361472613,50,1638021345361472613,r200191364/base_footprint,0,1638021345361473556,alta/m1vW10zy74W/map,-9.24242823246,5.78638895265,0.0,0.0,0.0,-0.393733761103,0.919224523915,0,68.6102752686,45.9459457397,48.8893280029,96.2917404175,52.7986412048,52.7986412048,68.6102752686,68.6102752686,41.8906135559,-0.315308898687,0.0,0.000469516671728,1.01716759673e-05,0.00746940309182,0.00699988659471,-40.95677948,-8.20914649963,-11.3597412109,-0.133751019835,-12.9081459045,-0.323589503765,-9.1724319458,-0.280346632004,4.98916435242,84.9319992065,39.8904953003,32.7181816101,6
1638021345460657191,51,1638021345460657191,r200191364/base_footprint,0,1638021345460657284,alta/m1vW10zy74W/map,-9.23640242051,5.78359778983,0.0,0.0,0.0,-0.42281909233,0.906214111102,0,68.3879623413,44.3277320862,48.9497375488,96.141960144,52.8321685791,52.8321685791,68.3879623413,68.3879623413,45.7151794434,-0.448973834515,0.0,0.000747955869883,0.000405939528719,0.00679631903768,0.00604836316779,-39.3385696411,-7.88480138779,-11.2099609375,-0.131987482309,-12.9416732788,-0.324429988861,-12.9969978333,-0.397240847349,4.98916435242,84.9319992065,39.8904953003,32.7181816101,6
1638021345560688662,52,1638021345560688662,r200191364/base_footprint,0,1638021345560689094,alta/m1vW10zy74W/map,-9.22663766491,5.78774349183,0.0,0.0,0.0,-0.478613522021,0.878025681024,0,68.7519226074,43.3551216125,48.9871292114,95.6156616211,52.7489509583,52.7489509583,68.7519226074,68.7519226074,36.3703689575,-0.153807997704,0.0,0.000817750988062,0.000291546341032,0.00611792970449,0.00530017865822,-38.1647529602,-7.35299444199,-9.14351654053,-0.105739444494,-12.9359321594,-0.324917137623,-2.87255859375,-0.0857536196709,5.19036865234,86.4721450806,39.8130187988,33.4978103638,7
1638021346060665491,53,1638021346060665491,r200191364/base_footprint,0,1638021346060665703,alta/m1vW10zy74W/map,-9.23076976509,5.73987201123,0.0,0.0,0.0,-0.561730626378,0.827320193994,0,68.8662033081,42.2657966614,49.045124054,95.7414474487,52.7388725281,52.7388725281,68.8662033081,68.8662033081,34.657371521,-0.10024381429,0.0,0.0374207571149,0.0274933520705,0.107848465443,0.0704277083278,-37.075428009,-7.14312028885,-9.26930236816,-0.107194080949,-12.9258537292,-0.324663996696,-1.15956115723,-0.0346160270274,5.19036865234,86.4721450806,39.8130187988,33.4978103638,7
1638021346161165192,54,1638021346161165192,r200191364/base_footprint,0,1638021346161165628,alta/m1vW10zy74W/map,-9.22500191786,5.71754867943,0.0,0.0,0.0,-0.583504903786,0.812109615297,0,68.0942306519,12.0296764374,49.0655479431,95.9090423584,51.988407135,51.988407135,68.0942306519,68.0942306519,41.0512428284,-0.0626165121794,0.0,0.0365521945059,0.0400583781302,0.123045444489,0.0864932462573,-6.83930778503,-1.31769216061,-9.43689727783,-0.109132222831,-12.1753883362,-0.305814236403,-7.5534324646,-0.22549033165,5.19036865234,86.4721450806,39.8130187988,33.4978103638,7
1638021346260815240,55,1638021346260815240,r200191364/base_footprint,0,1638021346260815419,alta/m1vW10zy74W/map,-9.22500191786,5.71754867943,0.0,0.0,0.0,-0.583504903786,0.812109615297,0,67.9640655518,11.764705658,49.0582542419,95.9090423584,51.2858657837,51.2858657837,67.9640655518,67.9640655518,35.8067169189,-0.271456867456,0.0,0.0374220721424,0.0453965961933,0.122140996158,0.0847189277411,-6.57433700562,-1.26664161682,-9.43689727783,-0.109132222831,-11.4728469849,-0.288168221712,-2.30890655518,-0.0689270868897,5.19036865234,86.4721450806,39.8130187988,33.4978103638,7
1638021346360557911,56,1638021346360557911,r200191364/base_footprint,0,1638021346360558066,alta/m1vW10zy74W/map,-9.211609595,5.69112506486,0.0,0.0,0.0,-0.602722194281,0.797951099079,0,67.541015625,9.33621120453,49.0665092468,95.9762420654,50.803150177,50.803150177,67.541015625,67.541015625,38.4501838684,-0.23819924891,0.0,0.037478543818,0.0536802150309,0.122391715646,0.0849131718278,-4.14584255219,-0.798756837845,-9.50409698486,-0.10990934819,-10.9901313782,-0.276043653488,-4.95237350464,-0.147841706872,5.19036865234,86.4721450806,39.8130187988,33.4978103638,7
1638021346460878633,57,1638021346460878633,r200191364/base_footprint,0,1638021346460878905,alta/m1vW10zy74W/map,-9.211609595,5.69112506486,0.0,0.0,0.0,-0.602722194281,0.797951099079,0,67.2333450317,21.2184867859,49.019657135,95.9762420654,50.5969429016,50.5969429016,67.2333450317,67.2333450317,41.7612991333,-0.157462880015,0.0,0.0373980402946,0.0624053776264,0.119579173625,0.0821811333299,-16.0281181335,-3.08805012703,-9.50409698486,-0.10990934819,-10.7839241028,-0.270864278078,-8.26348876953,-0.246687427163,5.19036865234,86.4721450806,39.8130187988,33.4978103638,7
1638021346560821092,58,1638021346560821092,r200191364/base_footprint,0,1638021346560821253,alta/m1vW10zy74W/map,-9.19536520321,5.62728072357,0.0,0.0,0.0,-0.619689009331,0.784847457608,0,67.5488891602,14.9159660339,48.9479370117,96.190574646,50.3006401062,50.3006401062,67.5488891602,67.5488891602,33.6529312134,-0.412657618523,0.0,0.0366246663034,0.068630322814,0.135571539402,0.0989468768239,4.35676383972,0.226058468223,-2.45542144775,-0.0261953100562,-4.91622924805,-0.108324185014,4.46685791016,0.117179505527,19.2727298737,93.7351531982,45.3844108582,38.1197891235,14
1638021346661219641,59,1638021346661219641,r200191364/base_footprint,0,1638021346661219898,alta/m1vW10zy74W/map,-9.19536520321,5.62728072357,0.0,0.0,0.0,-0.619689009331,0.784847457608,0,67.0595245361,19.117647171,48.7812271118,96.190574646,50.2045059204,50.2045059204,67.0595245361,67.0595245361,41.4232330322,-0.156087055802,0.0,0.0387146510184,0.0819672346115,0.15461269021,0.115898028016,0.155082702637,0.00804674252868,-2.45542144775,-0.0261953100562,-4.82009506226,-0.106205962598,-3.30344390869,-0.0866595506668,19.2727298737,93.7351531982,45.3844108582,38.1197891235,14
1638021346761445858,60,1638021346761445858,r200191364/base_footprint,0,1638021346761446111,alta/m1vW10zy74W/map,-9.17985333857,5.56536385972,0.0,0.0,0.0,-0.619191210924,0.78524024624,0,67.2387161255,21.9156684875,48.6774864197,96.5878448486,50.0530815125,50.0530815125,67.2387161255,67.2387161255,37.9926567078,-0.185179620981,0.0,0.0398142598569,0.0869853794575,0.162958994508,0.123144723475,8.60375213623,0.281910717487,-1.29849243164,-0.0136268362403,-0.0877532958984,-0.00175628380384,-4.96548843384,-0.150345563889,30.5194206238,95.289352417,49.9653282166,33.0271682739,68
1638021346861426167,61,1638021346861426167,r200191364/base_footprint,0,1638021346861426445,alta/m1vW10zy74W/map,-9.17985333857,5.56536385972,0.0,0.0,0.0,-0.619191210924,0.78524024624,0,67.2149047852,23.9979171753,48.5385169983,96.5878448486,50.0822868347,50.0822868347,67.2149047852,67.2149047852,38.7366333008,-0.186030060053,0.0,0.0408963747323,0.0967222303152,0.183667466044,0.142771080136,6.52150344849,0.213683724403,-1.29849243164,-0.0136268362403,-0.116958618164,-0.00234079547226,-5.70946502686,-0.172871768475,30.5194206238,95.289352417,49.9653282166,33.0271682739,68
1638021346961398305,62,1638021346961398305,r200191364/base_footprint,0,1638021346961398947,alta/m1vW10zy74W/map,-9.1676755659,5.50496976094,0.0,0.0,0.0,-0.600063569233,0.799952319129,0,67.298210144,26.4705886841,48.306804657,96.2770614624,50.2749519348,50.2749519348,67.298210144,67.298210144,38.1991424561,0.015740999952,0.0,0.042282987386,0.101815804839,0.185378327966,0.143095344305,6.16818618774,0.188983380795,-0.790626525879,-0.00827998761088,0.550468444824,0.0108305737376,-5.99439239502,-0.186133801937,32.6387748718,95.4864349365,50.8254203796,32.204750061,104
1638021347060753730,63,1638021347060753730,r200191364/base_footprint,0,1638021347060753942,alta/m1vW10zy74W/map,-9.14665464964,5.44807865413,0.0,0.0,0.0,-0.574604141628,0.818431475705,0,67.54322052,27.684835434,48.1082077026,96.3250274658,50.3080062866,50.3080062866,67.54322052,67.54322052,34.3186378479,-0.21884226799,0.0,0.0424159839749,0.115066900849,0.157119229436,0.11470323801,3.92389678955,0.124139644206,-0.787895202637,-0.0082470048219,0.0260772705078,0.000518083747011,-1.97054290771,-0.0609168149531,31.6087322235,95.5371322632,50.3340835571,32.3480949402,133
1638021347160789920,64,1638021347160789920,r200191364/base_footprint,0,1638021347160790067,alta/m1vW10zy74W/map,-9.11757101841,5.38476592271,0.0,0.0,0.0,-0.556683506909,0.830724667465,0,67.5830917358,27.2727279663,47.921207428,95.9904327393,50.4244766235,50.4244766235,67.5830917358,67.5830917358,33.654258728,-0.409402340651,0.0,0.041396394372,0.120945386589,0.167371764779,0.125975370407,4.60940551758,0.144576445222,-0.306945800781,-0.0032079287339,0.16569519043,0.00327524472959,-1.29339599609,-0.0399679094553,31.8821334839,95.6834869385,50.590171814,32.3608627319,173
1638021347260660852,65,1638021347260660852,r200191364/base_footprint,0,1638021347260661050,alta/m1vW10zy74W/map,-9.10780246886,5.36462004101,0.0,0.0,0.0,-0.553241442507,0.833020951893,0,67.4972610474,27.684835434,47.5783081055,96.2969970703,50.6783599854,50.6783599854,67.4972610474,67.4972610474,39.0447273254,-0.173608720303,0.0,0.0417531132698,0.129066035151,0.201029911637,0.159276798368,4.19729804993,0.131650477648,-0.613510131836,-0.00641187047586,-0.0881881713867,-0.00174318777863,-6.68386459351,-0.206541612744,31.8821334839,95.6834869385,50.590171814,32.3608627319,173
1638021347361612030,66,1638021347361612030,r200191364/base_footprint,0,1638021347361613038,alta/m1vW10zy74W/map,-9.07757796702,5.29894391752,0.0,0.0,0.0,-0.53464180742,0.845078776067,0,67.7775878906,36.319480896,47.0836906433,96.3468170166,50.9169464111,50.9169464111,67.7775878906,67.7775878906,36.7549667358,-0.108335383236,0.0,0.0442681834102,0.134623736143,0.212718039751,0.16844984889,-4.53368186951,-0.142632305622,-0.608940124512,-0.00636049313471,-0.436653137207,-0.00864997226745,-4.29578781128,-0.132344320416,31.7857990265,95.7378768921,50.4802932739,32.4591789246,180
1638021347461226044,67,1638021347461226044,r200191364/base_footprint,0,1638021347461226404,alta/m1vW10zy74W/map,-9.05431222272,5.25293374765,0.0,0.0,0.0,-0.511260065504,0.859426055819,0,68.0910720825,32.6203193665,46.6844482422,95.920791626,51.1225242615,51.1225242615,68.0910720825,68.0910720825,31.7987518311,-0.12901070714,0.0,0.0462585166097,0.150329098105,0.236441701651,0.19018317759,-0.402885437012,-0.0125051997602,-0.15966796875,-0.00166735693347,-0.423923492432,-0.00836164131761,0.588348388672,0.0181661341339,32.2174339294,95.7611236572,50.698600769,32.3871002197,191
1638021347561046076,68,1638021347561046076,r200191364/base_footprint,0,1638021347561046258,alta/m1vW10zy74W/map,-8.98988640191,5.15453709083,0.0,0.0,0.0,-0.449719764909,0.893169711225,0,67.5913696289,33.2273445129,46.2395515442,95.7105102539,51.373336792,51.373336792,67.5913696289,67.5913696289,42.7452735901,-0.207142695785,0.0,0.0490223914385,0.159835994244,0.259294986725,0.210272580385,-1.50075340271,-0.0473027005792,0.0216598510742,0.000226254676818,-0.843112945557,-0.0166853200644,-10.1984329224,-0.313346326351,31.7265911102,95.732170105,50.5302238464,32.5468406677,196
1638021347660949805,69,1638021347660949805,r200191364/base_footprint,0,1638021347660949978,alta/m1vW10zy74W/map,-8.95689520015,5.1144824143,0.0,0.0,0.0,-0.410995785723,0.911637243709,0,68.341583252,35.924369812,45.7395362854,95.5351486206,51.5788574219,51.5788574219,68.341583252,68.341583252,30.8296890259,-0.12347214669,0.0,0.0504279918969,0.165382504463,0.271503776312,0.221075773239,-4.04149627686,-0.126760721207,0.187614440918,0.00195997720584,-1.04307174683,-0.0206402596086,1.89747238159,0.0579785183072,31.8828735352,95.7227630615,50.535785675,32.7271614075,189
1638021347761318298,70,1638021347761318298,r200191364/base_footprint,0,1638021347761318470,alta/m1vW10zy74W/map,-8.86068686215,5.02343239566,0.0,0.0,0.0,-0.313561113351,0.949568021889,0,68.132774353,43.874797821,45.3393173218,95.3076095581,51.8127174377,51.8127174377,68.132774353,68.132774353,36.2947731018,-0.231991365552,0.0,0.0512904264033,0.169860199094,0.287895739079,0.236605301499,-12.4615497589,-0.396697282791,0.404495239258,0.00422616582364,-1.51600265503,-0.0301411859691,-2.92532348633,-0.0876647233963,31.4132480621,95.7121047974,50.2967147827,33.3694496155,180
1638021347860668000,71,1638021347860668000,r200191364/base_footprint,0,1638021347860668144,alta/m1vW10zy74W/map,-8.81208140055,4.98736939592,0.0,0.0,0.0,-0.248671663571,0.96858783997,0,68.5507736206,41.7366943359,44.923538208,96.4917602539,52.0695381165,52.0695381165,68.5507736206,68.5507736206,35.8074874878,-0.115074746311,0.0,0.0525619387627,0.176892355084,0.292954534292,0.24039259553,-10.5110092163,-0.336614191532,-0.759742736816,-0.00793614052236,-1.8038482666,-0.035886272788,-2.23498153687,-0.0665717795491,31.2256851196,95.7320175171,50.2656898499,33.5725059509,179
1638021347960806222,72,1638021347960806222,r200191364/base_footprint,0,1638021347960806410,alta/m1vW10zy74W/map,-8.75139139608,4.95211124068,0.0,0.0,0.0,-0.183236680982,0.983068827063,0,68.8292999268,38.8235282898,44.6890716553,96.5202560425,52.2875862122,52.2875862122,68.8292999268,68.8292999268,33.2514686584,-0.316203832626,0.0,0.0540472567081,0.189088612795,0.262155145407,0.2081079036,-7.72887229919,-0.248559504747,-0.797691345215,-0.00833336822689,-2.0933303833,-0.0417045801878,0.240020751953,0.0071666194126,31.0946559906,95.7225646973,50.1942558289,33.4914894104,178
1638021348060809031,73,1638021348060809031,r200191364/base_footprint,0,1638021348060809233,alta/m1vW10zy74W/map,-8.65600002357,4.92554904102,0.0,0.0,0.0,-0.0883166242021,0.996092452481,0,68.8859024048,29.1833229065,44.6182174683,96.4842453003,52.3898963928,52.3898963928,68.8859024048,68.8859024048,33.2079353333,-0.489620059729,0.0,0.0516999810934,0.198829814792,0.232907429338,0.181207448244,1.49445724487,0.0487146489322,-0.755279541016,-0.00788976997137,-2.25985336304,-0.0450798198581,0.341777801514,0.0101872049272,30.6777801514,95.7289657593,50.1300430298,33.5497131348,165
1638021348160754212,74,1638021348160754212,r200191364/base_footprint,0,1638021348160754409,alta/m1vW10zy74W/map,-8.58957783925,4.91407523801,0.0,0.0,0.0,-0.0422849106296,0.999105593185,0,68.4724655151,31.4677333832,44.5148658752,96.4305038452,52.4557609558,52.4557609558,68.4724655151,68.4724655151,41.1676635742,-0.488233298063,0.0,0.0505751036108,0.212461099029,0.167952284217,0.117377176881,-1.0524597168,-0.0346029996872,-0.697090148926,-0.00728157628328,-2.40579605103,-0.0480678863823,-7.60258102417,-0.226502671838,30.4152736664,95.7334136963,50.0499649048,33.56508255,161
1638021348261088628,75,1638021348261088628,r200191364/base_footprint,0,1638021348261089029,alta/m1vW10zy74W/map,-8.5086789786,4.90876421091,0.0,0.0,0.0,0.00178246192646,0.999998411413,0,68.5136795044,42.8571434021,44.5531425476,96.1605148315,52.4587554932,52.4587554932,68.5136795044,68.5136795044,39.4862174988,-0.327954381704,0.0,0.0452950969338,0.212224066257,0.0913532823324,0.0460581891239,-12.6272392273,-0.417706876993,-0.449783325195,-0.00469940342009,-2.39354705811,-0.0478085912764,-5.98756408691,-0.178740441799,30.2299041748,95.7107315063,50.0652084351,33.4986534119,170
1638021348361106864,76,1638021348361106864,r200191364/base_footprint,0,1638021348361107095,alta/m1vW10zy74W/map,-8.34495768309,4.91673626363,0.0,0.0,0.0,0.0619311208941,0.99808042575,0,68.9526138306,45.0980377197,44.6427268982,96.2547302246,52.6357383728,52.6357383728,68.9526138306,68.9526138306,33.8359527588,-0.0337605588138,0.0,0.00550981285051,0.211123123765,0.0519768707454,0.0464670583606,-14.8524951935,-0.491063922644,-0.575218200684,-0.00601192656904,-2.25098800659,-0.0446759797633,-0.248092651367,-0.00738637847826,30.2455425262,95.6795120239,50.3847503662,33.5878601074,163
1638021348461100619,77,1638021348461100619,r200191364/base_footprint,0,1638021348461100818,alta/m1vW10zy74W/map,-8.26908513499,4.92605186808,0.0,0.0,0.0,0.0793240370267,0.996848883808,0,68.9623718262,41.1764717102,44.7941513062,96.1503753662,52.7029342651,52.7029342651,68.9623718262,68.9623718262,34.0103683472,-0.533130824566,0.0,0.00504772132263,0.213624715805,0.0438683070242,0.0388205870986,-11.0705795288,-0.367721349001,-0.506538391113,-0.00529609015211,-2.292552948,-0.0454777926207,-0.61039352417,-0.0182752683759,30.1058921814,95.6438369751,50.4103813171,33.399974823,155
1638021348560906978,78,1638021348560906978,r200191364/base_footprint,0,1638021348560907191,alta/m1vW10zy74W/map,-8.18183927158,4.93712984057,0.0,0.0,0.0,0.0944860288105,0.995526187681,0,68.5356216431,38.9140281677,45.0254020691,96.24559021,52.7095603943,52.7095603943,68.5356216431,68.5356216431,42.1061248779,-0.347137629986,0.0,0.00407374184579,0.220761120319,0.0261423736811,0.0220686327666,-9.23773574829,-0.311283349991,-0.657768249512,-0.006881297566,-2.40488433838,-0.047806378454,-8.56476974487,-0.255349546671,29.6762924194,95.5878219604,50.3046760559,33.5413551331,151
1638021348660762288,79,1638021348660762288,r200191364/base_footprint,0,1638021348660762416,alta/m1vW10zy74W/map,-8.09523559258,4.95529373008,0.0,0.0,0.0,0.10003232787,0.994984187503,0,68.2540512085,38.9140281677,45.2471580505,95.8264465332,52.7876434326,52.7876434326,68.2540512085,68.2540512085,46.5087852478,-0.672443509102,0.0,0.00303817959502,0.216564565897,0.00710014905781,0.00406196946278,-9.32220649719,-0.315026462078,-0.246894836426,-0.00258313445374,-2.48550033569,-0.0494114197791,-12.8122177124,-0.380223214626,29.5918216705,95.5795516968,50.3021430969,33.6965675354,161
1638021348760632961,80,1638021348760632961,r200191364/base_footprint,0,1638021348760633176,alta/m1vW10zy74W/map,-7.91562251487,4.98398518137,0.0,0.0,0.0,0.0995853722588,0.995029021502,0,68.6333770752,38.8696670532,45.6915855408,95.6529464722,52.8069190979,52.8069190979,68.6333770752,68.6333770752,39.2645111084,-0.18159994483,0.0,0.00173132529017,0.217389434576,0.00463488930836,0.00290356413461,-10.9072818756,-0.390069782734,-0.13761138916,-0.00144072563853,-2.73122024536,-0.0545418299735,-5.06504821777,-0.148103147745,27.9623851776,95.515335083,50.0756988525,34.1994628906,155
1638021348860457710,81,1638021348860457710,r200191364/base_footprint,0,1638021348860457855,alta/m1vW10zy74W/map,-7.80479900317,5.01647325982,0.0,0.0,0.0,0.0960376906161,0.995377698153,0,68.4450454712,25.3393669128,46.0729751587,95.4303970337,52.768535614,52.768535614,68.4450454712,68.4450454712,41.4387550354,-0.453264325857,0.0,3.35186341545e-05,0.213857427239,0.00593833997846,0.00597185827792,1.99466514587,0.072973690927,0.0303649902344,0.000318088714266,-2.78066253662,-0.0556267425418,-7.11684036255,-0.207355573773,27.3340320587,95.4607620239,49.9878730774,34.3219146729,162
1638021348960780015,82,1638021348960780015,r200191364/base_footprint,0,1638021348960780195,alta/m1vW10zy74W/map,-7.62027296478,5.03119403907,0.0,0.0,0.0,0.0847452347011,0.996402652142,0,68.0020523071,37.0995941162,46.4808120728,94.968460083,52.6807899475,52.6807899475,68.0020523071,68.0020523071,46.8020591736,-0.83132147789,0.0,0.000691882101819,0.218531191349,0.005901098717,0.00659298058599,-10.2332630157,-0.38089543581,0.389541625977,0.00408504391089,-2.86538314819,-0.0575200207531,-11.3821640015,-0.321349442005,26.8663311005,95.358001709,49.8154067993,35.4198951721,161
1638021349061272198,83,1638021349061272198,r200191364/base_footprint,0,1638021349061272386,alta/m1vW10zy74W/map,-7.52005373275,5.0450331963,0.0,0.0,0.0,0.0761519361674,0.997096225355,0,67.4718170166,36.0365524292,46.8878898621,94.6380691528,52.6204795837,52.6204795837,67.4718170166,67.4718170166,54.5055732727,-0.565635323524,0.0,0.000508442812134,0.225942954421,0.0196242518723,0.0191158093512,-9.41370773315,-0.353595107794,0.707740783691,0.00742288306355,-2.92357254028,-0.0588280595839,-18.2360267639,-0.502791702747,26.622844696,95.3458099365,49.6969070435,36.2695465088,171
1638021349161454160,84,1638021349161454160,r200191364/base_footprint,0,1638021349161454370,alta/m1vW10zy74W/map,-7.51419033761,5.04464564948,0.0,0.0,0.0,0.0750268747019,0.997181512099,0,67.967086792,43.4389152527,47.3566970825,94.9321517944,52.6430473328,52.6430473328,67.967086792,67.967086792,46.8931083679,-0.63218665123,0.0,0.0015449608909,0.234775274992,0.0275918375701,0.0260468758643,-16.8160705566,-0.631640613079,0.41365814209,0.00433850381523,-2.94614028931,-0.0592821650207,-10.6235618591,-0.292905837297,26.622844696,95.3458099365,49.6969070435,36.2695465088,171
1638021349260978091,85,1638021349260978091,r200191364/base_footprint,0,1638021349260978302,alta/m1vW10zy74W/map,-7.31904146502,5.0658169021,0.0,0.0,0.0,0.0570323794927,0.998372329189,0,68.1716156006,41.7366943359,47.6762046814,94.1359176636,52.6406478882,52.6406478882,68.1716156006,68.1716156006,40.3192024231,-0.980060219765,0.0,0.00334436981939,0.251222670078,0.0398431383073,0.0364987663925,-15.0251560211,-0.562496840954,1.19157409668,0.0124997952953,-3.00262451172,-0.0604904107749,-2.57668304443,-0.0682700350881,26.7115383148,95.3274917603,49.6380233765,37.7425193787,161
1638021349361061826,86,1638021349361061826,r200191364/base_footprint,0,1638021349361061968,alta/m1vW10zy74W/map,-7.23354413191,5.07216735034,0.0,0.0,0.0,0.0488382530633,0.998806700537,0,68.1244049072,38.4781417847,47.9159965515,94.2749938965,52.5169487,52.5169487,68.1244049072,68.1244049072,40.3336791992,-0.607063233852,0.0,0.00503055471927,0.268256694078,0.0459266602993,0.0408961065114,-11.6274681091,-0.433041960001,1.0551071167,0.0110679324716,-2.94659805298,-0.0594427511096,-1.67225265503,-0.043253775686,26.8506736755,95.3301010132,49.570350647,38.6614265442,164
1638021349460846330,87,1638021349460846330,r200191364/base_footprint,0,1638021349460846545,alta/m1vW10zy74W/map,-7.04854816989,5.08604468879,0.0,0.0,0.0,0.0361852909329,0.999345097912,0,68.2996520996,40.636806488,48.0929069519,93.5216293335,52.3881912231,52.3881912231,68.2996520996,68.2996520996,33.0765762329,-0.526547670364,0.0,0.00601233355701,0.293172240257,0.0303966123611,0.0243842788041,-13.6016902924,-0.503111958504,1.91688537598,0.020085029304,-2.99657058716,-0.0606696158648,6.21580123901,0.158193558455,27.0351161957,95.4385147095,49.391620636,39.2923774719,157
1638021349560674128,88,1638021349560674128,r200191364/base_footprint,0,1638021349560674360,alta/m1vW10zy74W/map,-6.94318754669,5.0986799187,0.0,0.0,0.0,0.0308826688929,0.999523016624,0,67.8379364014,42.7662963867,48.2086791992,93.9049224854,52.3223419189,52.3223419189,67.8379364014,67.8379364014,42.0562133789,-0.653536617756,0.0,0.00551504734904,0.310801148415,0.0104634808376,0.00494843348861,-15.599609375,-0.574218332767,1.54415893555,0.016177829355,-2.95087814331,-0.0597689002752,-2.18287277222,-0.0547451674938,27.1666870117,95.4490814209,49.3714637756,39.8733406067,164
1638021349660691819,89,1638021349660691819,r200191364/base_footprint,0,1638021349660692031,alta/m1vW10zy74W/map,-6.8525945153,5.10024394627,0.0,0.0,0.0,0.0260938126401,0.9996594985,0,68.2241821289,48.0657119751,48.2995033264,95.2364425659,52.3639831543,52.3639831543,68.2241821289,68.2241821289,40.3469429016,-0.677537441254,0.0,0.00405500037596,0.353817343712,0.03299080953,0.0289358086884,-20.5150203705,-0.74462813139,0.227012634277,0.00237800553441,-3.15613937378,-0.0641389489174,0.0796012878418,0.0019690352492,27.5506916046,95.4634552002,49.2078437805,40.4265441895,173
1638021349760732337,90,1638021349760732337,r200191364/base_footprint,0,1638021349760732594,alta/m1vW10zy74W/map,-6.66122261566,5.10265953662,0.0,0.0,0.0,0.0209219244012,0.999781112584,0,68.6599349976,46.6230926514,48.3629226685,96.3784866333,52.3461036682,52.3461036682,68.6599349976,68.6599349976,36.4216079712,-1.29465866089,0.0,0.00575259001926,0.379356920719,0.0520587973297,0.0463062077761,-19.4335155487,-0.71474134922,-0.839126586914,-0.00878304615617,-3.49020004272,-0.0714386552572,4.87647628784,0.118079960346,27.1895771027,95.5393600464,48.8559036255,41.298084259,173
1638021349861202866,91,1638021349861202866,r200191364/base_footprint,0,1638021349861204254,alta/m1vW10zy74W/map,-6.57366680563,5.10523686036,0.0,0.0,0.0,0.015755643974,0.999875872138,0,68.2425384521,45.0980377197,48.3476142883,96.7787475586,52.2695884705,52.2695884705,68.2425384521,68.2425384521,44.5493812561,-1.40732240677,0.0,0.00767976325005,0.404739379883,0.0602464713156,0.0525667071342,-18.9414215088,-0.724154114723,-1.26049041748,-0.0131963295862,-3.53559494019,-0.0725488439202,-3.20086669922,-0.0774118900299,26.1566162109,95.5182571411,48.7339935303,41.3485145569,181
1638021349961064805,92,1638021349961064805,r200191364/base_footprint,0,1638021349961065048,alta/m1vW10zy74W/map,-6.49582044308,5.10244416189,0.0,0.0,0.0,0.0130515326937,0.99991482512,0,68.290397644,43.9252319336,48.3140563965,96.4609603882,52.3230018616,52.3230018616,68.290397644,68.290397644,43.1206665039,-1.15922439098,0.0,0.00869863200933,0.438365191221,0.0741438791156,0.0654452443123,-18.0326728821,-0.696442306042,-0.911613464355,-0.00954076088965,-3.61036682129,-0.0741156116128,-1.72612380981,-0.041699308902,25.8925590515,95.5493469238,48.7126350403,41.3945426941,170
1638021350060742326,93,1638021350060742326,r200191364/base_footprint,0,1638021350060742499,alta/m1vW10zy74W/map,-6.39364735947,5.10613825542,0.0,0.0,0.0,0.0131545244366,0.9999134755,0,68.5428009033,39.4631652832,48.2883720398,96.5854568481,52.2819633484,52.2819633484,68.5428009033,68.5428009033,38.5824928284,-1.53435528278,0.0,0.0113504631445,0.50890392065,0.0980434194207,0.0866929590702,-14.2025566101,-0.562241256237,-1.05791473389,-0.011074447073,-3.54193496704,-0.0726699382067,2.74498748779,0.066420391202,25.2606086731,95.5275421143,48.7400283813,41.3274803162,171
1638021350161079324,94,1638021350161079324,r200191364/base_footprint,0,1638021350161079452,alta/m1vW10zy74W/map,-6.24823467742,5.10797309481,0.0,0.0,0.0,0.013073606681,0.999914536752,0,68.3387680054,35.9347686768,48.1980133057,96.7522201538,52.2032737732,52.2032737732,68.3387680054,68.3387680054,42.0055580139,-1.29820466042,0.0,0.0122067471966,0.542040288448,0.110583856702,0.0983771085739,-12.0187015533,-0.502536714077,-1.26779937744,-0.0132775520906,-3.85498809814,-0.0797337070107,-0.727077484131,-0.0176139585674,23.9160671234,95.4844207764,48.348285675,41.2784805298,176
1638021350260579123,95,1638021350260579123,r200191364/base_footprint,0,1638021350260579297,alta/m1vW10zy74W/map,-6.10895558883,5.11050391435,0.0,0.0,0.0,0.0123317378201,0.99992396123,0,68.3443756104,40.5940589905,48.1312522888,96.0436019897,52.3195800781,52.3195800781,68.3443756104,68.3443756104,40.6097259521,-0.497585088015,0.0,0.0133666917682,0.588955461979,0.127523720264,0.114157028496,-17.5901527405,-0.764659404755,-0.589324951172,-0.00617389800027,-4.00223922729,-0.0828323587775,0.955982208252,0.0229992996901,23.00390625,95.4542770386,48.3173408508,41.5657081604,167
1638021350360692618,96,1638021350360692618,r200191364/base_footprint,0,1638021350360692812,alta/m1vW10zy74W/map,-6.01084395149,5.11111082957,0.0,0.0,0.0,0.0123871686679,0.999923276083,0,67.7378387451,41.7475738525,48.2297019958,95.8550949097,52.2847099304,52.2847099304,67.7378387451,67.7378387451,50.4720878601,-1.10326969624,0.0,0.0154443047941,0.642604887486,0.120384342968,0.104940034449,-19.6843681335,-0.892180800438,-0.438331604004,-0.00459386361763,-4.22644424438,-0.0879441723228,-9.01723861694,-0.217519506812,22.063205719,95.4167633057,48.058265686,41.4548492432,167
1638021350460662653,97,1638021350460662653,r200191364/base_footprint,0,1638021350460662882,alta/m1vW10zy74W/map,-5.9226648273,5.11667832599,0.0,0.0,0.0,0.011078605056,0.999938630372,0,67.9029159546,34.8943443298,48.2965698242,95.4306030273,52.2873077393,52.2873077393,67.9029159546,67.9029159546,46.0006408691,-1.31310927868,0.0,0.0151125201955,0.701303184032,0.0898624286056,0.0747499093413,-13.491859436,-0.630387544632,-0.103996276855,-0.00109094695654,-4.33687591553,-0.0904449820518,-4.82736968994,-0.117245234549,21.4024848938,95.3266067505,47.9504318237,41.1732711792,151
1638021350560951800,98,1638021350560951800,r200191364/base_footprint,0,1638021350560951940,alta/m1vW10zy74W/map,-5.73454593799,5.11941689322,0.0,0.0,0.0,0.0106056510169,0.999943758502,0,67.8249359131,41.7161369324,48.4125785828,94.4329681396,52.4246292114,52.4246292114,67.8249359131,67.8249359131,45.2958221436,-1.12195909023,0.0,0.01311803516,0.74150365591,0.0696384310722,0.0565203949809,-20.2402153015,-0.94246083498,0.855583190918,0.00897886697203,-4.53502655029,-0.0946975201368,-4.31144714355,-0.10519734025,21.4759216309,95.2885513306,47.8896026611,40.984375,156
1638021350661066768,99,1638021350661066768,r200191364/base_footprint,0,1638021350661067124,alta/m1vW10zy74W/map,-5.64677907232,5.11917180837,0.0,0.0,0.0,0.00974093201378,0.999952555996,0,67.8477859497,42.7662963867,48.3940162659,94.2555007935,52.3416252136,52.3416252136,67.8477859497,67.8477859497,43.3492431641,-0.735231041908,0.0,0.0104931043461,0.830127954483,0.0404812246561,0.0299881193787,-21.4226207733,-1.00369870663,1.02073669434,0.0107134450227,-4.47281646729,-0.0934390574694,-2.39647293091,-0.0585179701447,21.3436756134,95.2762374878,47.8688087463,40.9527702332,148
1638021350760997016,100,1638021350760997016,r200191364/base_footprint,0,1638021350760997191,alta/m1vW10zy74W/map,-5.50125877663,5.12092768975,0.0,0.0,0.0,0.00837781008178,0.999964905533,0,67.9256134033,38.526763916,48.2704353333,95.0005187988,52.3642196655,52.3642196655,67.9256134033,67.9256134033,44.8743362427,-0.424673080444,0.0,0.00851584132761,0.888084590435,0.0241713747382,0.0156555343419,-15.4010810852,-0.665973007679,0.475799560547,0.00498343026266,-4.23038101196,-0.0878878831863,-4.05136871338,-0.0992423892021,23.1256828308,95.4763183594,48.1338386536,40.8229675293,160
1638021350860996911,101,1638021350860996911,r200191364/base_footprint,0,1638021350860997110,alta/m1vW10zy74W/map,-5.3686899853,5.12561711752,0.0,0.0,0.0,0.00773032835602,0.999970120565,0,68.4517364502,36.406993866,48.2833328247,95.0781402588,52.3350067139,52.3350067139,68.4517364502,68.4517364502,35.3681335449,-1.60357415676,0.0,0.00622184155509,0.960401415825,0.00248133670539,0.00374050508253,-12.7269325256,-0.537453532219,0.426193237305,0.00446255411953,-4.43585205078,-0.0926081463695,6.06581497192,0.146397218108,23.6800613403,95.5043334961,47.8991546631,41.4339485168,166
