%time,field.header.seq,field.header.stamp,field.header.frame_id,field.pose.header.seq,field.pose.header.stamp,field.pose.header.frame_id,field.pose.pose.position.x,field.pose.pose.position.y,field.pose.pose.position.z,field.pose.pose.orientation.x,field.pose.pose.orientation.y,field.pose.pose.orientation.z,field.pose.pose.orientation.w,field.label,field.main_output,field.scan_score,field.pose_score,field.cov_score,field.lhood_map_score,field.lhood_robot_score,field.lhood_map_score_all,field.lhood_robot_score_all,field.point_angle_diff,field.average_orientation,field.map_average_orientation,field.sensor_div,field.odom_div_x,field.odom_div_w,field.imu_div_w,field.kdtree_div,field.kdtree_div_p,field.cov_div,field.cov_div_p,field.likelihood_div,field.likelihood_div_p,field.normal_diff_div,field.normal_diff_div_p,field.kdtree_average,field.cov_average,field.likelihood_average,field.normal_diff_average,field.map_update_count
1.64953360258817E+018,0,1.64953360258817E+018,r200121355/base_footprint,0,1.64953360258817E+018,v/m1vw10zy74w/map,-1.17633220954,5.1351921027,0,0,0,0.00648949459151,0.999978943008,0,60.8517875671,27.4326553345,100,78.0418777466,46.5887832642,46.5887832642,60.8517875671,60.8517875671,48.7774391174,-1.57233679295,0,0.0025668204762,4.45928859711,0.00436682533473,0.00693364581093,-7.11552429199,-0.350222885609,5.32359313965,0.0638584941626,-2.25397109985,-0.0508397556841,-3.41289138794,-0.075232565403,20.31713104251,83.36547088625,44.33481216435,45.36454772946,1461
1.64953360268818E+018,1,1.64953360268818E+018,r200121355/base_footprint,0,1.64953360268818E+018,v/m1vw10zy74w/map,-0.890336956453,5.13933207653,0,0,0,0.00867217476574,0.999962395985,0,60.9993972778,24.4468421936,58.0871238708,79.1836471558,46.4721069336,46.4721069336,60.9993972778,60.9993972778,48.9706916809,-1.60087764263,0,0.00275674182922,4.45738983154,0.00487499218434,0.00763173401356,-1.72117042542,-0.0757368355989,7.09873199463,0.0822732523084,-1.82487106323,-0.0408731028438,-4.095287323,-0.0912590622902,22.72567176818,86.28237915043,44.64723587037,44.8754043579,2230
1.64953360278822E+018,2,1.64953360278822E+018,r200121355/base_footprint,0,1.64953360278822E+018,v/m1vw10zy74w/map,-0.890336956453,5.13933207653,0,0,0,0.00867217476574,0.999962395985,0,61.4156188965,20.5087432861,51.6598587036,79.1836471558,46.1834564209,46.1834564209,61.4156188965,61.4156188965,38.3612976074,-1.66400682926,0,0.00282662687823,4.45894241333,0.00480526965111,0.00763189699501,2.21692848206,0.0975517258048,7.09873199463,0.0822732523084,-1.53622055054,-0.0344079658389,6.51410675049,0.145159840584,22.72567176816,86.28237915043,44.64723587036,44.87540435789,2230
1.64953360298857E+018,3,1.64953360298857E+018,r200121355/base_footprint,0,1.64953360298857E+018,v/m1vw10zy74w/map,-0.599900652216,5.13859672075,0,0,0,0.00796750077659,0.999968258962,0,61.262878418,26.6055049896,51.6598587036,80.2996292114,46.0577697754,46.0577697754,61.262878418,61.262878418,43.7707557678,-1.07640659809,0,0.00302740558982,4.37124586105,0.0101638156921,0.0131912212819,-2.96334266663,-0.125341445208,7.19944000244,0.0822801887989,-1.17758560181,-0.0262384302914,0.493053436279,0.0111389746889,23.64216232297,87.49906921384,44.88018417359,44.263809204079,2834
1.64953360308832E+018,4,1.64953360308832E+018,r200121355/base_footprint,0,1.64953360308832E+018,v/m1vw10zy74w/map,-0.599900652216,5.13859672075,0,0,0,0.00796750077659,0.999968258962,0,61.1321678162,27.9279270172,47.5639038086,80.2996292114,46.0682106018,46.0682106018,61.1321678162,61.1321678162,46.2363624573,-1.3193526268,0,0.00319061381742,4.19040966034,0.018077980727,0.02126859501,-4.28576469421,-0.181276336312,7.19944000244,0.0822801887989,-1.18802642822,-0.0264710690826,-1.97255325317,-0.0445635691285,23.64216232299,87.49906921384,44.88018417358,44.26380920413,2834
1.64953360318805E+018,5,1.64953360318805E+018,r200121355/base_footprint,0,1.64953360318805E+018,v/m1vw10zy74w/map,-0.315787753331,5.14437606707,0,0,0,0.0097957700187,0.999952020294,0,61.1584968567,22.9567928314,47.5639038086,80.8530197144,45.7153701782,45.7153701782,61.1584968567,61.1584968567,43.9439048767,-1.0869833231,0,0.00319301965646,3.97537398338,0.0231274198741,0.026320438832,0.46475982666,0.0198432542384,6.91496276855,0.0787868499756,-0.946159362793,-0.0211341530085,0.273124694824,0.00617691176012,23.42155265806,87.76798248295,44.769210815407,44.217029571524,2885
1.64953360328798E+018,6,1.64953360328798E+018,r200121355/base_footprint,0,1.64953360328798E+018,v/m1vw10zy74w/map,-0.315787753331,5.14437606707,0,0,0,0.0097957700187,0.999952020294,0,60.6808547974,21.5686283112,47.6333732605,80.8530197144,45.4613800049,45.4613800049,60.6808547974,60.6808547974,49.7984046936,-1.42040598392,0,0.00314730778337,3.82666110992,0.0249682236463,0.0281155314296,1.85292434692,0.0791119337082,6.91496276855,0.0787868499756,-0.692169189453,-0.0154608311132,-5.58137512207,-0.126226827502,23.42155265812,87.76798248295,44.769210815447,44.21702957153,2885
1.6495336033896E+018,7,1.6495336033896E+018,r200121355/base_footprint,0,1.64953360338961E+018,v/m1vw10zy74w/map,-0.0433634112924,5.15152459121,0,0,0,0.0115140253107,0.999933711413,0,60.0681495667,24.6646022797,47.6333732605,77.8981552124,45.2591018677,45.2591018677,60.0681495667,60.0681495667,48.0049858093,-1.51543402672,0,0.00292357755825,3.56775999069,0.028046540916,0.0309701189399,-3.17311286926,-0.14764508605,8.79285430908,0.101427525282,-0.837036132812,-0.0188428014517,-3.85667037964,-0.0873571336269,21.49148941044,86.69100952148,44.422065734888,44.14831542966,2335
1.64953360348851E+018,8,1.64953360348851E+018,r200121355/base_footprint,0,1.64953360348851E+018,v/m1vw10zy74w/map,-0.00634771934731,5.15000619311,0,0,0,0.0125038217791,0.999921824165,0,60.7452545166,29.8245620728,47.5759735107,80.5689926147,45.1445922852,45.1445922852,60.7452545166,60.7452545166,44.1954116821,-1.4550549984,0,0.0029685178306,3.36112999916,0.0297913122922,0.0327598303556,-8.7384929657,-0.414420187473,5.7248840332,0.0663417205215,-0.824913024902,-0.0186127927154,-0.1125831604,-0.00255390047096,21.0860691071,86.2938766479,44.319679260298,44.0828285217,2201
1.64953360358808E+018,9,1.64953360358808E+018,r200121355/base_footprint,0,1.64953360358808E+018,v/m1vw10zy74w/map,-0.00634771934731,5.15000619311,0,0,0,0.0125038217791,0.999921824165,0,60.8348464966,28.9878120422,47.5759735107,80.5689926147,45.1922950745,45.1922950745,60.8348464966,60.8348464966,43.0978889465,-1.86113834381,0,0.00301893660799,3.16344261169,0.0287095215172,0.0317284576595,-7.90174293518,-0.374737590551,5.7248840332,0.0663417205215,-0.872615814209,-0.0196891278028,0.984939575195,0.0223429296166,21.08606910702,86.2938766479,44.319679260291,44.082828521695,2201
1.64953360368803E+018,10,1.64953360368803E+018,r200121355/base_footprint,0,1.64953360368803E+018,v/m1vw10zy74w/map,-0.00634771934731,5.15000619311,0,0,0,0.0125038217791,0.999921824165,0,60.7991714478,25.9634895325,47.3409538269,80.5689926147,45.1023788452,45.1023788452,60.7991714478,60.7991714478,42.7689628601,-0.970683217049,0,0.00277623767033,2.92117857933,0.0249570030719,0.0277332402766,-4.87742042542,-0.231310084462,5.7248840332,0.0663417205215,-0.782699584961,-0.0176603160799,1.31386566162,0.0298044774681,21.08606910708,86.2938766479,44.319679260239,44.08282852172,2201
1.64953360379064E+018,11,1.64953360379064E+018,r200121355/base_footprint,0,1.64953360379065E+018,v/m1vw10zy74w/map,0.284702007835,5.15734805583,0,0,0,0.0157990811156,0.999875186729,0,61.1829223633,21.2184867859,47.18151474,81.7377471924,44.8412475586,44.8412475586,61.1829223633,61.1829223633,37.2487869263,-0.933763444424,0,0.00277474848554,2.82556343079,0.0239700861275,0.0267448350787,-1.83458709717,-0.0946448892355,2.90714263916,0.0343451648951,-1.26666641235,-0.0290689300746,7.6891746521,0.171106442809,19.38389968873,84.64488983156,43.57458114625,44.9379615784,1738
1.64953360388801E+018,12,1.64953360388801E+018,r200121355/base_footprint,0,1.64953360388801E+018,v/m1vw10zy74w/map,0.284702007835,5.15734805583,0,0,0,0.0157990811156,0.999875186729,0,61.0681762695,25.3196926117,47.18151474,81.7377471924,44.7936439514,44.7936439514,61.0681762695,61.0681762695,38.8000793457,-1.10657954216,0,0.00309490831569,2.63757705688,0.0194564424455,0.0225513521582,-5.93579292297,-0.306222856045,2.90714263916,0.0343451648951,-1.21906280518,-0.0279764663428,6.13788223267,0.136585682631,19.38389968873,84.64488983156,43.57458114622,44.93796157837,1738
1.64953360398826E+018,13,1.64953360398826E+018,r200121355/base_footprint,0,1.64953360398826E+018,v/m1vw10zy74w/map,0.284702007835,5.15734805583,0,0,0,0.0157990811156,0.999875186729,0,61.022026062,17.6470584869,47.18151474,81.7377471924,44.6306419373,44.6306419373,61.022026062,61.022026062,37.8703575134,-1.4918743372,0,0.00328038423322,2.45139551163,0.00246673915535,0.0057471236214,1.73684120178,0.0896022617817,2.90714263916,0.0343451648951,-1.05606079102,-0.0242357067764,7.06760406494,0.157274693251,19.38389968868,84.64488983156,43.57458114628,44.93796157834,1738
1.64953360408822E+018,14,1.64953360408822E+018,r200121355/base_footprint,0,1.64953360408823E+018,v/m1vw10zy74w/map,0.284702007835,5.15734805583,0,0,0,0.0157990811156,0.999875186729,0,60.9629821777,21.2088508606,46.7522087097,81.7377471924,44.4446411133,44.4446411133,60.9629821777,60.9629821777,36.9243049622,-1.33339333534,0,0.00396516453475,2.2671585083,0.0162222292274,0.0122570637614,-1.82495117188,-0.0941477790475,2.90714263916,0.0343451648951,-0.870059967041,-0.0199671443552,8.01365661621,0.178327098489,19.38389968872,84.64488983156,43.574581146259,44.93796157841,1738
1.64953360418808E+018,15,1.64953360418808E+018,r200121355/base_footprint,0,1.64953360418808E+018,v/m1vw10zy74w/map,0.284702007835,5.15734805583,0,0,0,0.0157990811156,0.999875186729,0,60.4998092651,19.0501880646,46.3541946411,81.7377471924,44.257976532,44.257976532,60.4998092651,60.4998092651,43.2454566956,-0.805264294147,0,0.00494727073237,2.03572440147,0.0291989836842,0.0242517143488,0.333711624146,0.0172159187496,2.90714263916,0.0343451648951,-0.683395385742,-0.0156833492219,1.69250488281,0.0376631431282,19.383899688746,84.64488983156,43.574581146258,44.93796157841,1738
1.64953360428847E+018,16,1.64953360428847E+018,r200121355/base_footprint,0,1.64953360428848E+018,v/m1vw10zy74w/map,0.551205310935,5.15730536166,0,0,0,-0.014406618709,0.999896219283,0,60.7611045837,19.7361183167,46.3541946411,79.7832794189,44.0854492188,44.0854492188,60.7611045837,60.7611045837,29.6427783966,-0.996799767017,0,0.004886015784,1.80666399002,0.0303355138749,0.0254494976252,0.018669128418,0.000945043226238,6.11373901367,0.0711752176285,-0.88260269165,-0.0204292722046,14.8989810944,0.334494680166,19.754787445118,85.89701843257,43.20284652715,44.541759491,2230
1.64953360438804E+018,17,1.64953360438804E+018,r200121355/base_footprint,0,1.64953360438804E+018,v/m1vw10zy74w/map,0.551205310935,5.15730536166,0,0,0,-0.014406618709,0.999896219283,0,60.1149520874,19.7361183167,46.3541946411,79.7832794189,44.0002708435,44.0002708435,60.1149520874,60.1149520874,40.3535614014,-0.828022420406,0,0.00473873503506,1.67035353184,0.0280155614018,0.0232768263668,0.018669128418,0.000945043226238,6.11373901367,0.0711752176285,-0.797424316406,-0.018457679078,4.1881980896,0.0940285697579,19.754787445118,85.89701843257,43.202846527094,44.541759491,2230
1.6495336044882E+018,18,1.6495336044882E+018,r200121355/base_footprint,0,1.6495336044882E+018,v/m1vw10zy74w/map,0.551205310935,5.15730536166,0,0,0,-0.014406618709,0.999896219283,0,59.8861618042,21.2088508606,46.1346092224,79.7832794189,43.8268470764,43.8268470764,59.8861618042,59.8861618042,42.5988044739,-0.96805202961,0,0.00418975763023,1.53200352192,0.0250303987414,0.0208406411111,-1.45406341553,-0.0736056193709,6.11373901367,0.0711752176285,-0.624000549316,-0.0144435055554,1.94295501709,0.0436209775507,19.75478744507,85.89701843257,43.202846527084,44.54175949099,2230
1.64953360458855E+018,19,1.64953360458855E+018,r200121355/base_footprint,0,1.64953360458855E+018,v/m1vw10zy74w/map,0.718301131934,5.14415286039,0,0,0,-0.0663843379608,0.997794126899,0,60.1465148926,25.420167923,46.1011161804,81.6439590454,43.6745185852,43.6745185852,60.1465148926,60.1465148926,42.9657936096,-0.965514481068,0,0.00414863508195,1.30364179611,0.0187258217484,0.0145771875978,-5.46737670898,-0.274015635252,4.60372161865,0.0533779188991,-0.542446136475,-0.0125763984397,1.34534072876,0.0303612351418,19.95279121402,86.24768066405,43.132072448725,44.31113433836,2393
1.6495336046882E+018,20,1.6495336046882E+018,r200121355/base_footprint,0,1.6495336046882E+018,v/m1vw10zy74w/map,0.718301131934,5.14415286039,0,0,0,-0.0663843379608,0.997794126899,0,59.8038711548,14.1494436264,46.1011161804,81.6439590454,43.4169769287,43.4169769287,59.8038711548,59.8038711548,46.3519477844,-1.18026959896,0,0.0037701909896,1.12222099304,0.0115308631212,0.00776067236438,5.80334758759,0.290853917599,4.60372161865,0.0533779188991,-0.28490447998,-0.00660539744422,-2.04081344604,-0.0460564494133,19.95279121399,86.24768066405,43.13207244872,44.31113433836,2393
1.64953360478819E+018,21,1.64953360478819E+018,r200121355/base_footprint,0,1.64953360478819E+018,v/m1vw10zy74w/map,0.718301131934,5.14415286039,0,0,0,-0.0663843379608,0.997794126899,0,59.8858528137,17.3290939331,46.1011161804,81.6439590454,43.2761802673,43.2761802673,59.8858528137,59.8858528137,43.3556365967,-0.910821437836,0,0.00353234424256,0.939416110516,0.000880172592588,0.00265217153355,2.62369728088,0.131495252252,4.60372161865,0.0533779188991,-0.144107818604,-0.00334108271636,0.955497741699,0.0215633772314,19.95279121398,86.24768066405,43.132072448696,44.311134338399,2393
1.64953360498813E+018,22,1.64953360498813E+018,r200121355/base_footprint,0,1.64953360498813E+018,v/m1vw10zy74w/map,0.718301131934,5.14415286039,0,0,0,-0.0663843379608,0.997794126899,0,59.8079833984,20.1680679321,46.1011161804,81.6439590454,43.1682052612,43.1682052612,59.8079833984,59.8079833984,43.5911979675,-0.95388174057,0,0.00121233321261,0.508597254753,0.0477523207664,0.0489646531641,-0.21527671814,-0.010789303109,4.60372161865,0.0533779188991,-0.0361328125,-0.000837724946905,0.71993637085,0.0162473022938,19.95279121396,86.24768066405,43.1320724487,44.31113433835,2393
1.64953360509017E+018,23,1.64953360509017E+018,r200121355/base_footprint,0,1.64953360509017E+018,v/m1vw10zy74w/map,0.718301131934,5.14415286039,0,0,0,-0.0663843379608,0.997794126899,0,59.7226142883,20.1680679321,46.161315918,81.6439590454,43.081741333,43.081741333,59.7226142883,59.7226142883,44.1939926147,-0.820130944252,0,0.00056308566127,0.306192725897,0.0943522378802,0.0949153229594,-0.21527671814,-0.010789303109,4.60372161865,0.0533779188991,0.0503311157227,0.00116690690629,0.117141723633,0.00264361826703,19.95279121396,86.24768066405,43.1320724487227,44.311134338333,2393
1.64953360518827E+018,24,1.64953360518827E+018,r200121355/base_footprint,0,1.64953360518827E+018,v/m1vw10zy74w/map,0.718301131934,5.14415286039,0,0,0,-0.0663843379608,0.997794126899,0,60.2015762329,17.3290939331,46.161315918,81.6439590454,43.0375328064,43.0375328064,60.2015762329,60.2015762329,35.0952262878,-0.833985209465,0,0.00158238923177,0.119665205479,0.141611173749,0.140028789639,2.62369728088,0.131495252252,4.60372161865,0.0533779188991,0.094539642334,0.0021918641869,9.21590805054,0.20798176527,19.95279121398,86.24768066405,43.132072448734,44.31113433834,2393
1.64953360528834E+018,25,1.64953360528834E+018,r200121355/base_footprint,0,1.64953360528834E+018,v/m1vw10zy74w/map,0.718301131934,5.14415286039,0,0,0,-0.0663843379608,0.997794126899,0,59.7685165405,16.577539444,46.161315918,81.6439590454,42.7428703308,42.7428703308,59.7685165405,59.7685165405,39.7079772949,-0.979347467422,0,0.00465289643034,0.043721165508,0.171055644751,0.166402742267,3.37525177002,0.169161885977,4.60372161865,0.0533779188991,0.38920211792,0.00902349688113,4.60315704346,0.103882625699,19.95279121402,86.24768066405,43.13207244872,44.31113433836,2393
1.64953360538853E+018,26,1.64953360538853E+018,r200121355/base_footprint,0,1.64953360538853E+018,v/m1vw10zy74w/map,0.718301131934,5.14415286039,0,0,0,-0.0663843379608,0.997794126899,0,59.2898406982,15.2093267441,46.161315918,81.6439590454,42.5352478027,42.5352478027,59.2898406982,59.2898406982,46.0817947388,-0.747596442699,0,0.00674183294177,0.156851679087,0.178235769272,0.171493932605,4.74346446991,0.237734377384,4.60372161865,0.0533779188991,0.596824645996,0.0138371428475,-1.77066040039,-0.0399597175419,19.95279121401,86.24768066405,43.132072448696,44.31113433841,2393
1.64953360548819E+018,27,1.64953360548819E+018,r200121355/base_footprint,0,1.64953360548819E+018,v/m1vw10zy74w/map,0.913313074647,5.1099246686,0,0,0,-0.00803663922617,0.999967705694,0,59.512008667,18.7165775299,46.161315918,84.6607284546,42.4699058533,42.4699058533,59.512008667,59.512008667,52.2374572754,-0.761068403721,0,0.00740965269506,0.228632062674,0.175379037857,0.16796939075,1.0568523407,0.0534481033683,1.53703308105,0.01783147268,0.578380584717,0.0134356236085,-7.86909866333,-0.177358344197,19.7734298706,86.19776153565,43.048286438017,44.36835861207,2306
1.64953360558824E+018,28,1.64953360558824E+018,r200121355/base_footprint,0,1.64953360558824E+018,v/m1vw10zy74w/map,0.913313074647,5.1099246686,0,0,0,-0.00803663922617,0.999967705694,0,59.0083656311,18.7922954559,46.161315918,84.6607284546,42.2963676453,42.2963676453,59.0083656311,59.0083656311,59.4288024902,-0.835379421711,0,0.0078125949949,0.246747300029,0.173632711172,0.165820121765,0.981134414673,0.0496188290417,1.53703308105,0.01783147268,0.751918792725,0.0174668692052,-15.0604438782,-0.339441090822,19.773429870573,86.19776153565,43.048286438025,44.368358612,2306
1.64953360568829E+018,29,1.64953360568829E+018,r200121355/base_footprint,0,1.64953360568829E+018,v/m1vw10zy74w/map,0.913313074647,5.1099246686,0,0,0,-0.00803663922617,0.999967705694,0,59.3500862122,17.3290939331,46.161315918,84.6607284546,42.3523178101,42.3523178101,59.3500862122,59.3500862122,53.8821144104,-0.623323082924,0,0.00738893635571,0.253475248814,0.175348684192,0.167959749699,2.4443359375,0.123617194593,1.53703308105,0.01783147268,0.69596862793,0.0161671619862,-9.51375579834,-0.214426591992,19.7734298706,86.19776153565,43.04828643803,44.36835861206,2306
1.64953360588858E+018,30,1.64953360588858E+018,r200121355/base_footprint,0,1.64953360588858E+018,v/m1vw10zy74w/map,0.908210823847,5.10481356645,0,0,0,0.0542257823637,0.998528699902,0,59.88489151,10.7142858505,46.161315918,87.3975143433,42.3188705444,42.3188705444,59.88489151,59.88489151,53.7467803955,-0.375381976366,0,0.00511437747627,0.256475657225,0.189229592681,0.184115216136,9.05914402008,0.458147317171,-1.19975280762,-0.0139186074957,0.729415893555,0.0169441327453,-9.37842178345,-0.211376354098,19.77342987058,86.19776153568,43.048286437955,44.36835861205,2306
1.64953360598825E+018,31,1.64953360598825E+018,r200121355/base_footprint,0,1.64953360598825E+018,v/m1vw10zy74w/map,0.908210823847,5.10481356645,0,0,0,0.0542257823637,0.998528699902,0,59.9666557312,19.4488601685,46.3575668335,87.3975143433,42.2221183777,42.2221183777,59.9666557312,59.9666557312,51.2300987244,-0.530807435513,0,0.00348375737667,0.256414651871,0.201865285635,0.198381528258,0.324569702148,0.0164144355804,-1.19975280762,-0.0139186074957,0.826168060303,0.019191659987,-6.8617401123,-0.154653906822,19.773429870648,86.19776153568,43.048286438003,44.3683586121,2306
1.64953360608844E+018,32,1.64953360608844E+018,r200121355/base_footprint,0,1.64953360608844E+018,v/m1vw10zy74w/map,0.908210823847,5.10481356645,0,0,0,0.0542257823637,0.998528699902,0,60.4284248352,20.5087432861,46.3575668335,87.3975143433,42.2260322571,42.2260322571,60.4284248352,60.4284248352,42.9605140686,-0.425978332758,0,0.00162807316519,0.248725086451,0.236593827605,0.234965756536,-0.735313415527,-0.0371869429946,-1.19975280762,-0.0139186074957,0.822254180908,0.0191007405519,1.40784454346,0.0317308232188,19.773429870573,86.19776153568,43.048286438008,44.36835861206,2306
1.64953360618867E+018,33,1.64953360618867E+018,r200121355/base_footprint,0,1.64953360618867E+018,v/m1vw10zy74w/map,0.908210823847,5.10481356645,0,0,0,0.0542257823637,0.998528699902,0,60.5824356079,23.3193283081,46.3575668335,87.3975143433,42.3445014954,42.3445014954,60.5824356079,60.5824356079,41.4678115845,-1.14458858967,0,0.000644321669824,0.237004712224,0.275544792414,0.274900466204,-3.5458984375,-0.179326415062,-1.19975280762,-0.0139186074957,0.703784942627,0.0163487326354,2.90054702759,0.065374225378,19.7734298706,86.19776153568,43.048286438027,44.36835861209,2306
1.64953360628871E+018,34,1.64953360628871E+018,r200121355/base_footprint,0,1.64953360628871E+018,v/m1vw10zy74w/map,0.90981444735,5.10574456441,0,0,0,0.108380443561,0.994109490677,0,61.1241989136,22.6285114288,46.5513458252,89.7657623291,42.2947349548,42.2947349548,61.1241989136,61.1241989136,39.7043266296,-1.05244553089,0,0.00727998185903,0.180250331759,0.37809202075,0.370812028646,-2.85508155823,-0.144389793277,-3.56800079346,-0.0413931943476,0.753551483154,0.0175047963858,4.66403198242,0.105120681226,19.77342987057,86.19776153564,43.048286437954,44.36835861202,2306
1.64953360638835E+018,35,1.64953360638835E+018,r200121355/base_footprint,0,1.64953360638835E+018,v/m1vw10zy74w/map,0.90644761161,5.10277645296,0,0,0,0.171930345582,0.985109108814,0,60.9243354797,26.8680438995,46.5513458252,91.3770141602,42.4184150696,42.4184150696,60.9243354797,60.9243354797,50.4381256104,-1.00658249855,0,0.00870572589338,0.146247044206,0.379195094109,0.370489358902,-7.09461402893,-0.358795315027,-5.17925262451,-0.0600856989622,0.629871368408,0.0146317407489,-6.06976699829,-0.13680395484,19.77342987057,86.19776153569,43.048286438008,44.36835861211,2306
1.64953360648825E+018,36,1.64953360648825E+018,r200121355/base_footprint,0,1.64953360648825E+018,v/m1vw10zy74w/map,0.89815740002,5.10529308145,0,0,0,0.233262668219,0.972413763588,0,61.1872558594,18.8640975952,46.6745376587,91.3016815186,42.5205383301,42.5205383301,61.1872558594,61.1872558594,46.5372848511,-0.240214526653,0,0.0090091554448,0.130320176482,0.387560069561,0.37855091691,0.909332275391,0.0459875836968,-5.10391998291,-0.0592117458582,0.52774810791,0.0122594451532,-2.16892623901,-0.0488845258951,19.773429870591,86.19776153569,43.04828643801,44.36835861209,2306
1.64953360658812E+018,37,1.64953360658812E+018,r200121355/base_footprint,0,1.64953360658812E+018,v/m1vw10zy74w/map,0.89714221614,5.10726706335,0,0,0,0.35145771258,0.93620375788,0,61.7803001404,29.0060844421,46.6745376587,91.6281967163,42.8788299561,42.8788299561,61.7803001404,61.7803001404,40.9074478149,-1.05914413929,0,0.0097017288208,0.120574377477,0.41904732585,0.409345597029,-9.23265457153,-0.46692225337,-5.43043518066,-0.0629997253418,0.169456481934,0.00393642811105,3.46091079712,0.0780040323734,19.77342987057,86.19776153564,43.048286438034,44.36835861202,2306
1.64953360668818E+018,38,1.64953360668818E+018,r200121355/base_footprint,0,1.64953360668818E+018,v/m1vw10zy74w/map,0.897719916139,5.10491759651,0,0,0,0.353286960838,0.935515004317,0,61.7713127136,31.6239318848,46.8134384155,91.8910217285,43.4473571777,43.4473571777,61.7713127136,61.7713127136,48.1554946899,-1.30704331398,0,0.0112522589043,0.113509170711,0.43467977643,0.423427522182,-11.8505020142,-0.599314451218,-5.69326019287,-0.0660488158464,-0.399070739746,-0.00927030481398,-3.78713607788,-0.0853566899896,19.7734298706,86.19776153563,43.048286437954,44.36835861202,2306
1.64953360678863E+018,39,1.64953360678863E+018,r200121355/base_footprint,0,1.64953360678863E+018,v/m1vw10zy74w/map,0.901709881594,5.10257051479,0,0,0,0.410490298325,0.911864965322,0,62.1752700806,34.0770797729,46.9300193787,92.2618179321,43.817276001,43.817276001,62.1752700806,62.1752700806,46.2142829895,-1.43244707584,0,0.0114411162212,0.109180167317,0.429618775845,0.41817766428,-14.3036499023,-0.723377287388,-6.06405639648,-0.0703505054116,-0.768989562988,-0.0178634189069,-1.84592437744,-0.0416045226157,19.7734298706,86.19776153562,43.048286438012,44.36835861206,2306
1.64953360688808E+018,40,1.64953360688808E+018,r200121355/base_footprint,0,1.64953360688808E+018,v/m1vw10zy74w/map,0.901709881594,5.10257051479,0,0,0,0.410490298325,0.911864965322,0,62.4515380859,35.0912780762,47.0754394531,92.2618179321,44.2855491638,44.2855491638,62.4515380859,62.4515380859,46.2987480164,-1.24419701099,0,0.0114071499556,0.10616081953,0.423221975565,0.411814838648,-15.3178482056,-0.774668216705,-6.06405639648,-0.0703505054116,-1.23726272583,-0.0287412777543,-1.9303894043,-0.043508246541,19.7734298706,86.19776153562,43.04828643797,44.3683586121,2306
1.64953360698858E+018,41,1.64953360698858E+018,r200121355/base_footprint,0,1.64953360698858E+018,v/m1vw10zy74w/map,0.895799172001,5.09955527949,0,0,0,0.467440432481,0.884024570972,0,62.964641571,34.6405220032,47.0754394531,93.044921875,44.6364822388,44.6364822388,62.964641571,62.964641571,43.6721954346,-0.722931981087,0,0.0111406482756,0.103712372482,0.418239861727,0.407099217176,-14.8670921326,-0.751872181892,-6.84716033936,-0.0794354751706,-1.58819580078,-0.0368933565915,0.69616317749,0.0156905334443,19.7734298706,86.19776153564,43.04828643802,44.36835861209,2306
1.64953360708814E+018,42,1.64953360708814E+018,r200121355/base_footprint,0,1.64953360708814E+018,v/m1vw10zy74w/map,0.895010153767,5.09502135791,0,0,0,0.521126846669,0.853479237991,0,62.9399719238,31.2857894897,47.2122993469,93.5209579468,45.0294685364,45.0294685364,62.9399719238,62.9399719238,50.0742034912,-0.731562793255,0,0.0115196853876,0.100753463805,0.406991004944,0.395471334457,-11.5123596191,-0.582213580608,-7.32319641113,-0.0849580839276,-1.98118209839,-0.0460223220289,-5.70584487915,-0.128601670265,19.7734298706,86.19776153567,43.04828643801,44.36835861205,2306
1.6495336071885E+018,43,1.6495336071885E+018,r200121355/base_footprint,0,1.6495336071885E+018,v/m1vw10zy74w/map,0.895010153767,5.09502135791,0,0,0,0.521126846669,0.853479237991,0,63.2950210571,36.5728912354,47.5563735962,93.5209579468,45.3760871887,45.3760871887,63.2950210571,63.2950210571,47.4268035889,-1.22975325584,0,0.0116064157337,0.0994796380401,0.394750654697,0.383144259453,-16.7994613647,-0.849597752094,-7.32319641113,-0.0849580839276,-2.32780075073,-0.0540741793811,-3.05844497681,-0.0689330175519,19.7734298707,86.19776153567,43.04828643797,44.36835861209,2306
1.64953360728812E+018,44,1.64953360728812E+018,r200121355/base_footprint,0,1.64953360728812E+018,v/m1vw10zy74w/map,0.891801008283,5.08762606829,0,0,0,0.573532311001,0.81918293942,0,63.4696655273,37.5959091187,50.0114822388,93.5096435547,45.6402206421,45.6402206421,63.4696655273,63.4696655273,47.0951347351,-1.09086370468,0,0.011137929745,0.0924978032708,0.370181173086,0.359043240547,-17.9127006531,-0.910049855709,-7.34662628174,-0.0852642655373,-2.60373306274,-0.0605005957186,-2.72355270386,-0.0613805651665,19.6832084656,86.16301727296,43.03648757936,44.37158203124,2275
1.6495336073889E+018,45,1.6495336073889E+018,r200121355/base_footprint,0,1.6495336073889E+018,v/m1vw10zy74w/map,0.890923759335,5.08812597005,0,0,0,0.618137187808,0.786070236715,0,63.4780426025,29.8245620728,52.1791496277,93.061378479,45.7840919495,45.7840919495,63.4780426025,63.4780426025,46.8843727112,-1.81484210491,0,0.0104850400239,0.0621501393616,0.3456825912,0.33519756794,-10.1413536072,-0.515228688717,-6.89836120605,-0.0800617411733,-2.74760437012,-0.0638436004519,-2.51279067993,-0.0566306300461,19.6832084656,86.16301727295,43.03648757938,44.37158203127,2275
1.64953360748814E+018,46,1.64953360748814E+018,r200121355/base_footprint,0,1.64953360748814E+018,v/m1vw10zy74w/map,0.893336643365,5.085547754,0,0,0,0.619974191265,0.784622203462,0,63.5805435181,38.5736579895,52.1791496277,93.9912338257,46.0145301819,46.0145301819,63.5805435181,63.5805435181,50.8755683899,-1.27667307854,0,0.00862447172403,0.0144538246095,0.279346436262,0.270721971989,-18.8904495239,-0.959724128246,-7.82821655273,-0.0908535569906,-2.97804260254,-0.0691980868578,-6.50398635864,-0.146579995751,19.6832084656,86.16301727297,43.03648757936,44.37158203126,2275
1.64953360918907E+018,47,1.64953360918907E+018,r200121355/base_footprint,0,1.64953360918907E+018,v/m1vw10zy74w/map,0.897427869876,5.08214780787,0,0,0,0.665381221607,0.746503737387,0,64.1629562378,38.0252113342,52.9053344727,94.48853302,46.1898651123,46.1898651123,64.1629562378,64.1629562378,44.0760536194,-1.52493596077,0,0.00501155806705,0.0246412344277,0.111330553889,0.106318995357,-18.3420028687,-0.93186044693,-8.32551574707,-0.0966251641512,-3.15337753296,-0.0732721835375,0.295528411865,0.00666030822322,19.6832084655,86.16301727293,43.03648757934,44.371582031265,2275
1.64953360928819E+018,48,1.64953360928819E+018,r200121355/base_footprint,0,1.64953360928819E+018,v/m1vw10zy74w/map,0.897427869876,5.08214780787,0,0,0,0.665381221607,0.746503737387,0,64.0561065674,31.1075782776,54.2128715515,94.48853302,46.3177261353,46.3177261353,64.0561065674,64.0561065674,47.3802337646,-1.62817895412,0,0.00492077646777,0.0723154097795,0.106218218803,0.101297438145,-11.424369812,-0.580411970615,-8.32551574707,-0.0966251641512,-3.28123855591,-0.0762431770563,-3.0086517334,-0.067805826664,19.6832084656,86.16301727293,43.03648757939,44.3715820312,2275
1.64953360938838E+018,49,1.64953360938838E+018,r200121355/base_footprint,0,1.64953360938838E+018,v/m1vw10zy74w/map,0.897427869876,5.08214780787,0,0,0,0.665381221607,0.746503737387,0,63.7986755371,31.1075782776,54.2128715515,94.48853302,46.4715385437,46.4715385437,63.7986755371,63.7986755371,53.6751670837,-1.21040070057,0,0.00508833536878,0.0963983684778,0.106362685561,0.101274356246,-11.424369812,-0.580411970615,-8.32551574707,-0.0966251641512,-3.43505096436,-0.0798171758652,-9.30358505249,-0.209674403071,19.6832084656,86.16301727293,43.03648757934,44.37158203121,2275
1.64953360948801E+018,50,1.64953360948801E+018,r200121355/base_footprint,0,1.64953360948801E+018,v/m1vw10zy74w/map,0.897427869876,5.08214780787,0,0,0,0.665381221607,0.746503737387,0,64.256729126,32.773109436,54.2128715515,94.48853302,46.6065254211,46.6065254211,64.256729126,64.256729126,46.8881149292,-1.45484817028,0,0.00474723614752,0.119561083615,0.114793926477,0.110046692193,-13.0899009705,-0.665028810501,-8.32551574707,-0.0966251641512,-3.5700378418,-0.0829537436366,-2.51653289795,-0.0567149706185,19.6832084655,86.16301727293,43.0364875793,44.37158203125,2275
1.64953360958829E+018,51,1.64953360958829E+018,r200121355/base_footprint,0,1.64953360958829E+018,v/m1vw10zy74w/map,0.895668961947,5.12935190015,0,0,0,0.703083461642,0.711107337865,0,64.1241836548,34.2872276306,54.2128715515,93.4344177246,46.7053337097,46.7053337097,64.1241836548,64.1241836548,46.5461502075,-1.69643378258,0,0.00497863860801,0.12206839025,0.118022531271,0.113043896854,-14.51379776,-0.734005093575,-7.23665618896,-0.0839541107416,-3.65704727173,-0.0849522128701,-2.17779159546,-0.0490843392909,19.7734298706,86.19776153564,43.04828643797,44.36835861204,2306
1.6495336096882E+018,52,1.6495336096882E+018,r200121355/base_footprint,0,1.6495336096882E+018,v/m1vw10zy74w/map,0.895668961947,5.12935190015,0,0,0,0.703083461642,0.711107337865,0,63.961265564,30.6722698212,54.2128715515,93.4344177246,46.7276573181,46.7276573181,63.961265564,63.961265564,49.7198143005,-1.7663923502,0,0.00557338027284,0.122841618955,0.115991868079,0.110418491066,-10.8988399506,-0.551186084747,-7.23665618896,-0.0839541107416,-3.67937088013,-0.0854707881808,-5.35145568848,-0.120614238083,19.7734298706,86.19776153564,43.04828643797,44.36835861202,2306
1.64953360978832E+018,53,1.64953360978832E+018,r200121355/base_footprint,0,1.64953360978832E+018,v/m1vw10zy74w/map,0.895668961947,5.12935190015,0,0,0,0.703083461642,0.711107337865,0,64.0436706543,30.0476951599,54.2128715515,93.4344177246,46.7900276184,46.7900276184,64.0436706543,64.0436706543,48.910068512,-1.5337677002,0,0.00572868809104,0.122683688998,0.106529571116,0.1008008793,-10.2742652893,-0.519599556923,-7.23665618896,-0.0839541107416,-3.74174118042,-0.0869196280837,-4.5417098999,-0.102363713086,19.7734298706,86.19776153564,43.04828643798,44.3683586121,2306
1.6495336098891E+018,54,1.6495336098891E+018,r200121355/base_footprint,0,1.6495336098891E+018,v/m1vw10zy74w/map,0.895668961947,5.12935190015,0,0,0,0.703083461642,0.711107337865,0,63.6760673523,32.6203193665,54.7118644714,93.4344177246,46.9519348145,46.9519348145,63.6760673523,63.6760673523,57.2755622864,-1.48616087437,0,0.00531126512215,0.122687898576,0.0987698659301,0.0934586003423,-12.8468894958,-0.649704635143,-7.23665618896,-0.0839541107416,-3.90364837646,-0.0906806886196,-12.9072036743,-0.290910094976,19.7734298707,86.19776153564,43.04828643804,44.3683586121,2306
1.6495336099883E+018,55,1.6495336099883E+018,r200121355/base_footprint,0,1.6495336099883E+018,v/m1vw10zy74w/map,0.895668961947,5.12935190015,0,0,0,0.703083461642,0.711107337865,0,64.4414367676,31.5508022308,54.7118644714,93.4344177246,46.9285583496,46.9285583496,64.4414367676,64.4414367676,43.246509552,-1.45117604733,0,0.00461506890133,0.123174123466,0.0880897119641,0.0834746435285,-11.7773723602,-0.595616042614,-7.23665618896,-0.0839541107416,-3.88027191162,-0.0901376605034,1.12184906006,0.0252848900855,19.7734298706,86.19776153564,43.04828643798,44.36835861206,2306
1.6495336100882E+018,56,1.6495336100882E+018,r200121355/base_footprint,0,1.6495336100882E+018,v/m1vw10zy74w/map,0.895668961947,5.12935190015,0,0,0,0.703083461642,0.711107337865,0,64.3046722412,34.7593574524,54.7118644714,93.4344177246,46.9502487183,46.9502487183,64.3046722412,64.3046722412,45.9425239563,-1.55596637726,0,0.00416636932641,0.123614177108,0.0737145394087,0.0695481747389,-14.9859275818,-0.75788205862,-7.23665618896,-0.0839541107416,-3.90196228027,-0.0906415209174,-1.57416534424,-0.0354794599116,19.7734298706,86.19776153564,43.04828643803,44.36835861206,2306
1.64953361018845E+018,57,1.64953361018845E+018,r200121355/base_footprint,0,1.64953361018845E+018,v/m1vw10zy74w/map,0.896257508933,5.39783609393,0,0,0,0.707263433947,0.706950093713,0,63.0945320129,35.8288764954,54.7118644714,88.0379333496,47.038860321,47.038860321,63.0945320129,63.0945320129,49.2547225952,-1.58746349812,0,0.00350854732096,0.123599275947,0.0220570228994,0.0185484755784,-14.8055934906,-0.70424747467,-1.27445983887,-0.0146888978779,-3.63441085815,-0.0837336033583,-4.98778152466,-0.112675085664,21.0232830048,86.76347351073,43.40444946285,44.26694107054,2562
1.64953361029076E+018,58,1.64953361029076E+018,r200121355/base_footprint,0,1.64953361029076E+018,v/m1vw10zy74w/map,0.895209844652,5.40391371546,0,0,0,0.707541342096,0.706671953048,0,63.8810997009,33.6898384094,54.7118644714,89.4103088379,47.0431556702,47.0431556702,63.8810997009,63.8810997009,40.0834007263,-0.97730243206,0,0.00209472584538,0.123431287706,0.00740668643266,0.00531196082011,-12.6665554047,-0.60250133276,-2.64683532715,-0.0305063314736,-3.63870620728,-0.0838325619698,4.18354034424,0.0945071056485,21.0232830047,86.76347351075,43.40444946292,44.26694107054,2562
1.64953361048818E+018,59,1.64953361048818E+018,r200121355/base_footprint,0,1.64953361048818E+018,v/m1vw10zy74w/map,0.895209844652,5.40391371546,0,0,0,0.707541342096,0.706671953048,0,63.5189704895,36.8983955383,54.7118644714,89.4103088379,47.0561141968,47.0561141968,63.5189704895,63.5189704895,46.7417106628,-1.451592803,0,0.000477260240586,0.123415119946,0.00109159969725,0.000614339427557,-15.8751125336,-0.755120515823,-2.64683532715,-0.0305063314736,-3.65166473389,-0.0841311141849,-2.47476959229,-0.0559055916965,21.0232830047,86.76347351075,43.40444946291,44.26694107051,2562
1.64953361058832E+018,60,1.64953361058832E+018,r200121355/base_footprint,0,1.64953361058832E+018,v/m1vw10zy74w/map,0.895209844652,5.40391371546,0,0,0,0.707541342096,0.706671953048,0,63.4094734192,33.081489563,54.7118644714,89.4103088379,46.9009590149,46.9009590149,63.4094734192,63.4094734192,47.0369300842,-0.988703787327,0,0.000327154411934,0.123935423791,0.000356586853741,0.000683741294779,-12.0582065582,-0.57356441021,-2.64683532715,-0.0305063314736,-3.496509552,-0.0805564746261,-2.76998901367,-0.0625746622682,21.0232830048,86.76347351075,43.4044494629,44.26694107053,2562
1.64953361068816E+018,61,1.64953361068816E+018,r200121355/base_footprint,0,1.64953361068816E+018,v/m1vw10zy74w/map,0.895209844652,5.40391371546,0,0,0,0.707541342096,0.706671953048,0,63.6276435852,33.081489563,52.9623565674,89.4103088379,46.7741661072,46.7741661072,63.6276435852,63.6276435852,41.7405014038,-0.892804205418,0,0.000721311953384,0.124219104648,0.000396194605855,0.000325117376633,-12.0582065582,-0.57356441021,-2.64683532715,-0.0305063314736,-3.36971664429,-0.0776352807879,2.52643966675,0.0570728331804,21.0232830048,86.76347351075,43.40444946291,44.26694107055,2562
1.64953361078827E+018,62,1.64953361078827E+018,r200121355/base_footprint,0,1.64953361078827E+018,v/m1vw10zy74w/map,0.895209844652,5.40391371546,0,0,0,0.707541342096,0.706671953048,0,63.4107818604,28.3422451019,52.9623565674,89.4103088379,46.7549324036,46.7549324036,63.4107818604,63.4107818604,45.4362831116,-0.884541630745,0,0.00104029045906,0.124190427363,0.00135679834057,0.000316507881507,-7.31896209717,-0.348136007786,-2.64683532715,-0.0305063314736,-3.35048294067,-0.0771921575069,-1.16934204102,-0.0264156963676,21.02328300473,86.76347351075,43.40444946293,44.26694107058,2562
1.64953361088814E+018,63,1.64953361088814E+018,r200121355/base_footprint,0,1.64953361088814E+018,v/m1vw10zy74w/map,0.895209844652,5.40391371546,0,0,0,0.707541342096,0.706671953048,0,63.6537094116,35.8288764954,52.9623565674,89.4103088379,46.928527832,46.928527832,63.6537094116,63.6537094116,42.9384422302,-0.817771673203,0,0.000998264644295,0.124527566135,0.000134161251481,0.00086410343647,-14.8055934906,-0.70424747467,-2.64683532715,-0.0305063314736,-3.52407836914,-0.081191636622,1.32849884033,0.0300110820681,21.0232830048,86.76347351075,43.40444946286,44.26694107053,2562
1.64953361098862E+018,64,1.64953361098862E+018,r200121355/base_footprint,0,1.64953361098862E+018,v/m1vw10zy74w/map,0.889789837548,5.66620108763,0,0,0,0.708595347006,0.705615075095,0,62.0467529297,28.9878120422,52.9623565674,81.1866378784,47.0464859009,47.0464859009,62.0467529297,62.0467529297,43.5324134827,-0.975558042526,0,0.000892194395419,0.124706849456,0.00439821183681,0.00529040629044,-4.9339466095,-0.205120742321,6.1049041748,0.0699369460344,-2.71753692627,-0.0613038875163,0.487510681152,0.0110747730359,24.0538654327,87.2915420532,44.32894897463,44.019924163852,1114
1.64953361108815E+018,65,1.64953361108815E+018,r200121355/base_footprint,0,1.64953361108815E+018,v/m1vw10zy74w/map,0.889789837548,5.66620108763,0,0,0,0.708595347006,0.705615075095,0,62.2252044678,29.4117641449,52.9623565674,81.1866378784,47.1072921753,47.1072921753,62.2252044678,62.2252044678,40.9769363403,-0.838656306267,0,0.00149229855742,0.124855622649,0.00702576432377,0.00851806253195,-5.35789871216,-0.222745850682,6.1049041748,0.0699369460344,-2.77834320068,-0.0626755952835,3.04298782349,0.0691275149584,24.05386543274,87.2915420532,44.32894897462,44.01992416379,1114
1.64953361118827E+018,66,1.64953361118827E+018,r200121355/base_footprint,0,1.64953361118827E+018,v/m1vw10zy74w/map,0.889789837548,5.66620108763,0,0,0,0.708595347006,0.705615075095,0,62.3325157166,29.8434963226,52.9623565674,81.1866378784,47.1305084229,47.1305084229,62.3325157166,62.3325157166,39.2961196899,-0.812199950218,0,0.00206456589513,0.125073835254,0.00945633091033,0.0115208970383,-5.78963088989,-0.240694403648,6.1049041748,0.0699369460344,-2.80155944824,-0.0631993189454,4.72380447388,0.107310600579,24.05386543271,87.2915420532,44.32894897466,44.01992416378,1114
1.64953361128818E+018,67,1.64953361128818E+018,r200121355/base_footprint,0,1.64953361128818E+018,v/m1vw10zy74w/map,0.889789837548,5.66620108763,0,0,0,0.708595347006,0.705615075095,0,61.9150161743,27.684835434,50.3399963379,81.1866378784,47.2514038086,47.2514038086,61.9150161743,61.9150161743,48.1167755127,-0.666427433491,0,0.00250939233229,0.125362530351,0.00847406964749,0.0109834624454,-3.63097000122,-0.150951623917,6.1049041748,0.0699369460344,-2.92245483398,-0.0659265518188,-4.09685134888,-0.0930681154132,24.05386543278,87.2915420532,44.32894897462,44.01992416382,1114
1.6495336113881E+018,68,1.6495336113881E+018,r200121355/base_footprint,0,1.6495336113881E+018,v/m1vw10zy74w/map,0.889789837548,5.66620108763,0,0,0,0.708595347006,0.705615075095,0,62.7010345459,29.8434963226,50.3399963379,81.1866378784,47.3592910767,47.3592910767,62.7010345459,62.7010345459,35.1336021423,-0.472552418709,0,0.0026020349469,0.125439420342,0.00678837439045,0.00939040910453,-5.78963088989,-0.240694403648,6.1049041748,0.0699369460344,-3.03034210205,-0.0683603435755,8.88632202148,0.201870456338,24.05386543271,87.2915420532,44.32894897465,44.01992416378,1114
1.64953361148834E+018,69,1.64953361148834E+018,r200121355/base_footprint,0,1.64953361148834E+018,v/m1vw10zy74w/map,0.889789837548,5.66620108763,0,0,0,0.708595347006,0.705615075095,0,62.3443603516,25.1336898804,50.3399963379,81.1866378784,47.2879066467,47.2879066467,62.3443603516,62.3443603516,40.7828178406,-0.705613136292,0,0.00282436562702,0.125318720937,0.00235167145729,0.00517603708431,-1.07982444763,-0.0448919311166,6.1049041748,0.0699369460344,-2.95895767212,-0.0667500048876,3.23710632324,0.0735372975469,24.05386543277,87.2915420532,44.32894897458,44.01992416384,1114
1.64953361168842E+018,70,1.64953361168842E+018,r200121355/base_footprint,0,1.64953361168842E+018,v/m1vw10zy74w/map,0.889789837548,5.66620108763,0,0,0,0.708595347006,0.705615075095,0,62.4057540894,30.4812831879,50.3399963379,81.1866378784,47.3900260925,47.3900260925,62.4057540894,62.4057540894,40.7805671692,-0.623405396938,0,0.00276147690602,0.125273630023,0.0016258850228,0.00438736192882,-6.42741775513,-0.267209351063,6.1049041748,0.0699369460344,-3.06107711792,-0.0690536797047,3.23935699463,0.0735884308815,24.05386543277,87.2915420532,44.32894897458,44.01992416383,1114
1.6495336117887E+018,71,1.6495336117887E+018,r200121355/base_footprint,0,1.6495336117887E+018,v/m1vw10zy74w/map,0.889789837548,5.66620108763,0,0,0,0.708595347006,0.705615075095,0,62.1712837219,28.3422451019,50.3399963379,81.1866378784,47.3955688477,47.3955688477,62.1712837219,62.1712837219,45.0609092712,-0.839381098747,0,0.00301699759439,0.125161156058,0.000662064994685,0.00367906247266,-4.28837966919,-0.178282350302,6.1049041748,0.0699369460344,-3.06661987305,-0.0691787153482,-1.04098510742,-0.0236480440944,24.05386543271,87.2915420532,44.32894897465,44.01992416378,1114
1.64953361188942E+018,72,1.64953361188942E+018,r200121355/base_footprint,0,1.64953361188942E+018,v/m1vw10zy74w/map,0.888568974208,5.92944540097,0,0,0,0.712847192182,0.701319385586,0,60.7688446045,30.4812831879,50.3399963379,72.4307785034,47.4251022339,47.4251022339,60.7688446045,60.7688446045,39.1027488708,-0.718518137932,0,0.00309713138267,0.120095483959,0.000457497837488,0.00263963337056,-5.9490070343,-0.24249714613,12.7252349854,0.149434372783,-2.51107025146,-0.0559083670378,4.48206329346,0.102835439146,24.5322761536,85.1560134888,44.91403198244,43.58481216426,1024
1.64953361198904E+018,73,1.64953361198904E+018,r200121355/base_footprint,0,1.64953361198904E+018,v/m1vw10zy74w/map,0.886517591945,5.9389477928,0,0,0,0.713112606217,0.701049506707,0,61.1392478943,28.7641658783,50.3399963379,75.4034423828,47.4082794189,47.4082794189,61.1392478943,61.1392478943,42.9553146362,-0.716279625893,0,0.00327237928286,0.100423261523,0.00415595294908,0.000883573666215,-4.23188972473,-0.172502934933,9.75257110596,0.114525921643,-2.49424743652,-0.05553381145,0.629497528076,0.014443048276,24.53227615357,85.15601348876,44.91403198238,43.584812164276,1024
1.64953361208809E+018,74,1.64953361208809E+018,r200121355/base_footprint,0,1.64953361208809E+018,v/m1vw10zy74w/map,0.886517591945,5.9389477928,0,0,0,0.713112606217,0.701049506707,0,60.9843330383,24.0641708374,50.3399963379,75.4034423828,47.399269104,47.399269104,60.9843330383,60.9843330383,45.6464691162,-0.67906075716,0,0.00328747718595,0.0905430316925,0.00608048820868,0.0027930107899,0.468105316162,0.0190812014043,9.75257110596,0.114525921643,-2.48523712158,-0.0553332008421,-2.0616569519,-0.0473021864891,24.532276153562,85.15601348876,44.91403198242,43.5848121643,1024
1.64953361218828E+018,75,1.64953361218828E+018,r200121355/base_footprint,0,1.64953361218828E+018,v/m1vw10zy74w/map,0.886517591945,5.9389477928,0,0,0,0.713112606217,0.701049506707,0,61.3069229126,28.9878120422,50.3399963379,75.4034423828,47.4278106689,47.4278106689,61.3069229126,61.3069229126,40.1481056213,-0.643417418003,0,0.00311677972786,0.0711165368557,0.00948881264776,0.00637203315273,-4.45553588867,-0.181619346142,9.75257110596,0.114525921643,-2.51377868652,-0.0559686720371,3.43670654297,0.0788510143757,24.53227615353,85.15601348876,44.91403198238,43.58481216427,1024
1.64953361228812E+018,76,1.64953361228812E+018,r200121355/base_footprint,0,1.64953361228812E+018,v/m1vw10zy74w/map,0.886517591945,5.9389477928,0,0,0,0.713112606217,0.701049506707,0,61.2925338745,27.9279270172,50.3399963379,75.4034423828,47.4877319336,47.4877319336,61.2925338745,61.2925338745,41.0542984009,-0.614166676998,0,0.00318731693551,0.0616395734251,0.0108826514333,0.00769533403218,-3.39565086365,-0.138415649533,9.75257110596,0.114525921643,-2.57369995117,-0.0573028028011,2.53051376343,0.0580595321953,24.53227615355,85.15601348876,44.91403198243,43.58481216433,1024
1.64953361238817E+018,77,1.64953361238817E+018,r200121355/base_footprint,0,1.64953361238817E+018,v/m1vw10zy74w/map,0.886517591945,5.9389477928,0,0,0,0.713112606217,0.701049506707,0,61.2616882324,27.2727279663,50.3399963379,75.4034423828,47.6416854858,47.6416854858,61.2616882324,61.2616882324,43.2721824646,-0.878620326519,0,0.00298551982269,0.0360429920256,0.0124621205032,0.00947660114616,-2.74045181274,-0.111708015203,9.75257110596,0.114525921643,-2.72765350342,-0.0607305429876,0.312629699707,0.007172904443,24.53227615356,85.15601348876,44.91403198238,43.584812164307,1024
1.64953361248839E+018,78,1.64953361248839E+018,r200121355/base_footprint,0,1.64953361248839E+018,v/m1vw10zy74w/map,0.886517591945,5.9389477928,0,0,0,0.713112606217,0.701049506707,0,61.9448013306,30.9228286743,50.3879508972,75.4034423828,47.8444900513,47.8444900513,61.9448013306,61.9448013306,33.1664276123,-0.408171474934,0,0.00337831350043,0.00511499447748,0.00196552765556,0.00141278561205,-6.39055252075,-0.260495692492,9.75257110596,0.114525921643,-2.93045806885,-0.0652459338307,10.418384552,0.239037036896,24.53227615355,85.15601348876,44.91403198245,43.5848121643,1024
1.64953361258845E+018,79,1.64953361258845E+018,r200121355/base_footprint,0,1.64953361258845E+018,v/m1vw10zy74w/map,0.886517591945,5.9389477928,0,0,0,0.713112606217,0.701049506707,0,61.4219703674,21.5686283112,50.3879508972,75.4034423828,47.7924728394,47.7924728394,61.4219703674,61.4219703674,42.0156173706,-0.681749939919,0,0.00312770088203,0.00280841579661,0.0038117102813,0.00693941116333,2.96364784241,0.120806068182,9.75257110596,0.114525921643,-2.87844085693,-0.0640877857804,1.5691947937,0.0360032469034,24.53227615361,85.15601348876,44.91403198247,43.5848121643,1024
1.64953361798796E+018,80,1.64953361798796E+018,r200121355/base_footprint,0,1.64953361798796E+018,v/m1vw10zy74w/map,0.896143611548,7.28337568415,0,0,0,0.703770960356,0.710426938791,0,59.9666824341,25.5261745453,50.3879508972,66.8280792236,47.8609313965,47.8609313965,59.9666824341,59.9666824341,38.0788841248,-0.377745270729,0,0.00146759988274,0.00437968876213,0.015957115218,0.0174247156829,-12.3011741638,-0.930145442486,7.69322967529,0.103235296905,-6.30681610107,-0.151773557067,2.73915100098,0.0671063885093,13.2250003815,74.52130889889,41.55411529543,40.81803512578,384
1.6495336353883E+018,81,1.6495336353883E+018,r200121355/base_footprint,0,1.6495336353883E+018,v/m1vw10zy74w/map,0.895221347724,7.54415765307,0,0,0,0.709330181501,0.704876367607,0,58.754486084,5.88235282898,51.8748512268,64.8319854736,46.6500778198,46.6500778198,58.754486084,58.754486084,39.6352386475,-2.80289745331,0,1.84068576353E-11,0.0247974004596,1.21203678205E-08,1.21019603228E-08,3.2198343277,0.353742927313,10.0287704468,0.133965656161,-5.26927566528,-0.127336233854,1.08320236206,0.0266022551805,9.10218715668,74.8607559204,41.38080215452,40.71844100956,264
1.64953363548831E+018,82,1.64953363548831E+018,r200121355/base_footprint,0,1.64953363548831E+018,v/m1vw10zy74w/map,0.895221347724,7.54415765307,0,0,0,0.709330181501,0.704876367607,0,57.4853897095,5.88235282898,57.9368133545,64.8319854736,45.3907852173,45.3907852173,57.4853897095,57.4853897095,48.8786392212,-2.32958030701,0,1.56729226819E-10,0.0906954035163,7.05999969597E-09,7.21672899218E-09,3.2198343277,0.353742927313,10.0287704468,0.133965656161,-4.00998306274,-0.0969044268131,-8.16019821167,-0.200405463576,9.10218715668,74.8607559204,41.38080215456,40.71844100953,264
1.64953363558862E+018,83,1.64953363558862E+018,r200121355/base_footprint,0,1.64953363558862E+018,v/m1vw10zy74w/map,0.895221347724,7.54415765307,0,0,0,0.709330181501,0.704876367607,0,56.8081436157,6.10859727859,57.9368133545,64.8319854736,44.2372817993,44.2372817993,56.8081436157,56.8081436157,48.6111869812,-2.32436561584,0,0.000487189623527,0.138945296407,0.000566764327232,7.95746891527E-05,2.99358987808,0.32888686657,10.0287704468,0.133965656161,-2.85647964478,-0.0690291002393,-7.89274597168,-0.19383713603,9.10218715667,74.8607559204,41.38080215452,40.71844100952,264
1.64953363568821E+018,84,1.64953363568821E+018,r200121355/base_footprint,0,1.64953363568821E+018,v/m1vw10zy74w/map,0.895221347724,7.54415765307,0,0,0,0.709330181501,0.704876367607,0,56.1784896851,8.37104034424,57.9368133545,64.8319854736,43.3087463379,43.3087463379,56.1784896851,56.1784896851,49.9167747498,-2.12679958344,0,0.00078534334898,0.201358780265,0.0010572723113,0.000271928991424,0.731146812439,0.0803264975548,10.0287704468,0.133965656161,-1.92794418335,-0.0465903058648,-9.19833374023,-0.225900933146,9.102187156679,74.8607559204,41.38080215455,40.71844100957,264
1.64953363578935E+018,85,1.64953363578935E+018,r200121355/base_footprint,0,1.64953363578935E+018,v/m1vw10zy74w/map,0.895221347724,7.54415765307,0,0,0,0.709330181501,0.704876367607,0,55.9751319885,4.97737550735,57.9368133545,64.8319854736,42.3028717041,42.3028717041,55.9751319885,55.9751319885,42.7138214111,-2.44197750092,0,0.00109693862032,0.227096512914,0.00220016017556,0.00110322167166,4.12481164932,0.453167080879,10.0287704468,0.133965656161,-0.922069549561,-0.0222825445235,-1.99538040161,-0.049004342407,9.10218715667,74.8607559204,41.380802154539,40.71844100949,264
1.64953363588821E+018,86,1.64953363588821E+018,r200121355/base_footprint,0,1.64953363588821E+018,v/m1vw10zy74w/map,0.895221347724,7.54415765307,0,0,0,0.709330181501,0.704876367607,0,55.6856613159,2.71493220329,57.9368133545,64.8319854736,41.4168167114,41.4168167114,55.6856613159,55.6856613159,38.3549079895,-2.72612571716,0,0.00107640656643,0.229583576322,0.00431848457083,0.00324207823724,6.38725471497,0.701727449894,10.0287704468,0.133965656161,-0.0360145568848,-0.000870320422109,2.36353302002,0.0580457635224,9.10218691826,74.8607559204,41.3808021545152,40.71844100952,264
1.64953363598821E+018,87,1.64953363598821E+018,r200121355/base_footprint,0,1.64953363598821E+018,v/m1vw10zy74w/map,0.895221347724,7.54415765307,0,0,0,0.709330181501,0.704876367607,0,55.2510604858,4.4845662117,57.9368133545,64.8319854736,40.5424613953,40.5424613953,55.2510604858,55.2510604858,36.7346305847,-2.65943908691,0,0.00122087390628,0.226744055748,0.00629612524062,0.00507525121793,4.61762094498,0.507308959961,10.0287704468,0.133965656161,0.838340759277,0.0202591717243,3.9838104248,0.0978379920125,9.10218715668,74.8607559204,41.380802154577,40.7184410095,264
1.64953363608826E+018,88,1.64953363608826E+018,r200121355/base_footprint,0,1.64953363608826E+018,v/m1vw10zy74w/map,0.895221347724,7.54415765307,0,0,0,0.709330181501,0.704876367607,0,55.0828285217,4.05482578278,57.9368133545,64.8319854736,39.9794769287,39.9794769287,55.0828285217,55.0828285217,33.6825904846,-2.68513417244,0,0.000711086438969,0.226513028145,0.00993643235415,0.00922534614801,5.0473613739,0.554521799088,10.0287704468,0.133965656161,1.40132522583,0.0338641405106,7.0358505249,0.172792732716,9.10218715668,74.8607559204,41.38080215453,40.7184410095,264
1.6495336361883E+018,89,1.6495336361883E+018,r200121355/base_footprint,0,1.6495336361883E+018,v/m1vw10zy74w/map,0.895221347724,7.54415765307,0,0,0,0.709330181501,0.704876367607,0,54.1404876709,7.48143911362,57.9368133545,64.8319854736,39.4446372986,39.4446372986,54.1404876709,54.1404876709,44.8684539795,-3.06061863899,0,0.00097980175633,0.228994071484,0.0150637477636,0.0140839461237,1.62074804306,0.178061380982,10.0287704468,0.133965656161,1.93616485596,0.0467889644206,-4.15001296997,-0.101919740438,9.10218715668,74.8607559204,41.38080215456,40.71844100953,264
1.64953363628807E+018,90,1.64953363628807E+018,r200121355/base_footprint,0,1.64953363628807E+018,v/m1vw10zy74w/map,0.895221347724,7.54415765307,0,0,0,0.709330181501,0.704876367607,0,54.6178627014,6.33923482895,57.9368133545,64.8319854736,39.0759010315,39.0759010315,54.6178627014,54.6178627014,32.293346405,-3.04433917999,0,0.00131011393387,0.231390789151,0.0143880704418,0.0130779566243,2.76295232773,0.303548187017,10.0287704468,0.133965656161,2.30490112305,0.0556997694075,8.42509460449,0.206911027431,9.10218715668,74.8607559204,41.38080215455,40.71844100949,264
1.64953363638821E+018,91,1.64953363638821E+018,r200121355/base_footprint,0,1.64953363638821E+018,v/m1vw10zy74w/map,0.904327277225,7.24924033792,0,0,0,0.71329904075,0.700859813704,0,53.1408233643,2.33074355125,57.9368133545,60.6002540588,38.833404541,38.833404541,53.1408233643,53.1408233643,41.026889801,-2.96762108803,0,0.00148474238813,0.23267005384,0.00985213555396,0.00836739316583,10.8942565918,0.82376229763,13.9210548401,0.186806365848,2.72071075439,0.065473921597,-0.208854675293,-0.00511672534049,13.22500014305,74.5213088989,41.55411529539,40.818035125707,384
1.649533636488E+018,92,1.649533636488E+018,r200121355/base_footprint,0,1.649533636488E+018,v/m1vw10zy74w/map,0.904327277225,7.24924033792,0,0,0,0.71329904075,0.700859813704,0,53.1555099487,1.04452991486,57.9368133545,60.6002540588,38.7715606689,38.7715606689,53.1555099487,53.1555099487,40.094581604,-3.07139635086,0,0.00224646856077,0.23273730278,0.00639261631295,0.00863908510655,12.1804704666,0.921018540859,13.9210548401,0.186806365848,2.78255462646,0.0669621899724,0.723453521729,0.0177238695323,13.22500038146,74.5213088989,41.55411529536,40.818035125729,384
1.64953363658828E+018,93,1.64953363658828E+018,r200121355/base_footprint,0,1.64953363658828E+018,v/m1vw10zy74w/map,0.904327277225,7.24924033792,0,0,0,0.71329904075,0.700859813704,0,53.1933021545,0.53475934267,56.2921905518,60.6002540588,38.8853111267,38.8853111267,53.1933021545,53.1933021545,40.6428108215,-3.05680084229,0,0.00242321193218,0.230563923717,0.0216876771301,0.0241108890623,12.69024086,0.959564507008,13.9210548401,0.186806365848,2.6688041687,0.0642247870564,0.175224304199,0.00429281592369,13.22500020267,74.5213088989,41.5541152954,40.818035125699,384
1.64953363668872E+018,94,1.64953363668872E+018,r200121355/base_footprint,0,1.64953363668872E+018,v/m1vw10zy74w/map,0.904327277225,7.24924033792,0,0,0,0.71329904075,0.700859813704,0,54.3454627991,7.3399271965,56.2921905518,60.6002540588,39.0711174011,39.0711174011,54.3454627991,54.3454627991,21.9106426239,-3.11315441132,0,0.00248620053753,0.229127630591,0.0287472680211,0.0312334690243,5.88507318497,0.444996058941,13.9210548401,0.186806365848,2.48299789429,0.0597533583641,18.9073925018,0.463211715221,13.22500038147,74.5213088989,41.55411529539,40.8180351257,384
1.6495336367882E+018,95,1.6495336367882E+018,r200121355/base_footprint,0,1.6495336367882E+018,v/m1vw10zy74w/map,0.904327277225,7.24924033792,0,0,0,0.71329904075,0.700859813704,0,54.3826751709,9.42217636108,56.2921905518,60.6002540588,39.5719718933,39.5719718933,54.3826751709,54.3826751709,26.6500492096,-3.1181268692,0,0.00276282941923,0.228563383222,0.0280093587935,0.0307721886784,3.80282402039,0.28754812479,13.9210548401,0.186806365848,1.9821434021,0.0477002896369,14.1679859161,0.347101122141,13.22500038147,74.5213088989,41.5541152954,40.8180351257,384
1.64953363688796E+018,96,1.64953363688796E+018,r200121355/base_footprint,0,1.64953363688796E+018,v/m1vw10zy74w/map,0.899241742104,6.94876877948,0,0,0,0.703488017504,0.710707119162,0,54.5506095886,9.97442436218,56.2921905518,62.7738265991,40.066078186,40.066078186,54.5506095886,54.5506095886,36.788444519,-3.04777669907,0,0.00287683308125,0.228029206395,0.0253671873361,0.0282440204173,7.73488807678,0.436769545078,11.5819396973,0.155763834715,2.32955169678,0.0549479201436,4.37716674805,0.106330662966,17.70931243896,74.3557662964,42.39562988278,41.16561126705,437
1.64953363698807E+018,97,1.64953363698807E+018,r200121355/base_footprint,0,1.64953363698807E+018,v/m1vw10zy74w/map,0.899241742104,6.94876877948,0,0,0,0.703488017504,0.710707119162,0,55.792766571,10.463300705,56.2921905518,62.7738265991,40.6479644775,40.6479644775,55.792766571,55.792766571,20.7139663696,-3.12433671951,0,0.00306993629783,0.22769421339,0.0214437041432,0.0245136413723,7.24601173401,0.409163922071,11.5819396973,0.155763834715,1.74766540527,0.0412227734923,20.4516448975,0.496813833714,17.70931243901,74.3557662964,42.39562988277,41.1656112671,437
1.64953363708827E+018,98,1.64953363708827E+018,r200121355/base_footprint,0,1.64953363708827E+018,v/m1vw10zy74w/map,0.899241742104,6.94876877948,0,0,0,0.703488017504,0.710707119162,0,56.3229866028,12.5455493927,56.2921905518,62.7738265991,41.2212219238,41.2212219238,56.3229866028,56.3229866028,17.3612251282,-3.13839530945,0,0.00297332624905,0.227749288082,0.0170140191913,0.0199873447418,5.16376304626,0.291584610939,11.5819396973,0.155763834715,1.17440795898,0.0277011562139,23.8043861389,0.578259050846,17.70931243896,74.3557662964,42.39562988278,41.1656112671,437
1.6495336372882E+018,99,1.6495336372882E+018,r200121355/base_footprint,0,1.6495336372882E+018,v/m1vw10zy74w/map,0.899241742104,6.94876877948,0,0,0,0.703488017504,0.710707119162,0,55.8353843689,17.7511711121,58.5531349182,62.7738265991,41.8061790466,41.8061790466,55.8353843689,55.8353843689,32.4555892944,-3.13536858559,0,0.00277235172689,0.227779686451,0.0146449189633,0.0174172706902,-0.0418586730957,-0.00236365315504,11.5819396973,0.155763834715,0.589450836182,0.013903575018,8.71002197266,0.21158491075,17.7093124390043,74.3557662964,42.395629882782,41.16561126706,437
1.64953363748979E+018,100,1.64953363748979E+018,r200121355/base_footprint,0,1.64953363748979E+018,v/m1vw10zy74w/map,0.899241742104,6.94876877948,0,0,0,0.703488017504,0.710707119162,0,56.3839492798,17.4406604767,58.5531349182,62.7738265991,42.5080184937,42.5080184937,56.3839492798,56.3839492798,30.1613044739,3.13997507095,0,0.00266484357417,0.227925568819,0.0103728463873,0.0130376899615,0.26865196228,0.0151700954884,11.5819396973,0.155763834715,-0.11238861084,-0.00265094800852,11.0043067932,0.267317950726,17.70931243898,74.3557662964,42.39562988286,41.1656112671,437
1.64953363758839E+018,101,1.64953363758839E+018,r200121355/base_footprint,0,1.64953363758839E+018,v/m1vw10zy74w/map,0.899241742104,6.94876877948,0,0,0,0.703488017504,0.710707119162,0,56.7996940613,14.3446855545,58.5531349182,62.7738265991,43.0458106995,43.0458106995,56.7996940613,56.7996940613,28.4860420227,3.13990449905,0,0.00275612878613,0.194701880217,0.00157101184595,0.00118511694018,3.36462688446,0.189991950989,11.5819396973,0.155763834715,-0.65018081665,-0.0153360338882,12.6795692444,0.308013617992,17.70931243896,74.3557662964,42.39562988285,41.1656112671,437
