%time,field.header.seq,field.header.stamp,field.header.frame_id,field.pose.header.seq,field.pose.header.stamp,field.pose.header.frame_id,field.pose.pose.position.x,field.pose.pose.position.y,field.pose.pose.position.z,field.pose.pose.orientation.x,field.pose.pose.orientation.y,field.pose.pose.orientation.z,field.pose.pose.orientation.w,field.label,field.main_output,field.scan_score,field.pose_score,field.cov_score,field.lhood_map_score,field.lhood_robot_score,field.lhood_map_score_all,field.lhood_robot_score_all,field.point_angle_diff,field.average_orientation,field.map_average_orientation,field.sensor_div,field.odom_div_x,field.odom_div_w,field.imu_div_w,field.kdtree_div,field.kdtree_div_p,field.cov_div,field.cov_div_p,field.likelihood_div,field.likelihood_div_p,field.normal_diff_div,field.normal_diff_div_p,field.kdtree_average,field.cov_average,field.likelihood_average,field.normal_diff_average,field.map_update_count
1.64953785374583E+018,0,1.64953785374583E+018,r200141368/base_footprint,0,1.64953785374583E+018,v/m1vw10zy74w/map,-5.51348828662,5.12211511133,0,0,0,0.00460234645963,0.999989409147,1,54.1318778992,0,100,82.6029815674,32.9037055969,32.9037055969,54.1318778992,54.1318778992,38.3569908142,-0.183128461242,0,0.000174160770257,0.260957479477,0.0103106470779,0.0101364860311,17.1285839081,1,-0.904724121094,-0.0110739711672,9.56582641602,0.225239738822,1.22074508667,0.0308442376554,17.1285839081,81.698257446306,42.46953201292,39.57773590087,1279
1.64953785384657E+018,1,1.64953785384657E+018,r200141368/base_footprint,0,1.64953785384657E+018,v/m1vw10zy74w/map,-5.31469007944,5.12003673088,0,0,0,0.00159508193084,0.999998727856,1,54.5246391296,0,100,84.6522827148,32.7863845825,32.7863845825,54.5246391296,54.5246391296,37.3976554871,-1.3776640892,0,7.09531377652E-05,0.275813221931,0.0105295088142,0.0104585560039,17.7941875458,1,-1.97193145752,-0.0238500609994,10.0900421143,0.235328435898,2.29901123047,0.0579144656658,17.7941875458,82.68035125728,42.8764266968,39.69666671757,1406
1.64953785394663E+018,2,1.64953785394663E+018,r200141368/base_footprint,0,1.64953785394663E+018,v/m1vw10zy74w/map,-5.28933378866,5.12087543274,0,0,0,0.00161050298173,0.999998703139,1,54.4271888733,0,100,84.8097229004,32.7684593201,32.7684593201,54.4271888733,54.4271888733,39.5249252319,-1.53628432751,0,0.000255003425991,0.313166052103,0.0105744563043,0.0103194536641,17.7941875458,1,-2.12937164307,-0.0257542654872,10.1079673767,0.235746502876,0.171741485596,0.00432634539902,17.7941875458,82.68035125733,42.8764266968,39.696666717496,1406
1.6495378540462E+018,3,1.6495378540462E+018,r200141368/base_footprint,0,1.6495378540462E+018,v/m1vw10zy74w/map,-5.28933378866,5.12087543274,0,0,0,0.00161050298173,0.999998703139,1,54.7568817139,0,85.3907241821,84.8097229004,32.6687545776,32.6687545776,54.7568817139,54.7568817139,32.5136604309,-1.8129696846,0,0.000307922047796,0.319702893496,0.0104743335396,0.0101664112881,17.7941875458,1,-2.12937164307,-0.0257542654872,10.2076721191,0.238071888685,7.18300628662,0.180947333574,17.7941875458,82.68035125733,42.8764266967,39.69666671752,1406
1.64953785444517E+018,4,1.64953785444517E+018,r200141368/base_footprint,0,1.64953785444517E+018,v/m1vw10zy74w/map,-5.28933378866,5.12087543274,0,0,0,0.00161050298173,0.999998703139,1,54.4539031982,0,85.3907241821,84.8097229004,32.5784759521,32.5784759521,54.4539031982,54.4539031982,36.9922637939,-1.01819586754,0,0.000339457968948,0.332733005285,0.0101842721924,0.0098448144272,17.7941875458,1,-2.12937164307,-0.0257542654872,10.2979507446,0.240177452564,2.70440292358,0.0681267008185,17.7941875458,82.68035125733,42.8764266967,39.69666671748,1406
1.64953785454578E+018,5,1.64953785454578E+018,r200141368/base_footprint,0,1.64953785454578E+018,v/m1vw10zy74w/map,-5.07408736143,5.12065839368,0,0,0,0.00306304169382,0.999995308877,1,53.7006759644,0,85.3907241821,79.6915740967,32.5573196411,32.5573196411,53.7006759644,53.7006759644,31.896528244,-2.10043692589,0,0.000363770202966,0.339792072773,0.00988188292831,0.00951811205596,19.1695823669,1,4.41246795654,0.0524643994868,11.0619735718,0.253602772951,7.89301872253,0.198369145393,19.1695823669,84.10404205324,43.6192932129,39.78954696653,1671
1.64953785474718E+018,6,1.64953785474718E+018,r200141368/base_footprint,0,1.64953785474718E+018,v/m1vw10zy74w/map,-5.06834448853,5.12480156455,0,0,0,0.00344346383535,0.999994071261,1,53.9078559875,0,85.3907241821,82.60105896,32.5722999573,32.5722999573,53.9078559875,53.9078559875,38.803237915,-1.480291605,0,0.000432192115113,0.353985220194,0.00979590322822,0.00936371088028,19.1695823669,1,1.50298309326,0.0178705211729,11.0469932556,0.253259330988,0.986309051514,0.0247881449759,19.1695823669,84.10404205326,43.6192932129,39.789546966514,1671
1.64953785484615E+018,7,1.64953785484615E+018,r200141368/base_footprint,0,1.64953785484616E+018,v/m1vw10zy74w/map,-5.06834448853,5.12480156455,0,0,0,0.00344346383535,0.999994071261,1,54.3026657104,0,88.7471389771,82.60105896,32.5562057495,32.5562057495,54.3026657104,54.3026657104,31.5228691101,-1.16588747501,0,0.00044049200369,0.361634135246,0.0094956709072,0.00905517954379,19.1695823669,1,1.50298309326,0.0178705211729,11.0630874634,0.253628313541,8.26667785645,0.207760035992,19.1695823669,84.10404205326,43.6192932129,39.78954696655,1671
1.64953785504619E+018,8,1.64953785504619E+018,r200141368/base_footprint,0,1.6495378550462E+018,v/m1vw10zy74w/map,-5.06834448853,5.12480156455,0,0,0,0.00344346383535,0.999994071261,1,54.0761909485,0,88.7471389771,82.60105896,32.6034011841,32.6034011841,54.0761909485,54.0761909485,36.1091117859,-1.41713607311,0,0.000450032908702,0.369031369686,0.00873205345124,0.00828202068806,19.1695823669,1,1.50298309326,0.0178705211729,11.0158920288,0.252546310425,3.68043518066,0.0924975425005,19.1695823669,84.10404205326,43.6192932129,39.78954696656,1671
1.64953785514531E+018,9,1.64953785514531E+018,r200141368/base_footprint,0,1.64953785514531E+018,v/m1vw10zy74w/map,-4.85689391008,5.12870206664,0,0,0,0.00399903728442,0.999992003818,1,53.6903991699,0,88.7471389771,81.2999572754,32.639541626,32.639541626,53.6903991699,53.6903991699,38.759677887,-1.6118799448,0,0.000652885064483,0.393957912922,0.00542680034414,0.00477391527966,19.6257724762,1,3.0817489624,0.0365215279162,11.251750946,0.256354957819,1.37110519409,0.0341659225523,19.6257724762,84.3817062378,43.891292572,40.13078308109,1707
1.64953785524519E+018,10,1.64953785524519E+018,r200141368/base_footprint,0,1.64953785524519E+018,v/m1vw10zy74w/map,-4.83669829938,5.13402881966,0,0,0,0.0035561968484,0.999993676712,1,54.2935028076,0,88.7471389771,83.1550598145,32.7034454346,32.7034454346,54.2935028076,54.2935028076,35.2723693848,-2.06380653381,0,0.000626851979177,0.46015176177,0.000774963526055,0.00140181556344,19.6257724762,1,1.22664642334,0.0145368762314,11.1878471375,0.254899024963,4.85841369629,0.121064513922,19.6257724762,84.38170623784,43.8912925721,40.13078308109,1707
1.64953785534543E+018,11,1.64953785534543E+018,r200141368/base_footprint,0,1.64953785534543E+018,v/m1vw10zy74w/map,-4.57527450369,5.13505739946,0,0,0,0.0060482617974,0.999981709097,1,53.3169822693,0,87.4857406616,79.0185165405,32.7783546448,32.7783546448,53.3169822693,53.3169822693,38.7672233582,-0.566583871841,0,0.000405133381719,0.50446254015,0.000930426467676,0.000525293115061,19.7304191589,1,5.41445922852,0.0641273036599,11.2677955627,0.255817949772,1.26615142822,0.0316273979843,19.7304191589,84.43297576902,44.0461502075,40.03337478642,1732
1.64953785544603E+018,12,1.64953785544603E+018,r200141368/base_footprint,0,1.64953785544603E+018,v/m1vw10zy74w/map,-4.57527450369,5.13505739946,0,0,0,0.0060482617974,0.999981709097,1,52.6808357239,0,87.4857406616,79.0185165405,32.8602333069,32.8602333069,52.6808357239,52.6808357239,51.1021194458,-1.54948794842,0,0.000345349690178,0.516486942768,0.00174769642763,0.00140234676655,19.7304191589,1,5.41445922852,0.0641273036599,11.1859169006,0.253959000111,-11.0687446594,-0.276487916708,19.7304191589,84.43297576902,44.0461502075,40.0333747864,1732
1.64953785554641E+018,13,1.64953785554641E+018,r200141368/base_footprint,0,1.64953785554641E+018,v/m1vw10zy74w/map,-4.35182927471,5.12934962941,0,0,0,0.00442796143064,0.999990196531,1,52.7440795898,0,87.4857406616,75.6383285522,33.0299224854,33.0299224854,52.7440795898,52.7440795898,39.6277351379,-1.73667371273,0,0.000459379982203,0.618571579456,0.000970123277511,0.000510743295308,19.839925766,1,8.05708312988,0.0962667241693,11.0418243408,0.250542014837,0.413154602051,0.0103183174506,19.839925766,83.69541168208,44.0717468262,40.040889739951,1564
1.64953785564566E+018,14,1.64953785564566E+018,r200141368/base_footprint,0,1.64953785564566E+018,v/m1vw10zy74w/map,-4.15705715345,5.12822783246,0,0,0,-2.36619929884E-05,0.99999999972,1,52.4547576904,0,87.4857406616,72.4143295288,33.1254615784,33.1254615784,52.4547576904,52.4547576904,34.2609100342,-1.84506881237,0,2.10100533877E-05,0.691031515598,0.00232849875465,0.00230748881586,19.0102272034,1,10.5509338379,0.127172902226,10.730758667,0.244680419564,6.19340896606,0.153096362948,19.0102272034,82.9652633667,43.8562202454,40.45431900026,1426
1.64953785574616E+018,15,1.64953785574616E+018,r200141368/base_footprint,0,1.64953785574617E+018,v/m1vw10zy74w/map,-4.13643314586,5.11987447827,0,0,0,-0.00249786933832,0.99999688032,1,53.4915962219,0.790166795254,84.8786239624,75.5802001953,33.0882873535,33.0882873535,53.4915962219,53.4915962219,26.5935115814,-2.11228370667,0,3.53583418473E-05,0.768220543861,0.00552212074399,0.00548676261678,18.2200603485,0.958434641361,7.38506317139,0.0890139192343,10.7679328918,0.245528072119,13.8608074188,0.342628628016,19.010227143754,82.96526336669,43.8562202453,40.4543190002,1426
1.64953785584586E+018,16,1.64953785584586E+018,r200141368/base_footprint,0,1.64953785584586E+018,v/m1vw10zy74w/map,-3.90108370595,5.11815803692,0,0,0,-0.00176918948252,0.999998434983,1,53.2873687744,0,84.8786239624,76.1881408691,33.036075592,33.036075592,53.2873687744,53.2873687744,31.8942527771,-1.95542013645,0,0.000195782864466,0.851436197758,0.0084041049704,0.00820832140744,19.3108043671,1,7.56171417236,0.0902892798185,11.0823707581,0.251195847988,9.10769271851,0.222128301859,19.3108043671,83.74985504146,44.1184463501,41.00194549561,1614
1.64953785594506E+018,17,1.64953785594506E+018,r200141368/base_footprint,0,1.64953785594506E+018,v/m1vw10zy74w/map,-3.67680783644,5.11880474645,0,0,0,-0.00150042200444,0.999998874366,1,53.6329994202,0,85.6783828735,78.2842025757,33.1124687195,33.1124687195,53.6329994202,53.6329994202,34.0438194275,-2.58160424232,0,0.000101916768472,1.02176010609,0.0134744402021,0.0135763566941,20.7203903198,1,7.09218597412,0.0830696448684,11.7390022278,0.261730581522,6.52499771118,0.160837754607,20.7203903198,85.37638854982,44.8514709473,40.56881713868,2031
1.64953785604533E+018,18,1.64953785604533E+018,r200141368/base_footprint,0,1.64953785604533E+018,v/m1vw10zy74w/map,-3.46788487191,5.11955827608,0,0,0,0.000190613744812,0.999999981833,1,53.4001541138,0,86.524017334,76.8321838379,33.108039856,33.108039856,53.4001541138,53.4001541138,32.9599380493,-2.30831670761,0,0.00010611313337,1.04198622704,0.0143032278866,0.0144093409181,21.1553955078,1,8.89520263672,0.10376150161,11.9030914307,0.264447718859,7.52100372314,0.185791224241,21.1553955078,85.72738647462,45.0111312867,40.48094177244,2129
1.6495378561461E+018,19,1.6495378561461E+018,r200141368/base_footprint,0,1.6495378561461E+018,v/m1vw10zy74w/map,-3.4351790269,5.1284005889,0,0,0,0.00173687160476,0.999998491637,1,53.1932258606,0,86.524017334,77.7009658813,33.1633911133,33.1633911133,53.1932258606,53.1932258606,40.4100494385,-2.33170318604,0,6.81990713929E-05,1.16715145111,0.0163625236601,0.0162943247706,21.1553955078,1,8.02642059326,0.0936272665858,11.8477401733,0.263218015432,0.0708923339844,0.0017512521008,21.1553955078,85.72738647456,45.0111312866,40.4809417724844,2129
1.64953785624586E+018,20,1.64953785624586E+018,r200141368/base_footprint,0,1.64953785624586E+018,v/m1vw10zy74w/map,-3.20303551374,5.1428580877,0,0,0,0.00986070558615,0.999951382061,1,52.1728591919,0,86.5817871094,74.5785446167,33.231426239,33.231426239,52.1728591919,52.1728591919,48.270740509,-1.97710990906,0,0.000147044091136,1.30030274391,0.0153275085613,0.0154745522887,21.6128845215,1,11.3618392944,0.132206052542,11.8054046631,0.262127786875,-7.8521270752,-0.194270074368,21.6128845215,85.9403839111,45.0368309021,40.4186134338,2163
1.64953785634624E+018,21,1.64953785634624E+018,r200141368/base_footprint,0,1.64953785634624E+018,v/m1vw10zy74w/map,-3.00503626644,5.14206085695,0,0,0,0.01161653205,0.999932525815,1,51.8563117981,0,86.0084075928,71.8717575073,33.3014144897,33.3014144897,51.8563117981,51.8563117981,44.9799728394,-1.9287545681,0,0.000259573338553,1.44121277332,0.0124644320458,0.0127240056172,21.6739501953,1,13.8790969849,0.16185374558,11.6456794739,0.259097486734,-4.4772644043,-0.110542349517,21.6739501953,85.7508544922,44.9470939636,40.5027084351,2027
1.64953785644615E+018,22,1.64953785644615E+018,r200141368/base_footprint,0,1.64953785644615E+018,v/m1vw10zy74w/map,-2.97730749606,5.13753450477,0,0,0,0.00771169185352,0.999970264462,1,52.7324790955,0,86.0084075928,74.6679077148,33.4193344116,33.4193344116,52.7324790955,52.7324790955,40.5486869812,-1.91692864895,0,0.000100011457107,1.53975093365,0.0176109913737,0.0175109803677,21.7391490936,1,10.5646896362,0.123951278627,11.5148963928,0.256261110306,-0.0910835266113,-0.00225133262575,21.7391490936,85.232597351,44.9342308044,40.4576034545887,1892
1.64953785654623E+018,23,1.64953785654623E+018,r200141368/base_footprint,0,1.64953785654624E+018,v/m1vw10zy74w/map,-2.73576895603,5.13473789262,0,0,0,0.00116521505379,0.999999321137,1,53.4619140625,0.452488690615,85.6148071289,77.1687927246,33.5881690979,33.5881690979,53.4619140625,53.4619140625,38.2453918457,-1.98602879047,0,0.000211602426134,1.63904356956,0.0192814413458,0.0190698392689,21.212884903,0.979114711285,7.33232116699,0.086771890521,11.0376625061,0.247337967157,3.29041671753,0.0792187973857,21.665373593615,84.50111389159,44.625831604,41.53580856323,1599
1.64953785664601E+018,24,1.64953785664601E+018,r200141368/base_footprint,0,1.64953785664601E+018,v/m1vw10zy74w/map,-2.52989532864,5.13968175916,0,0,0,0.00461264823723,0.999989361682,1,53.0600471497,0,85.6632080078,75.4359817505,33.5195045471,33.5195045471,53.0600471497,53.0600471497,38.4993171692,-1.39090180397,0,0.000580580323003,1.81088340282,0.0225058160722,0.0219252351671,21.7313117981,1,8.19916534424,0.0980349257588,10.9713668823,0.246598154306,4.59116744995,0.106547132134,21.7313117981,83.63514709474,44.4908714294,43.09048461915,1480
1.64953785674663E+018,25,1.64953785674663E+018,r200141368/base_footprint,0,1.64953785674663E+018,v/m1vw10zy74w/map,-2.49151853873,5.14284096306,0,0,0,0.00536221572781,0.999985623218,1,53.7251472473,0,85.6632080078,80.4724349976,33.7001304626,33.7001304626,53.7251472473,53.7251472473,46.6095161438,-2.01277518272,0,0.000266068411293,2.00926446915,0.0101193832234,0.00985331553966,21.7158565521,1,3.15686035156,0.0377482585609,10.7940330505,0.242594361305,-3.52123641968,-0.0817214399576,21.7158565521,83.62929534916,44.4941635131,43.08827972412,1484
1.64953785684532E+018,26,1.64953785684532E+018,r200141368/base_footprint,0,1.64953785684532E+018,v/m1vw10zy74w/map,-2.26348853887,5.14126395355,0,0,0,0.00509702359605,0.999987010091,1,53.3570404053,1.35746610165,83.3708343506,78.8659667969,33.897808075,33.897808075,53.3570404053,53.3570404053,49.587097168,-1.46535253525,0,0.000301907100948,2.13942193985,0.00537433987483,0.00507243303582,20.319070816,0.937376260757,4.51264953613,0.0541223846376,10.6193466187,0.238545045257,-5.57040023804,-0.126551985741,21.67653691765,83.37861633303,44.5171546937,44.01669692996,1460
1.64953785694542E+018,27,1.64953785694542E+018,r200141368/base_footprint,0,1.64953785694542E+018,v/m1vw10zy74w/map,-2.07677947998,5.14596948863,0,0,0,0.00558489081715,0.999984404376,1,53.0791282654,0.314324200153,84.1421279907,75.0924835205,34.0988693237,34.0988693237,53.0791282654,53.0791282654,43.1764411926,-1.37589836121,0,0.000360391684808,2.23244762421,0.00348621048033,0.00312581867911,21.3680706024,0.985503315926,8.25874328613,0.0990836471319,10.4898872375,0.235258579254,1.35427856445,0.0304122325033,21.682394802553,83.35122680663,44.5887565612,44.53071975705,1444
1.64953785704645E+018,28,1.64953785704645E+018,r200141368/base_footprint,0,1.64953785704645E+018,v/m1vw10zy74w/map,-2.05459239457,5.14552322745,0,0,0,0.00373720312866,0.999993016632,1,53.6886558533,1.96078431606,84.1421279907,79.1603775024,34.1715583801,34.1715583801,53.6886558533,53.6886558533,47.6343727112,-1.87326169014,0,0.00039166919305,2.33075284958,0.0027592650149,0.00236759590916,19.7216091156,0.909567892551,4.1908493042,0.0502793937922,10.4171981812,0.233628362417,-3.1036529541,-0.0696968957782,21.68239343166,83.3512268066,44.5887565613,44.5307197571,1444
1.6495378571461E+018,29,1.6495378571461E+018,r200141368/base_footprint,0,1.6495378571461E+018,v/m1vw10zy74w/map,-1.8341575437,5.14897417124,0,0,0,0.00196831612191,0.999998062864,1,54.7002754211,0,84.1421279907,79.2394180298,34.2983398438,34.2983398438,54.7002754211,54.7002754211,31.0790157318,-1.39443981647,0,0.000112844943942,2.43666195869,0.00485540507361,0.00474256044254,21.3414535522,1,4.08812713623,0.0490609332919,10.2286605835,0.22971816361,13.8630084991,0.308464258909,21.3414535522,83.32754516603,44.5270004273,44.9420242309,1444
1.64953785724619E+018,30,1.64953785724619E+018,r200141368/base_footprint,0,1.64953785724619E+018,v/m1vw10zy74w/map,-1.8341575437,5.14897417124,0,0,0,0.00196831612191,0.999998062864,1,54.4546852112,0,84.3635482788,79.2394180298,34.4624900818,34.4624900818,54.4546852112,54.4546852112,37.2724609375,-1.64509809017,0,9.90933112917E-05,2.52987504005,0.00917236786336,0.0092714605853,21.3414535522,1,4.08812713623,0.0490609332919,10.0645103455,0.226031631231,7.66956329346,0.170654609799,21.3414535522,83.32754516603,44.5270004273,44.94202423096,1444
1.64953785734579E+018,31,1.64953785734579E+018,r200141368/base_footprint,0,1.6495378573458E+018,v/m1vw10zy74w/map,-1.62468869975,5.15072083516,0,0,0,-0.0003576254775,0.999999936052,1,53.2831535339,0,84.0954742432,77.5543518066,34.5697288513,34.5697288513,53.2831535339,53.2831535339,53.451965332,-1.11344480515,0,9.80448894552E-05,2.65504336357,0.0163353718817,0.0164334177971,20.9247169495,1,5.76789093018,0.0692239031196,9.91382980347,0.222865030169,-8.70079040527,-0.194425970316,20.9247169495,83.32224273678,44.48355865477,44.75117492673,1422
1.64953785744596E+018,32,1.64953785744596E+018,r200141368/base_footprint,0,1.64953785744596E+018,v/m1vw10zy74w/map,-1.39755082481,5.15471690166,0,0,0,-0.00108875202981,0.999999407309,1,54.1624336243,0,83.638633728,77.5846328735,34.667301178,34.667301178,54.1624336243,54.1624336243,38.7877693176,-0.730645537376,0,4.68528560305E-05,2.76142907143,0.0211959183216,0.0211490653455,20.6932277679,1,5.78383636475,0.0693767815828,9.73658752441,0.21927331388,5.97428894043,0.133467704058,20.6932277679,83.36846923825,44.40388870241,44.76205825803,1430
1.64953785764592E+018,33,1.64953785764592E+018,r200141368/base_footprint,0,1.64953785764592E+018,v/m1vw10zy74w/map,-1.38136603817,5.15065506507,0,0,0,-0.00306852559004,0.999995292064,1,54.1400299072,0,83.0336990356,79.7671661377,34.6214675903,34.6214675903,54.1400299072,54.1400299072,46.55311203,-0.576605379581,0,4.7084511607E-05,2.85298895836,0.0218508057296,0.0218037217855,20.679813385,1,3.59627532959,0.043139718473,9.79570388794,0.220538675785,-1.66096115112,-0.0369989201427,20.679813385,83.36344146729,44.41717147824,44.89215087888,1465
1.64953785774646E+018,34,1.64953785774646E+018,r200141368/base_footprint,0,1.64953785774646E+018,v/m1vw10zy74w/map,-1.38136603817,5.15065506507,0,0,0,-0.00306852559004,0.999995292064,1,54.2978630066,0,81.2382202148,79.7671661377,34.570514679,34.570514679,54.2978630066,54.2978630066,43.1618385315,-0.555925726891,0,8.01744681667E-05,2.96057224274,0.022115919739,0.0220357440412,20.679813385,1,3.59627532959,0.043139718473,9.84665679932,0.221685811877,1.73031234741,0.0385437607765,20.679813385,83.36344146729,44.41717147832,44.89215087891,1465
1.64953785784615E+018,35,1.64953785784615E+018,r200141368/base_footprint,0,1.64953785784615E+018,v/m1vw10zy74w/map,-1.14769267777,5.14995085151,0,0,0,-0.00783542073829,0.99996930262,1,53.1916618347,0,81.2382202148,78.3786697388,34.424659729,34.424659729,53.1916618347,53.1916618347,56.4996147156,-0.610403060913,0,8.52410084917E-06,3.07775998116,0.0224381126463,0.0224466361105,20.3268165588,1,4.99327087402,0.0598915033042,9.9116897583,0.223556742072,-11.1251602173,-0.245185539126,20.3268165588,83.37194061282,44.3363494873,45.3744544983,1470
1.64953785794767E+018,36,1.64953785794767E+018,r200141368/base_footprint,0,1.64953785794767E+018,v/m1vw10zy74w/map,-0.938140352392,5.15202707918,0,0,0,-0.00549825319457,0.999984884492,1,52.8382911682,0,81.2382202148,75.8099441528,34.3295211792,34.3295211792,52.8382911682,52.8382911682,52.5853729248,-0.328521341085,0,8.32450095913E-05,3.18500804901,0.0220286734402,0.0219454299659,22.3744239807,1,10.1146011353,0.11771491915,10.1770820618,0.228664547205,-7.39992141724,-0.163767784834,22.3744239807,85.9245452881,44.506603241,45.18545150756,2097
1.64953785804584E+018,37,1.64953785804584E+018,r200141368/base_footprint,0,1.64953785804584E+018,v/m1vw10zy74w/map,-0.913747211714,5.15173844467,0,0,0,-0.00762968454638,0.999970893533,1,53.4405899048,0,81.2382202148,80.4852600098,34.2812995911,34.2812995911,53.4405899048,53.4405899048,58.0543708801,-0.57438158989,0,0.000110854220111,3.32173538208,0.022692784667,0.022581929341,22.8777046204,1,5.88223266602,0.0681070238352,10.4044532776,0.232836022973,-13.300327301,-0.297187149525,22.8777046204,86.36749267582,44.6857528687,44.7540435791,2283
1.64953785814605E+018,38,1.64953785814605E+018,r200141368/base_footprint,0,1.64953785814605E+018,v/m1vw10zy74w/map,-0.685180491083,5.15115887235,0,0,0,-0.00319777740578,0.999994887097,1,52.9970169067,0,75.2296066284,77.1593399048,34.1486587524,34.1486587524,52.9970169067,52.9970169067,52.6327972412,-0.509484708309,0,9.4087976322E-05,3.42392778397,0.0222901199013,0.0221960321069,23.8054351807,1,10.2621688843,0.117387227714,10.7908821106,0.240119993687,-8.55406570435,-0.194063335657,23.8054351807,87.4215087891,44.939540863,44.07873153685,2885
1.64953785824537E+018,39,1.64953785824537E+018,r200141368/base_footprint,0,1.64953785824537E+018,v/m1vw10zy74w/map,-0.481645968722,5.15336682955,0,0,0,-0.00102811221149,0.999999471493,1,53.2966384888,0,68.7246780396,75.592918396,34.0495834351,34.0495834351,53.2966384888,53.2966384888,40.5305366516,-0.299398392439,0,0.000298569444567,3.54637694359,0.0174483489245,0.0171497799456,23.8460712433,1,12.2120361328,0.139081403613,10.8451728821,0.241568803787,3.65756225586,0.0827725678682,23.8460712433,87.8049545288,44.8947563172,44.18809890746,3010
1.64953785834534E+018,40,1.64953785834534E+018,r200141368/base_footprint,0,1.64953785834534E+018,v/m1vw10zy74w/map,-0.455611030975,5.15877704812,0,0,0,-0.000234164226001,0.999999972584,1,53.1727752686,0,62.3009414673,77.8678665161,33.8754501343,33.8754501343,53.1727752686,53.1727752686,49.0692443848,-0.606489896774,0,0.000351371418219,3.63945126534,0.01008031331,0.00972894206643,23.8460712433,1,9.9370880127,0.113172292709,11.0193061829,0.245447516441,-4.88114547729,-0.110462896526,23.8460712433,87.8049545288,44.8947563172,44.18809890751,3010
1.64953785844542E+018,41,1.64953785844542E+018,r200141368/base_footprint,0,1.64953785844542E+018,v/m1vw10zy74w/map,-0.222751700604,5.1734464217,0,0,0,0.00268170814776,0.999996404214,1,53.6068534851,0,56.3621826172,80.1513824463,34.050868988,34.050868988,53.6068534851,53.6068534851,51.3709869385,-0.855532348156,0,0.000456454377854,3.81190156937,0.0236500091851,0.0241064634174,23.172246933,1,7.59819030762,0.0865894854069,10.6186828613,0.237716346979,-7.20362091064,-0.163098275661,23.172246933,87.74957275392,44.6695518493,44.16736602786,2832
1.64953785854542E+018,42,1.64953785854542E+018,r200141368/base_footprint,0,1.64953785854542E+018,v/m1vw10zy74w/map,0.0169850884046,5.1841209999,0,0,0,-0.00173066738351,0.999998502394,1,53.392993927,0,56.3621826172,79.3637008667,34.0722541809,34.0722541809,53.392993927,53.392993927,52.6157417297,-0.462187111378,0,7.66472439864E-05,3.84847521782,0.0350192449987,0.0350958928466,21.0169792175,1,6.87424468994,0.0797125250101,10.1901473999,0.230221301317,-8.47150039673,-0.191904991865,21.0169792175,86.23794555664,44.2624015808,44.14424133297,2156
1.64953785864579E+018,43,1.64953785864579E+018,r200141368/base_footprint,0,1.6495378586458E+018,v/m1vw10zy74w/map,0.0169850884046,5.1841209999,0,0,0,-0.00173066738351,0.999998502394,1,53.7774085999,0,50.8348426819,79.3637008667,34.2247276306,34.2247276306,53.7774085999,53.7774085999,47.3430519104,-0.682633399963,0,0.00054390769219,3.98456215858,0.119156204164,0.118612296879,21.0169792175,1,6.87424468994,0.0797125250101,10.0376739502,0.226776525378,-3.19881057739,-0.0724626928568,21.0169792175,86.23794555664,44.2624015808,44.14424133301,2156
1.64953785874522E+018,44,1.64953785874522E+018,r200141368/base_footprint,0,1.64953785874522E+018,v/m1vw10zy74w/map,0.25310004882,5.19057620563,0,0,0,-0.0144155016398,0.999896091258,1,54.1678886414,0,47.5408477783,80.0785293579,34.2822570801,34.2822570801,54.1678886414,54.1678886414,43.5090866089,-0.127240389585,0,0.000842965033371,4.03503465652,0.181608974934,0.180766016245,19.5153827667,1,4.81645202637,0.0567342378199,9.36758804321,0.214607596397,1.41672134399,0.0315346866846,19.5153827667,84.89498138427,43.64984512331,44.92580795289,1782
1.64953785884585E+018,45,1.64953785884585E+018,r200141368/base_footprint,0,1.64953785884585E+018,v/m1vw10zy74w/map,0.494331239496,5.186012278,0,0,0,-0.03476576351,0.999395488126,1,52.4681777954,1.35746610165,46.9099617004,74.9309616089,34.4324913025,34.4324913025,52.4681777954,52.4681777954,57.1951408386,-0.635205447674,0,0.00108166737482,4.05863904953,0.257102787495,0.256021112204,18.2256412506,0.930681824684,10.9314422607,0.127313494682,8.77082061768,0.203012689948,-12.5727882385,-0.281759858131,19.58310735225,85.8624038696,43.20331192018,44.6223526001,2158
1.64953785894683E+018,46,1.64953785894683E+018,r200141368/base_footprint,0,1.64953785894683E+018,v/m1vw10zy74w/map,0.494331239496,5.186012278,0,0,0,-0.03476576351,0.999395488126,1,52.3190727234,2.41678071022,46.3374710083,74.9309616089,34.4621124268,34.4621124268,52.3190727234,52.3190727234,60.1990013123,-0.569781601429,0,0.00125072884839,4.06079816818,0.308878928423,0.307628184557,17.1663265228,0.876588523388,10.9314422607,0.127313494682,8.74119949341,0.20232707262,-15.5766487122,-0.349077254534,19.58310723302,85.8624038696,43.20331192021,44.6223526001,2158
1.64953785905322E+018,47,1.64953785905322E+018,r200141368/base_footprint,0,1.64953785905322E+018,v/m1vw10zy74w/map,0.702062749825,5.17371953675,0,0,0,-0.0647835550275,0.997899339111,1,53.0703086853,0,46.3374710083,76.3627929688,34.4030227661,34.4030227661,53.0703086853,53.0703086853,51.193157196,-0.162779614329,0,0.00126869964879,4.06055116653,0.321512848139,0.320244163275,19.8966999054,1,9.84799194336,0.114231556654,8.74522018433,0.202678471804,-6.81122207642,-0.153468340635,19.8966999054,86.21078491216,43.14824295043,44.38193511958,2354
1.6495378591453E+018,48,1.6495378591453E+018,r200141368/base_footprint,0,1.6495378591453E+018,v/m1vw10zy74w/map,0.721210429069,5.16561004498,0,0,0,-0.0695591373315,0.997577829752,1,53.9220542908,0.452488690615,46.3374710083,79.89427948,34.3873329163,34.3873329163,53.9220542908,53.9220542908,48.4056167603,-0.208259135485,0,0.00140870560426,4.04099988937,0.413766235113,0.412357538939,19.5003032684,0.977322101593,6.35340118408,0.0736646056175,8.74473953247,0.202743321657,-4.09448242188,-0.0924030169845,19.952791959015,86.24768066408,43.13207244877,44.31113433842,2393
1.64953785924604E+018,49,1.64953785924604E+018,r200141368/base_footprint,0,1.64953785924604E+018,v/m1vw10zy74w/map,0.953338631765,5.12185493416,0,0,0,-0.110878466585,0.993833972879,1,53.4886741638,2.7327466011,47.9537773132,80.0437850952,34.4564743042,34.4564743042,53.4886741638,53.4886741638,57.4914093018,-0.370873510838,0,0.00143653701525,4.02321147919,0.495778262615,0.494341731071,17.0168838501,0.861630499363,6.21283721924,0.0720273628831,8.56422805786,0.199072256684,-13.1152000427,-0.295545756817,19.7496304512,86.25662231444,43.02070236206,44.3762092591,2289
1.64953785934583E+018,50,1.64953785934583E+018,r200141368/base_footprint,0,1.64953785934583E+018,v/m1vw10zy74w/map,1.15332912286,5.06820765604,0,0,0,-0.162479678442,0.986711890115,1,53.317653656,0,48.517742157,76.7740402222,34.5185813904,34.5185813904,53.317653656,53.317653656,49.4694786072,-0.269292593002,0,0.00149296387099,3.99589753151,0.587029278278,0.585536301136,19.3005084991,1,9.71332550049,0.112309187651,8.39810562134,0.195683926344,-5.13563537598,-0.11584006995,19.3005084991,86.48736572269,42.91668701174,44.33384323122,2161
1.64953785944654E+018,51,1.64953785944654E+018,r200141368/base_footprint,0,1.64953785944654E+018,v/m1vw10zy74w/map,1.18522796134,5.06042908788,0,0,0,-0.166594561358,0.986025482493,1,52.6853370667,0.314324200153,48.517742157,77.1730194092,34.4667205811,34.4667205811,52.6853370667,52.6853370667,61.727394104,-0.525121569633,0,0.00189198181033,3.93099474907,0.693360924721,0.691468954086,18.7061386108,0.983474433422,9.40706634521,0.108651615679,8.39635467529,0.195887833834,-17.4408569336,-0.393818497658,19.020462810953,86.58008575441,42.86307525639,44.2865371704,2121
1.64953785954662E+018,52,1.64953785954662E+018,r200141368/base_footprint,0,1.64953785954662E+018,v/m1vw10zy74w/map,1.36494427217,4.98426648503,0,0,0,-0.231189272508,0.972908793401,1,54.1864128113,0.790166795254,48.517742157,79.784362793,34.6073646545,34.6073646545,54.1864128113,54.1864128113,45.6278266907,-0.285610169172,0,0.00211614277214,3.85484957695,0.771642386913,0.76952624321,17.2693595886,0.956246554852,6.95142364502,0.0801448151469,8.16800689697,0.190951168537,-1.35334777832,-0.0305672213435,18.059526383854,86.73578643802,42.77537155147,44.27447891238,1938
1.64953785964602E+018,53,1.64953785964602E+018,r200141368/base_footprint,0,1.64953785964602E+018,v/m1vw10zy74w/map,1.36494427217,4.98426648503,0,0,0,-0.231189272508,0.972908793401,1,54.3604125977,1.06951868534,48.8567695618,79.784362793,34.8269309998,34.8269309998,54.3604125977,54.3604125977,44.8671073914,-0.358116835356,0,0.00238462374546,3.79896402359,0.825970232487,0.823585569859,16.9900074005,0.940778136253,6.95142364502,0.0801448151469,7.94844055176,0.18581815064,-0.592628479004,-0.0133853293955,18.05952608584,86.73578643802,42.77537155156,44.274478912396,1938
1.64953785974593E+018,54,1.64953785974593E+018,r200141368/base_footprint,0,1.64953785974593E+018,v/m1vw10zy74w/map,1.49814813398,4.91294403164,0,0,0,-0.289221906632,0.957262079435,1,53.8380813599,4.63458108902,51.7860336304,77.5694122314,34.9305992126,34.9305992126,53.8380813599,53.8380813599,47.4149208069,-0.568518638611,0,0.00271571241319,3.66511869431,0.918516755104,0.915801048279,11.5563163757,0.713753938675,8.9056854248,0.102985545993,7.74994659424,0.181580305099,-2.99649047852,-0.0674605220556,16.19089746472,86.4750976562,42.68054580684,44.41843032838,1635
1.64953785984607E+018,55,1.64953785984607E+018,r200141368/base_footprint,0,1.64953785984607E+018,v/m1vw10zy74w/map,1.63240554969,4.83249425841,0,0,0,-0.347179061824,0.937798858514,1,54.7121315002,2.57352948189,54.8166618347,79.6938323975,35.1226959229,35.1226959229,54.7121315002,54.7121315002,41.4045181274,-0.453663825989,0,0.00263596908189,3.59212327003,0.965322136879,0.962686181068,12.4843578339,0.829090952873,7.61576843262,0.0872271582484,7.38469314575,0.173727288842,3.39703369141,0.0758240148425,15.05788731579,87.30960083012,42.50738906865,44.80155181881,1624
1.64953785994538E+018,56,1.64953785994538E+018,r200141368/base_footprint,0,1.64953785994538E+018,v/m1vw10zy74w/map,1.73070084176,4.73337163101,0,0,0,-0.397938352448,0.917412158003,1,53.9203643799,3.32877326012,54.8166618347,78.9427337646,35.346862793,35.346862793,53.9203643799,53.9203643799,55.3733901978,-0.297220915556,0,0.00248528900556,3.4986333847,1.03163135052,1.02914607525,11.3704175949,0.773540377617,9.15656280518,0.103934571147,6.9302444458,0.163924276829,-10.2392082214,-0.226861506701,14.69919085502,88.09929656978,42.2771072388,45.1341819764,1710
1.64953786004559E+018,57,1.64953786004559E+018,r200141368/base_footprint,0,1.64953786004559E+018,v/m1vw10zy74w/map,1.75761227699,4.71111817788,0,0,0,-0.407408064125,0.91324622599,1,54.536190033,0,54.8166618347,80.8840713501,35.5278778076,35.5278778076,54.536190033,54.536190033,53.2323379517,-0.296405732632,0,0.00267210626043,3.38545632362,1.09585666656,1.09318459034,14.6991910934,1,7.21522521973,0.0818987861276,6.74922943115,0.159642651677,-8.09815597534,-0.179424017668,14.6991910934,88.09929656983,42.27710723875,45.13418197636,1710
1.64953786014697E+018,58,1.64953786014697E+018,r200141368/base_footprint,0,1.64953786014697E+018,v/m1vw10zy74w/map,1.85235835217,4.58425313114,0,0,0,-0.466904437123,0.884307778205,1,53.8564605713,0,55.8980064392,78.2599411011,35.5864715576,35.5864715576,53.8564605713,53.8564605713,56.6533851624,-0.702886283398,0,0.00288534560241,3.2819185257,1.14570486546,1.14281952381,15.3296070099,1,10.4027481079,0.117329493165,6.5181427002,0.154808267951,-11.8824005127,-0.265404045582,15.3296070099,88.662689209,42.1046142578,44.7709846497,1832
1.64953786054657E+018,59,1.64953786054657E+018,r200141368/base_footprint,0,1.64953786054657E+018,v/m1vw10zy74w/map,1.85235835217,4.58425313114,0,0,0,-0.466904437123,0.884307778205,1,54.0666503906,0,55.8980064392,78.2599411011,35.6423416138,35.6423416138,54.0666503906,54.0666503906,53.4733390808,-0.197881132364,0,0.00287844915874,3.2396273613,1.16762268543,1.16474425793,15.3296070099,1,10.4027481079,0.117329493165,6.46227264404,0.153481334448,-8.70235443115,-0.194374874234,15.3296070099,88.662689209,42.10461425784,44.77098464965,1832
1.64953786074625E+018,60,1.64953786074625E+018,r200141368/base_footprint,0,1.64953786074625E+018,v/m1vw10zy74w/map,1.93090676053,4.45490836168,0,0,0,-0.52450511985,0.851407293398,1,54.0660667419,1.48254418373,59.70885849,78.9498214722,35.7317657471,35.7317657471,54.0660667419,54.0660667419,56.9332427979,-0.298756062984,0,0.0027219702024,3.15595221519,1.198538661,1.19581675529,14.4290475845,0.906826198101,9.8464050293,0.110887654126,6.25907516479,0.149058103561,-12.4070243835,-0.27864536643,15.91159176823,88.7962265015,41.99084091189,44.5262184144,1821
1.64953786084621E+018,61,1.64953786084621E+018,r200141368/base_footprint,0,1.64953786084621E+018,v/m1vw10zy74w/map,1.98955455307,4.31720592978,0,0,0,-0.572198148607,0.820115405739,1,53.9824562073,1.63934421539,64.0536499023,77.9561004639,35.7708854675,35.7708854675,53.9824562073,53.9824562073,55.2833480835,-0.257203668356,0,0.00247896742076,3.03698754311,1.22907030582,1.22659134865,15.6335268021,0.905091404915,10.5738296509,0.119437910616,6.21604919434,0.148047223687,-11.2503013611,-0.255496770144,17.27287101749,88.5299301148,41.98693466184,44.0330467224,1848
1.6495378609461E+018,62,1.6495378609461E+018,r200141368/base_footprint,0,1.6495378609461E+018,v/m1vw10zy74w/map,1.98955455307,4.31720592978,0,0,0,-0.572198148607,0.820115405739,1,53.7434387207,0.379506647587,66.5705795288,77.9561004639,35.7833099365,35.7833099365,53.7434387207,53.7434387207,59.7198448181,-0.129480615258,0,0.00224434235133,2.96804118156,1.23769271374,1.23544836044,16.8933639526,0.978028714657,10.5738296509,0.119437910616,6.20362472534,0.147751316428,-15.6867980957,-0.356250584126,17.272870600187,88.5299301148,41.98693466184,44.0330467224,1848
1.6495378610459E+018,63,1.6495378610459E+018,r200141368/base_footprint,0,1.6495378610459E+018,v/m1vw10zy74w/map,2.04006687174,4.11351748396,0,0,0,-0.620396131556,0.784288620312,1,53.8448219299,0,69.684211731,75.101348877,35.7590141296,35.7590141296,53.8448219299,53.8448219299,47.3554191589,-0.319831371307,0,0.00178129808046,2.85840892792,1.22754395008,1.22576272488,19.467414856,1,12.7743453979,0.145368352532,6.30360031128,0.14986230433,-4.329246521,-0.100618906319,19.467414856,87.8756942749,42.06261444088,43.0261726379,1814
1.64953786114566E+018,64,1.64953786114566E+018,r200141368/base_footprint,0,1.64953786114566E+018,v/m1vw10zy74w/map,2.04006687174,4.11351748396,0,0,0,-0.620396131556,0.784288620312,1,53.2369194031,0.526064097881,68.7477874756,75.101348877,35.6424598694,35.6424598694,53.2369194031,53.2369194031,57.0388641357,-0.353508293629,0,0.00140486424789,2.7953608036,1.21230089664,1.21089601517,18.9413509369,0.972977221012,12.7743453979,0.145368352532,6.42015457153,0.152633279562,-14.0126914978,-0.325678318739,19.467415034781,87.8756942749,42.06261444093,43.0261726379,1814
1.64953786124601E+018,65,1.64953786124601E+018,r200141368/base_footprint,0,1.64953786124601E+018,v/m1vw10zy74w/map,2.08882393922,3.86328677282,0,0,0,-0.652683142523,0.757630988983,1,52.9064865112,0,66.8904418945,71.4579925537,35.6832580566,35.6832580566,52.9064865112,52.9064865112,50.3111686707,-0.948802173138,0,0.000565936730709,2.67695426941,1.16398572922,1.16341972351,22.0712242126,1,14.8511734009,0.172069475055,6.60122680664,0.156114637852,-8.88430786133,-0.214457660913,22.0712242126,86.3091659546,42.28448486324,41.42686080937,1692
1.6495378613463E+018,66,1.6495378613463E+018,r200141368/base_footprint,0,1.6495378613463E+018,v/m1vw10zy74w/map,2.10595046579,3.63263923287,0,0,0,-0.66356199965,0.748121295393,1,52.5241699219,0,62.621547699,70.1855239868,35.6860046387,35.6860046387,52.5241699219,52.5241699219,52.6416854858,2.40379309654,0,0.000177778012585,2.55630517006,1.08283567429,1.08301341534,23.4845523834,1,14.7174682617,0.173344522715,6.88575363159,0.161744639277,-12.2698135376,-0.30391985178,23.4845523834,84.9029922485,42.57175827029,40.3718719482,1645
1.64953786144608E+018,67,1.64953786144608E+018,r200141368/base_footprint,0,1.64953786144608E+018,v/m1vw10zy74w/map,2.11248530267,3.39925978709,0,0,0,-0.667589535732,0.744529523781,1,52.70703125,0,56.3989105225,65.402130127,35.7750320435,35.7750320435,52.70703125,52.70703125,33.0914573669,2.0426337719,0,0.000929559755605,2.47202730179,0.977995872498,0.978925406933,23.7816238403,1,18.6701126099,0.222072258592,6.98100662231,0.163275331259,6.72334671021,0.168865501881,23.7816238403,84.0722427369,42.75603866581,39.81480407711,1637
1.64953786154511E+018,68,1.64953786154511E+018,r200141368/base_footprint,0,1.64953786154511E+018,v/m1vw10zy74w/map,2.13642129858,3.17622428051,0,0,0,-0.661261469881,0.750155496182,1,50.8086013794,0,51.6768341064,60.4741363525,35.8510360718,35.8510360718,50.8086013794,50.8086013794,50.3432769775,2.01701331139,0,0.00162484322209,2.43325257301,0.832175910473,0.833800733089,24.3901195526,1,22.5629730225,0.271721571684,7.08414459229,0.164996266365,-11.4600028992,-0.294728338718,24.3901195526,83.037109375,42.93518066409,38.8832740783,1533
1.64953786164524E+018,69,1.64953786164524E+018,r200141368/base_footprint,0,1.64953786164524E+018,v/m1vw10zy74w/map,2.13642129858,3.17622428051,0,0,0,-0.661261469881,0.750155496182,1,51.0233612061,0,46.5602264404,60.4741363525,35.9686355591,35.9686355591,51.0233612061,51.0233612061,47.7476806641,2.23618340492,0,0.00173081853427,2.43290400505,0.740336596966,0.742067456245,24.3901195526,1,22.5629730225,0.271721571684,6.96654510498,0.162257269025,-8.86440658569,-0.227974802256,24.3901195526,83.037109375,42.93518066408,38.88327407841,1533
1.64953786174567E+018,70,1.64953786174567E+018,r200141368/base_footprint,0,1.64953786174568E+018,v/m1vw10zy74w/map,2.1615695553,2.94835922207,0,0,0,-0.65339687613,0.757015536342,1,50.5479431152,0,46.0448112488,58.8419151306,36.0481376648,36.0481376648,50.5479431152,50.5479431152,51.2878303528,2.25267910957,0,0.00192029809114,2.4441409111,0.645823657513,0.647743940353,25.1695709229,1,23.1926460266,0.282717972994,7.07702255249,0.164104267955,-13.2256546021,-0.347474992275,25.1695709229,82.0345611572,43.12516021729,38.0621757507,1373
1.64953786184683E+018,71,1.64953786184683E+018,r200141368/base_footprint,0,1.64953786184683E+018,v/m1vw10zy74w/map,2.19350695291,2.71328563208,0,0,0,-0.642579294627,0.766219191952,1,49.7172737122,0,45.6853408813,55.7127571106,35.991027832,35.991027832,49.7172737122,49.7172737122,54.3581237793,1.73190701008,0,0.00238205399364,2.47434091568,0.432965755463,0.435347825289,28.3958854675,1,23.1146354675,0.293231010437,7.57239151001,0.173824548721,-19.9874305725,-0.58152538538,28.3958854675,78.8273925781,43.56341934201,34.3706932068,941
1.64953786194633E+018,72,1.64953786194633E+018,r200141368/base_footprint,0,1.64953786194633E+018,v/m1vw10zy74w/map,2.20044201241,2.69478196659,0,0,0,-0.641077074691,0.767476504074,1,51.108795166,0,45.6853408813,61.3515663147,36.0601081848,36.0601081848,51.108795166,51.108795166,50.3564987183,2.18673372269,0,0.00325064989738,2.56824731827,0.200664699078,0.203915342689,28.3958854675,1,17.4758262634,0.221697375178,7.50331115723,0.172238796949,-15.9858055115,-0.465099900961,28.3958854675,78.8273925781,43.56341934203,34.3706932068,941
1.64953786204624E+018,73,1.64953786204624E+018,r200141368/base_footprint,0,1.64953786204624E+018,v/m1vw10zy74w/map,2.24450402464,2.44084881512,0,0,0,-0.622623683302,0.782521404814,1,50.5879211426,0,45.3653068542,56.2215461731,36.1781730652,36.1781730652,50.5879211426,50.5879211426,42.5392303467,1.62698984146,0,0.00347060151398,2.60100769997,0.148070842028,0.151541441679,29.2532100677,1,21.9502067566,0.280794620514,7.7176399231,0.175817221403,-8.06800460815,-0.234050408006,29.2532100677,78.1717529297,43.8958129883,34.47122573855,984
1.64953786214523E+018,74,1.64953786214523E+018,r200141368/base_footprint,0,1.64953786214523E+018,v/m1vw10zy74w/map,2.24450402464,2.44084881512,0,0,0,-0.622623683302,0.782521404814,1,50.3368301392,0,45.077671051,56.2215461731,36.1855812073,36.1855812073,50.3368301392,50.3368301392,47.1389083862,1.53832900524,0,0.00412511406466,2.69388866425,0.0241655781865,0.0282906908542,29.2532100677,1,21.9502067566,0.280794620514,7.71023178101,0.175648450851,-12.6676826477,-0.367485702038,29.2532100677,78.1717529297,43.89581298831,34.4712257385,984
1.64953786224604E+018,75,1.64953786224604E+018,r200141368/base_footprint,0,1.64953786224604E+018,v/m1vw10zy74w/map,2.29893548326,2.17703947331,0,0,0,-0.600605858047,0.7995452478,1,50.3870735168,0,45.077671051,55.1891441345,36.1495895386,36.1495895386,50.3870735168,50.3870735168,42.1291542053,1.21419346333,0,0.00441443361342,2.77983999252,0.0629891082644,0.0585746765137,30.3523597717,1,22.8543510437,0.29284119606,8.24382781982,0.18569932878,-7.77025222778,-0.226149603724,30.3523597717,78.0434951782,44.39341735842,34.35890197752,996
1.6495378623452E+018,76,1.6495378623452E+018,r200141368/base_footprint,0,1.6495378623452E+018,v/m1vw10zy74w/map,2.29893548326,2.17703947331,0,0,0,-0.600605858047,0.7995452478,1,50.6385192871,0,44.9119148254,55.1891441345,36.2091751099,36.2091751099,50.6385192871,50.6385192871,38.2466964722,2.17335724831,0,0.00427764747292,2.89448618889,0.17450606823,0.170228421688,30.3523597717,1,22.8543510437,0.29284119606,8.18424224854,0.184357106686,-3.88779449463,-0.113152466714,30.3523597717,78.0434951782,44.39341735844,34.35890197757,996
1.64953786244555E+018,77,1.64953786244555E+018,r200141368/base_footprint,0,1.64953786244555E+018,v/m1vw10zy74w/map,2.38838325608,1.93826137825,0,0,0,-0.577278577523,0.81654726987,1,50.4812736511,0,44.9119148254,55.0349311829,36.1328048706,36.1328048706,50.4812736511,50.4812736511,39.6971473694,1.44850564003,0,0.00417695054784,2.99052715302,0.262300342321,0.258123397827,31.1680641174,1,23.3490867615,0.297880709171,8.71376037598,0.194301620126,-5.53649520874,-0.16207228601,31.1680641174,78.3840179444,44.84656524658,34.16065216066,949
1.64953786254658E+018,78,1.64953786254658E+018,r200141368/base_footprint,0,1.64953786254658E+018,v/m1vw10zy74w/map,2.38838325608,1.93826137825,0,0,0,-0.577278577523,0.81654726987,1,50.7771186829,0,44.9119148254,55.0349311829,36.0690727234,36.0690727234,50.7771186829,50.7771186829,33.6835861206,1.9306447506,0,0.00394743075594,3.05493807793,0.326795697212,0.322848260403,31.1680641174,1,23.3490867615,0.297880709171,8.77749252319,0.195722743869,0.477066040039,0.0139653664082,31.1680641174,78.3840179444,44.84656524659,34.160652160639,949
1.64953786264632E+018,79,1.64953786264632E+018,r200141368/base_footprint,0,1.64953786264632E+018,v/m1vw10zy74w/map,2.47659416255,1.70489609562,0,0,0,-0.557666992532,0.830064771834,1,49.791973114,0,44.9119148254,50.2802581787,35.9992027283,35.9992027283,49.791973114,49.791973114,33.5447921753,1.56517970562,0,0.00394863355905,3.09627366066,0.364973157644,0.361024528742,31.8201179504,1,28.5257110596,0.361974000931,9.21075439453,0.20373287797,0.765075683594,0.0222989991307,31.8201179504,78.8059692383,45.20995712283,34.309867858894,888
1.64953786274643E+018,80,1.64953786274643E+018,r200141368/base_footprint,0,1.64953786274643E+018,v/m1vw10zy74w/map,2.49659864161,1.69126849563,0,0,0,-0.554733640478,0.832027997199,1,50.2036323547,0,44.803691864,54.9666442871,35.7411003113,35.7411003113,50.2036323547,50.2036323547,40.2184295654,1.68955671787,0,0.00334825925529,3.20876288414,0.490751624107,0.487403362989,31.8201179504,1,23.8393249512,0.30250659585,9.46885681152,0.209441840649,-5.90856170654,-0.172211736441,31.8201179504,78.8059692383,45.20995712282,34.30986785886,888
1.64953786284602E+018,81,1.64953786284602E+018,r200141368/base_footprint,0,1.64953786284602E+018,v/m1vw10zy74w/map,2.61025246054,1.44848756809,0,0,0,-0.535754292127,0.844373932844,1,49.4683380127,0,44.637588501,48.2207145691,35.8227424622,35.8227424622,49.4683380127,49.4683380127,30.0500774384,1.64075064659,0,0.00304326391779,3.22505474091,0.520279884338,0.517236590385,32.0228271484,1,31.29164505,0.393544405699,9.84698867798,0.215613022447,3.73917579651,0.110661685467,32.0228271484,79.5123596191,45.66973114018,33.78925323491,753
1.64953786294616E+018,82,1.64953786294616E+018,r200141368/base_footprint,0,1.64953786294616E+018,v/m1vw10zy74w/map,2.77236439553,1.18739556784,0,0,0,-0.515387918787,0.856956996102,1,49.3121490479,0,44.637588501,50.0036354065,35.7351608276,35.7351608276,49.3121490479,49.3121490479,38.3341255188,1.68095231056,0,0.00237962068059,3.23460483551,0.570308804512,0.567929208279,32.1654624939,1,30.3130760193,0.377419292927,10.384853363,0.225170210004,-5.15486907959,-0.155364215374,32.1654624939,80.3167114258,46.1200141906,33.17925643921,633
1.64953786304607E+018,83,1.64953786304607E+018,r200141368/base_footprint,0,1.64953786304608E+018,v/m1vw10zy74w/map,2.78738673508,1.15170087894,0,0,0,-0.512996124,0.858390923042,1,50.1341705322,0,44.6460342407,53.7595100403,35.7309417725,35.7309417725,50.1341705322,50.1341705322,37.0133399963,2.34908437729,0,0.00184693513438,3.19971656799,0.614476144314,0.612629234791,32.1654624939,1,26.5572013855,0.330655992031,10.3890724182,0.225261688232,-3.83408355713,-0.115556642413,32.1654624939,80.3167114258,46.1200141907,33.17925643917,633
1.64953786324611E+018,84,1.64953786324611E+018,r200141368/base_footprint,0,1.64953786324611E+018,v/m1vw10zy74w/map,2.91835696535,0.92474164637,0,0,0,-0.502000541453,0.864867305649,1,49.1500205994,0,45.0030097961,48.4338378906,35.7595405579,35.7595405579,49.1500205994,49.1500205994,35.8645133972,1.79462516308,0,0.00186795997433,3.17275667191,0.625683248043,0.62381529808,32.6247024536,1,32.7245178223,0.403218090534,10.6704750061,0.229818463326,-3.12833786011,-0.095562107861,32.6247024536,81.1583557129,46.430015564,32.73617553709,592
1.64953786344574E+018,85,1.64953786344574E+018,r200141368/base_footprint,0,1.64953786344574E+018,v/m1vw10zy74w/map,2.94263897449,0.883297925978,0,0,0,-0.50059611299,0.865680964131,1,48.6557731628,0,45.4789810181,45.3534965515,35.7479934692,35.7479934692,48.6557731628,48.6557731628,33.5469970703,1.71069443226,0,0.00190623092931,3.15650463104,0.6293181777,0.627411961555,32.6435127258,1,35.9085502625,0.441885858774,10.69921875,0.230352222919,-0.889041900635,-0.0272228289396,32.6435127258,81.262046814,46.4472122192,32.657955169665,596
1.64953786354778E+018,86,1.64953786354778E+018,r200141368/base_footprint,0,1.64953786354778E+018,v/m1vw10zy74w/map,2.94263897449,0.883297925978,0,0,0,-0.50059611299,0.865680964131,1,48.5304412842,0,45.4789810181,45.3534965515,35.7121772766,35.7121772766,48.5304412842,48.5304412842,35.4161720276,1.89375627041,0,0.00193292694166,3.12210416794,0.634093463421,0.632160544395,32.6435127258,1,35.9085502625,0.441885858774,10.7350349426,0.23112334311,-2.75821685791,-0.0844577327371,32.6435127258,81.262046814,46.4472122192,32.65795516969,596
1.64953786364645E+018,87,1.64953786364645E+018,r200141368/base_footprint,0,1.64953786364645E+018,v/m1vw10zy74w/map,3.08074091676,0.659007892143,0,0,0,-0.480758848265,0.876852855281,1,48.0907707214,0,45.4789810181,44.016960144,35.7426834106,35.7426834106,48.0907707214,48.0907707214,38.8481559753,1.63250088692,0,0.00191571249161,3.1044151783,0.635469734669,0.633553981781,33.2355651855,1,37.6715240479,0.461160778999,10.9254646301,0.234109669924,-6.82266616821,-0.213038623333,33.2355651855,81.6884841919,46.6681480407,32.02548980709,567
1.64953786384655E+018,88,1.64953786384655E+018,r200141368/base_footprint,0,1.64953786384655E+018,v/m1vw10zy74w/map,3.09956067147,0.628020708824,0,0,0,-0.476191819719,0.879341430181,1,47.7061538696,0,45.7217788696,44.3799324036,35.7787628174,35.7787628174,47.7061538696,47.7061538696,47.4676322937,2.01240777969,0,0.00191960891243,3.06541013718,0.636491239071,0.634571611881,33.3954277039,1,37.3337440491,0.456884890795,10.9048347473,0.23359028995,-15.6400165558,-0.491397678852,33.3954277039,81.7136764527,46.6835975647,31.8276157379,583
1.64953786394602E+018,89,1.64953786394602E+018,r200141368/base_footprint,0,1.64953786394602E+018,v/m1vw10zy74w/map,3.31667543849,0.324220607617,0,0,0,-0.440571697981,0.89771742711,1,47.3501853943,0,45.9034957886,39.6180114746,35.7405548096,35.7405548096,47.3501853943,47.3501853943,36.3195075989,2.20043754578,0,0.0016819863813,2.98395395279,0.626351356506,0.624669373035,34.6787261963,1,42.6627120972,0.518501877785,11.321182251,0.240560233593,-4.85603523254,-0.154338821769,34.6787261963,82.2807235718,47.0617370606,31.46347236636,569
1.64953786404586E+018,90,1.64953786404586E+018,r200141368/base_footprint,0,1.64953786404586E+018,v/m1vw10zy74w/map,3.52196638289,0.076048595675,0,0,0,-0.409019421158,0.912525678058,1,48.3347206116,0,47.1598930359,44.6062240601,35.7656936646,35.7656936646,48.3347206116,48.3347206116,36.8269004822,1.87431335449,0,0.00128747604322,2.85264992714,0.593762159348,0.592474639416,35.7336578369,1,37.8824615479,0.459244340658,11.656665802,0.245805263519,-5.70314025879,-0.18324072659,35.7336578369,82.488685608,47.4223594666,31.12376022341,542
1.64953786414638E+018,91,1.64953786414638E+018,r200141368/base_footprint,0,1.64953786414638E+018,v/m1vw10zy74w/map,3.7528049271,-0.153715098083,0,0,0,-0.382317133571,0.92403117338,1,48.0354042053,0,51.2450790405,42.8756713867,35.9407615662,35.9407615662,48.0354042053,48.0354042053,37.8753547668,1.59889352322,0,0.000542574154679,2.73215913773,0.546485304832,0.545942723751,36.6154251099,1,39.8105773926,0.481465518475,11.8741111755,0.24833509326,-6.4610118866,-0.205670759082,36.6154251099,82.6862487793,47.8148727417,31.4143428802,558
1.6495378642462E+018,92,1.6495378642462E+018,r200141368/base_footprint,0,1.6495378642462E+018,v/m1vw10zy74w/map,4.0063694948,-0.383476400488,0,0,0,-0.360746363962,0.932663959252,1,49.2271499634,0,50.0469169617,47.4615631104,36.1442680359,36.1442680359,49.2271499634,49.2271499634,35.1309890747,2.01565957069,0,0.000682318757754,2.57011437416,0.47727265954,0.477954983711,36.9110717773,1,35.4021759033,0.427233636379,11.8399276733,0.246746405959,-3.30100440979,-0.103707380593,36.9110717773,82.8637390137,47.9841957092,31.82998466491,557
1.64953786434742E+018,93,1.64953786434742E+018,r200141368/base_footprint,0,1.64953786434742E+018,v/m1vw10zy74w/map,4.5133531817,-0.809164763885,0,0,0,-0.350283652553,0.936643669041,1,46.4144515991,0,46.080291748,37.2672576904,36.442440033,36.442440033,46.4144515991,46.4144515991,52.2803344727,1.3258292675,0,0.00171096657868,2.42128777504,0.414100438356,0.415811389685,35.9950828552,1,45.1852798462,0.548015654087,12.0047187805,0.247789949179,-20.7845306396,-0.659914255142,35.9950828552,82.4525375366,48.4471588135,31.4958038331,553
1.6495378644455E+018,94,1.6495378644455E+018,r200141368/base_footprint,0,1.6495378644455E+018,v/m1vw10zy74w/map,4.77695625347,-1.03568733979,0,0,0,-0.361096774564,0.932528347773,1,46.477180481,0,45.4597244263,32.1157836914,36.5236053467,36.5236053467,46.477180481,46.477180481,33.4825057983,1.56172835827,0,0.00256378366612,2.23418593407,0.333709567785,0.336273372173,35.4982566833,1,50.2258758545,0.609969198704,12.1419944763,0.24949850142,-2.26015090942,-0.0723888650537,35.4982566833,82.3416595459,48.665599823,31.22235488888,566
1.64953786454529E+018,95,1.64953786454529E+018,r200141368/base_footprint,0,1.64953786454529E+018,v/m1vw10zy74w/map,5.03654897769,-1.26320037816,0,0,0,-0.380688749527,0.924703236711,1,46.3620109558,0,44.5819969177,33.0910568237,36.6554946899,36.6554946899,46.3620109558,46.3620109558,40.4909744263,1.92759490013,0,0.00336885149591,1.90952312946,0.259191513062,0.262560367584,36.43334198,1,49.1718597412,0.597740292549,12.4214706421,0.253101855516,-9.5405921936,-0.308254420757,36.43334198,82.2629165649,49.076965332,30.9503822327,633
1.64953786464645E+018,96,1.64953786464645E+018,r200141368/base_footprint,0,1.64953786464645E+018,v/m1vw10zy74w/map,5.26459938137,-1.49202247952,0,0,0,-0.408067209933,0.912951889301,1,46.0290679932,0,43.5860061646,31.9174365997,36.8746795654,36.8746795654,46.0290679932,46.0290679932,44.6260719299,2.12405395508,0,0.00352154043503,1.62525486946,0.239295601845,0.242817148566,38.524307251,1,50.5005645752,0.612737059593,12.7769432068,0.257331848145,-13.7088909149,-0.443406879902,38.524307251,82.4180011749,49.6516227722,30.917181015,823
1.64953786474552E+018,97,1.64953786474552E+018,r200141368/base_footprint,0,1.64953786474552E+018,v/m1vw10zy74w/map,5.43724160866,-1.72111935241,0,0,0,-0.438034882718,0.898957975393,1,45.5473060608,0,42.6576881409,28.3023605347,36.9936637878,36.9936637878,45.5473060608,45.5473060608,41.5685348511,2.35846877098,0,0.00402786256745,0.964461684227,0.220705509186,0.224733367562,40.7315216064,1,54.8025817871,0.659438312054,13.403881073,0.265962988138,-10.8546161652,-0.353410333395,40.7315216064,83.1049423218,50.3975448608,30.7139186859,1350
1.64953786484521E+018,98,1.64953786484521E+018,r200141368/base_footprint,0,1.64953786484521E+018,v/m1vw10zy74w/map,5.60289251198,-1.9530280638,0,0,0,-0.478870528376,0.877885537558,1,43.4279174805,0,41.9420471191,15.1100654602,37.1722640991,37.1722640991,43.4279174805,43.4279174805,34.1541824341,2.41222167015,0,0.00441002473235,0.721218526363,0.221207335591,0.225617364049,42.5865631104,1,69.9196929932,0.82229667902,13.9277000427,0.272557914257,-3.80391693115,-0.125333890319,42.5865631104,85.0297584534,51.0999641418,30.35026550295,2029
1.64953786494563E+018,99,1.64953786494563E+018,r200141368/base_footprint,0,1.64953786494563E+018,v/m1vw10zy74w/map,5.60289251198,-1.9530280638,0,0,0,-0.478870528376,0.877885537558,1,43.0138473511,1.45801913738,41.3513069153,15.1100654602,37.423412323,37.423412323,43.0138473511,43.0138473511,44.3198661804,2.07296252251,0,0.00333861866966,0.325345635414,0.210084706545,0.21342331171,41.1285438538,0.965763390064,69.9196929932,0.82229667902,13.6765518188,0.267643094063,-13.9696006775,-0.460279345512,42.58656299118,85.0297584534,51.0999641418,30.3502655029,2029
1.64953786504601E+018,100,1.64953786504601E+018,r200141368/base_footprint,0,1.64953786504601E+018,v/m1vw10zy74w/map,5.60289251198,-1.9530280638,0,0,0,-0.478870528376,0.877885537558,1,43.5752868652,7.42526531219,40.6610488892,15.1100654602,37.6327095032,37.6327095032,43.5752868652,43.5752868652,36.4743423462,-2.42710900307,0,0.00277731008828,0.109117075801,0.194250419736,0.197027727962,35.1612968445,0.825643002987,69.9196929932,0.82229667902,13.4672546387,0.263547241688,-6.12407684326,-0.201780006289,42.58656215669,85.0297584534,51.0999641419,30.35026550294,2029
1.64953786554672E+018,101,1.64953786554672E+018,r200141368/base_footprint,0,1.64953786554672E+018,v/m1vw10zy74w/map,5.7286212896,-2.18039166655,0,0,0,-0.517164603012,0.855885958169,1,41.9598121643,12.4939231873,40.6610488892,8.37456035614,37.7677879333,37.7677879333,41.9598121643,41.9598121643,42.7639160156,-2.39967918396,0,0.000757454312406,0.669165730476,0.0367127470672,0.0359552949667,31.3423614502,0.714986741543,77.7673187256,0.902781784534,13.750087738,0.266899347305,-12.7453594208,-0.424582690001,43.8362846375,86.14187908174,51.5178756713,30.0185565948,2365
1.64953786564687E+018,102,1.64953786564687E+018,r200141368/base_footprint,0,1.64953786564687E+018,v/m1vw10zy74w/map,5.7286212896,-2.18039166655,0,0,0,-0.517164603012,0.855885958169,1,42.582572937,6.86274528503,40.3126983643,8.37456035614,37.8501739502,37.8501739502,42.582572937,42.582572937,32.4439582825,-2.28612852097,0,0.00179127964657,0.69738984108,0.0807072743773,0.0789159908891,36.9735412598,0.843446075916,77.7673187256,0.902781784534,13.6677017212,0.265300184488,-2.42540168762,-0.0807967483997,43.83628654483,86.14187908174,51.5178756714,30.01855659488,2365
1.64953786574549E+018,103,1.64953786574549E+018,r200141368/base_footprint,0,1.64953786574549E+018,v/m1vw10zy74w/map,5.7286212896,-2.18039166655,0,0,0,-0.517164603012,0.855885958169,1,42.3512687683,6.08007907867,40.3126983643,8.37456035614,37.9332237244,37.9332237244,42.3512687683,42.3512687683,37.5044212341,-2.08086967468,0,0.00364477420226,0.731074869633,0.117115654051,0.113470874727,37.7562065125,0.861300349236,77.7673187256,0.902781784534,13.584651947,0.263688117266,-7.48586463928,-0.249374568462,43.83628559117,86.14187908174,51.5178756714,30.01855659482,2365
1.64953786584614E+018,104,1.64953786584614E+018,r200141368/base_footprint,0,1.64953786584615E+018,v/m1vw10zy74w/map,5.7286212896,-2.18039166655,0,0,0,-0.517164603012,0.855885958169,1,42.1629905701,9.57705402374,40.3126983643,8.37456035614,37.9795722961,37.9795722961,42.1629905701,42.1629905701,41.3939781189,-2.41883420944,0,0.00399207696319,0.759907245636,0.10996478796,0.105972714722,34.2592315674,0.78152680397,77.7673187256,0.902781784534,13.5383033752,0.26278847456,-11.375421524,-0.378946304321,43.83628559114,86.14187908174,51.5178756713,30.0185565949,2365
1.64953786794513E+018,105,1.64953786794513E+018,r200141368/base_footprint,0,1.64953786794513E+018,v/m1vw10zy74w/map,5.80248846846,-2.35661184843,0,0,0,-0.611652428856,0.791126605718,1,40.8307876587,2.77102565765,40.3126983643,0,38.0179786682,38.0179786682,40.8307876587,40.8307876587,35.6399726868,-2.58449244499,0,1.95635875571E-05,0.0526878423989,0.0236692335457,0.0236496701837,41.6878623962,0.937672138214,86.5234146118,1,13.7650756836,0.265822023153,-5.67711639404,-0.189471796155,44.45888805385,86.5234146118,51.7830543518,29.96285629276,2476
1.64953786804597E+018,106,1.64953786804597E+018,r200141368/base_footprint,0,1.64953786804597E+018,v/m1vw10zy74w/map,5.80248846846,-2.35661184843,0,0,0,-0.611652428856,0.791126605718,1,40.2133789062,6.66018486023,40.4113311768,0,38.040145874,38.040145874,40.2133789062,40.2133789062,46.9927787781,-2.69177651405,0,0.000372376409359,0.00651535624638,0.025026127696,0.0246537514031,37.7987060547,0.850194573402,86.5234146118,1,13.7429084778,0.265393942595,-17.0299224854,-0.568367779255,44.45889091493,86.5234146118,51.7830543518,29.9628562927,2476
