%time,field.header.seq,field.header.stamp,field.header.frame_id,field.pose.header.seq,field.pose.header.stamp,field.pose.header.frame_id,field.pose.pose.position.x,field.pose.pose.position.y,field.pose.pose.position.z,field.pose.pose.orientation.x,field.pose.pose.orientation.y,field.pose.pose.orientation.z,field.pose.pose.orientation.w,field.label,field.main_output,field.scan_score,field.pose_score,field.cov_score,field.lhood_map_score,field.lhood_robot_score,field.lhood_map_score_all,field.lhood_robot_score_all,field.point_angle_diff,field.average_orientation,field.map_average_orientation,field.sensor_div,field.odom_div_x,field.odom_div_w,field.imu_div_w,field.kdtree_div,field.kdtree_div_p,field.cov_div,field.cov_div_p,field.likelihood_div,field.likelihood_div_p,field.normal_diff_div,field.normal_diff_div_p,field.kdtree_average,field.cov_average,field.likelihood_average,field.normal_diff_average,field.map_update_count
1.64953776608812E+018,0,1.64953776608812E+018,r200141368/base_footprint,0,1.64953776608812E+018,v/m1vw10zy74w/map,-11.0485982079,3.16755578337,0,0,0,0.947301395218,0.320343669545,1,53.4703178406,0,100,73.1290435791,34.9009017944,34.9009017944,53.4703178406,53.4703178406,37.7285614014,1.02689898014,0,0.00449356948957,0.999738633633,0.647237181664,0.651730775833,26.8335361481,1,13.7970352173,0.158721476793,11.7097930908,0.251225441694,-10.2591609955,-0.373475968838,26.8335361481,86.9260787964,46.6106948852,27.4694004059,212
1.64953776618803E+018,1,1.64953776618803E+018,r200141368/base_footprint,0,1.64953776618803E+018,v/m1vw10zy74w/map,-11.2539568107,3.31679963766,0,0,0,0.904319096307,0.426857086218,1,54.8404273987,0,28.2285881042,77.7866287231,36.1689910889,36.1689910889,54.8404273987,54.8404273987,43.5292930603,-0.203477606177,0,0.00468757655472,1.08618211746,0.758426964283,0.763114571571,27.3981342316,1,10.4836349487,0.118767462671,10.6172103882,0.226930379868,-15.6032943726,-0.55873721838,27.3981342316,88.2702636718,46.7862014771,27.9259986877,257
1.64953776628878E+018,2,1.64953776628878E+018,r200141368/base_footprint,0,1.64953776628878E+018,v/m1vw10zy74w/map,-11.2619884389,3.32205193825,0,0,0,0.903827929261,0.427896102211,1,56.7369613647,9.66386508942,30.3061313629,79.7547149658,37.4476280212,37.4476280212,56.7369613647,56.7369613647,30.2860279083,0.0212706457824,0,0.00456996820867,1.1640945673,0.827507376671,0.832077383995,17.7342681885,0.647280156612,8.51554870605,0.0964713171124,9.33857345581,0.199601024389,-2.36002922058,-0.0845101103187,27.39813327792,88.27026367185,46.78620147701,27.92599868772,257
1.6495377663884E+018,3,1.6495377663884E+018,r200141368/base_footprint,0,1.6495377663884E+018,v/m1vw10zy74w/map,-11.412081474,3.50778531837,0,0,0,0.847087045695,0.531454172074,1,57.6210174561,18.3889770508,33.2115516663,82.2789230347,38.7920570374,38.7920570374,57.6210174561,57.6210174561,37.9799919128,-0.112258143723,0,0.00461421022192,1.22276043892,0.871538639069,0.876152873039,9.89414024353,0.349824965,7.05919647217,0.0790166258812,8.37321853638,0.17752930522,-10.5419788361,-0.384210735559,28.28311729433,89.33811950687,47.16527557378,27.4380130767,278
1.64953776648828E+018,4,1.64953776648828E+018,r200141368/base_footprint,0,1.64953776648829E+018,v/m1vw10zy74w/map,-11.4646095158,3.61412804266,0,0,0,0.814226861119,0.580546827252,1,59.4424362183,33.6898384094,35.8118438721,84.8131256104,40.1264877319,40.1264877319,59.4424362183,59.4424362183,28.7295036316,-0.0963690802455,0,0.00476626632735,1.2757730484,0.911927521229,0.916693806648,-5.41158294678,-0.191369056702,4.58628082275,0.0513010211289,7.08367919922,0.150045633316,-1.30264091492,-0.0474950745702,28.27825546262,89.39940643315,47.21016693112,27.42686271668,275
1.64953776658821E+018,5,1.64953776658821E+018,r200141368/base_footprint,0,1.64953776658821E+018,v/m1vw10zy74w/map,-11.5213336822,3.84081892019,0,0,0,0.740329823925,0.67224381872,1,59.6491851807,43.2773094177,37.703830719,81.0755157471,41.2781219482,41.2781219482,59.6491851807,59.6491851807,23.9902515411,-0.302601903677,0,0.00493353651837,1.33041608334,0.975965499878,0.980899035931,-15.1457920074,-0.538392305374,7.90168762207,0.088805757463,6.01134872437,0.127118125558,3.79140472412,0.136471509933,28.1315174103,88.97720336917,47.28947067257,27.78165626522,271
1.64953776678843E+018,6,1.64953776678843E+018,r200141368/base_footprint,0,1.64953776678843E+018,v/m1vw10zy74w/map,-11.5241999924,3.84425616711,0,0,0,0.740302622481,0.672273773955,1,60.203163147,33.6349906921,39.2174720764,81.9173126221,42.2845001221,42.2845001221,60.203163147,60.203163147,27.917974472,-0.00163492979482,0,0.00481903366745,1.35443508625,1.01826703548,1.02308607101,-5.24904441833,-0.184917017817,6.7639465332,0.0762725621462,5.02394866943,0.10619559139,-0.0691318511963,-0.00248239585198,28.38594627377,88.6812591553,47.30844879153,27.8488426208037,271
1.64953776698839E+018,7,1.64953776698839E+018,r200141368/base_footprint,0,1.64953776698839E+018,v/m1vw10zy74w/map,-11.5241999924,3.84425616711,0,0,0,0.740302622481,0.672273773955,1,60.9349899292,36.7276306152,40.4058494568,81.9173126221,43.1711769104,43.1711769104,60.9349899292,60.9349899292,24.3212146759,-0.0590448454022,0,0.00473453756422,1.37614798546,1.05991351604,1.06464803219,-8.34168434143,-0.293866693974,6.7639465332,0.0762725621462,4.1372718811,0.0874531269073,3.52762794495,0.126670539379,28.38594627377,88.6812591553,47.3084487915,27.84884262085,271
1.64953776708802E+018,8,1.64953776708802E+018,r200141368/base_footprint,0,1.64953776708802E+018,v/m1vw10zy74w/map,-11.5241999924,3.84425616711,0,0,0,0.740302622481,0.672273773955,1,61.3418006897,45.2332649231,41.3541755676,81.9173126221,43.8738861084,43.8738861084,61.3418006897,61.3418006897,24.5879154205,-0.124155923724,0,0.00472281267866,1.38268339634,1.07463634014,1.07935905457,-16.8473186493,-0.59350913763,6.7639465332,0.0762725621462,3.43456268311,0.0725993514061,3.26092720032,0.1170938164,28.3859462738,88.6812591553,47.30844879151,27.84884262082,271
1.64953776728833E+018,9,1.64953776728833E+018,r200141368/base_footprint,0,1.64953776728833E+018,v/m1vw10zy74w/map,-11.5300603619,3.94456471817,0,0,0,0.699570675121,0.714563412519,1,61.7747306824,33.7617416382,42.1213607788,84.048866272,44.5789337158,44.5789337158,61.7747306824,61.7747306824,32.0832595825,-0.0553815998137,0,0.00467542232946,1.39513242245,1.10456490517,1.1092402935,-5.19605636597,-0.181898534298,3.99254608154,0.0453485026956,2.80585861206,0.0592143274844,-4.23456192017,-0.152056008577,28.56568527223,88.04141235354,47.38479232786,27.84869766233,269
1.64953776738834E+018,10,1.64953776738834E+018,r200141368/base_footprint,0,1.64953776738834E+018,v/m1vw10zy74w/map,-11.5300603619,3.94456471817,0,0,0,0.699570675121,0.714563412519,1,62.1496810913,38.235294342,42.7682418823,84.048866272,45.1218719482,45.1218719482,62.1496810913,62.1496810913,31.1979007721,-0.12318328768,0,0.00471381796524,1.40113222599,1.12031781673,1.12503170967,-9.66960906982,-0.338504374027,3.99254608154,0.0453485026956,2.26292037964,0.0477562583983,-3.34920310974,-0.120264261961,28.56568527218,88.04141235354,47.38479232784,27.84869766236,269
1.64953776748767E+018,11,1.64953776748767E+018,r200141368/base_footprint,0,1.64953776748767E+018,v/m1vw10zy74w/map,-11.5300603619,3.94456471817,0,0,0,0.699570675121,0.714563412519,1,62.2666473389,36.8011665344,43.317905426,84.048866272,45.4724960327,45.4724960327,62.2666473389,62.2666473389,32.8792533875,-0.180156081915,0,0.00477859238163,1.4067633152,1.13659250736,1.14137113094,-8.23548126221,-0.288299798965,3.99254608154,0.0453485026956,1.91229629517,0.0403567515314,-5.0305557251,-0.180638819933,28.56568527219,88.04141235354,47.38479232787,27.8486976624,269
1.64953776768789E+018,12,1.64953776768789E+018,r200141368/base_footprint,0,1.64953776768789E+018,v/m1vw10zy74w/map,-11.5221726995,4.05989628486,0,0,0,0.656067210397,0.754702468156,1,63.0303497314,31.7844791412,43.8005218506,86.2161941528,45.753818512,45.753818512,63.0303497314,63.0303497314,29.9732246399,-0.14015839994,0,0.0049727037549,1.42396855354,1.20978283882,1.21475553513,-3.45021247864,-0.121768191457,1.16282653809,0.0133078461513,1.58735275269,0.0335300676525,-2.02029800415,-0.072275005281,28.33426666256,87.37902069089,47.34117126469,27.95292663575,254
1.64953776778799E+018,13,1.64953776778799E+018,r200141368/base_footprint,0,1.64953776778799E+018,v/m1vw10zy74w/map,-11.4550910229,4.31374939286,0,0,0,0.568190517511,0.822897038402,1,63.160484314,37.319190979,44.2176628113,87.1256561279,46.2186012268,46.2186012268,63.160484314,63.160484314,35.9245605469,-0.213108494878,0,0.0022951955907,1.41443514824,1.33068192005,1.3329770565,-9.67023468018,-0.349750429392,-1.42863464355,-0.0166707616299,1.14253234863,0.0241238381714,-6.6522026062,-0.227252021432,27.64895629882,85.69702148435,47.36113357543,29.2723579407,237
1.64953776788904E+018,14,1.64953776788904E+018,r200141368/base_footprint,0,1.64953776788904E+018,v/m1vw10zy74w/map,-11.4547892945,4.3203657216,0,0,0,0.567372979344,0.823460929437,1,63.2038078308,25.8526935577,44.582950592,87.3547134399,46.2832946777,46.2832946777,63.2038078308,63.2038078308,36.6680183411,-0.112763054669,0,0.000587366521358,1.35222172737,1.35558784008,1.35617518425,1.79626274109,0.0649667456746,-1.65769195557,-0.0193436350673,1.07783889771,0.022757878527,-7.39566040039,-0.252649962902,27.64895629879,85.69702148433,47.36113357541,29.27235794071,237
1.64953776798827E+018,15,1.64953776798827E+018,r200141368/base_footprint,0,1.64953776798827E+018,v/m1vw10zy74w/map,-11.3736904789,4.53633934567,0,0,0,0.563680413126,0.82599297325,1,63.1766700745,25.3945484161,44.9031944275,86.1626434326,46.2956161499,46.2956161499,63.1766700745,63.1766700745,32.9981269836,-0.0497349463403,0,0.000446815247415,1.19911658764,1.31269657612,1.31314337254,1.505859375,0.0559790544212,-1.11874389648,-0.0131548987702,0.762012481689,0.0161931756884,-0.802841186523,-0.0249366071075,26.9004077911,85.04389953612,47.057628631589,32.195285797077,254
1.64953776808847E+018,16,1.64953776808847E+018,r200141368/base_footprint,0,1.64953776808847E+018,v/m1vw10zy74w/map,-11.3736904789,4.53633934567,0,0,0,0.563680413126,0.82599297325,1,63.243144989,31.7844791412,45.1730384827,86.1626434326,46.450088501,46.450088501,63.243144989,63.243144989,33.4698410034,-0.214969009161,0,0.000633770541754,1.07692372799,1.25408494473,1.25471878052,-4.8840713501,-0.181561231613,-1.11874389648,-0.0131548987702,0.607540130615,0.0129105560482,-1.2745552063,-0.0395882539451,26.9004077911,85.04389953612,47.057628631615,32.1952857971,254
1.64953776818881E+018,17,1.64953776818881E+018,r200141368/base_footprint,0,1.64953776818881E+018,v/m1vw10zy74w/map,-11.2906721213,4.75600214225,0,0,0,0.563980347768,0.825788209731,1,62.8246383667,28.6403083801,45.4135932922,86.3334274292,46.4558982849,46.4558982849,62.8246383667,62.8246383667,41.6805725098,-0.604862332344,0,0.00232993997633,0.856748342514,1.04570901394,1.04337906837,-6.5558013916,-0.296850711107,-1.51689147949,-0.0178843829781,-1.6646194458,-0.0371639169753,-8.65702819824,-0.262147158384,22.0845069885,84.81653594971,44.7912788391,33.02354431156,839
1.64953776828791E+018,18,1.64953776828791E+018,r200141368/base_footprint,0,1.64953776828791E+018,v/m1vw10zy74w/map,-11.2906721213,4.75600214225,0,0,0,0.563980347768,0.825788209731,1,63.0747032166,28.1045761108,45.6315803528,86.3334274292,46.2396736145,46.2396736145,63.0747032166,63.0747032166,34.8441810608,-0.41719520092,0,0.00405590143055,0.760058164597,0.828977227211,0.824921369553,-6.02006912231,-0.272592425346,-1.51689147949,-0.0178843829781,-1.44839477539,-0.0323365367949,-1.82063674927,-0.0551314763725,22.08450698849,84.81653594971,44.79127883911,33.02354431153,839
1.64953776838783E+018,19,1.64953776838783E+018,r200141368/base_footprint,0,1.64953776838783E+018,v/m1vw10zy74w/map,-11.2906721213,4.75600214225,0,0,0,0.563980347768,0.825788209731,1,62.9210739136,28.1045761108,45.8314056396,86.3334274292,46.1133270264,46.1133270264,62.9210739136,62.9210739136,36.244934082,-0.205989539623,0,0.00425547175109,0.612838804722,0.426175922155,0.421920448542,-6.02006912231,-0.272592425346,-1.51689147949,-0.0178843829781,-1.32204818726,-0.0295157507062,-3.22138977051,-0.097548276186,22.08450698849,84.81653594971,44.79127883914,33.02354431149,839
1.64953776848816E+018,20,1.64953776848816E+018,r200141368/base_footprint,0,1.64953776848816E+018,v/m1vw10zy74w/map,-11.2906721213,4.75600214225,0,0,0,0.563980347768,0.825788209731,1,62.5451469421,26.5882358551,63.6834144592,86.3334274292,45.9787940979,45.9787940979,62.5451469421,62.5451469421,41.5586624146,-0.285073459148,0,0.00211662519723,0.528321743011,0.234048739076,0.231932118535,-4.50372886658,-0.203931599855,-1.51689147949,-0.0178843829781,-1.18751525879,-0.0265121981502,-8.53511810303,-0.25845554471,22.08450698852,84.81653594971,44.79127883911,33.02354431157,839
1.64953776858794E+018,21,1.64953776858794E+018,r200141368/base_footprint,0,1.64953776858794E+018,v/m1vw10zy74w/map,-11.2324394595,4.9084012189,0,0,0,0.522092893608,0.852888627221,1,62.3921432495,28.1045761108,62.2209472656,85.9613342285,45.7832946777,45.7832946777,62.3921432495,62.3921432495,40.8618049622,-0.275020629168,0,0.000817380147055,0.464429318905,0.113334223628,0.112516842782,-6.21057510376,-0.283665597439,-0.959327697754,-0.0112859420478,-1.11479568481,-0.0249570887536,-7.51430892944,-0.225333526731,21.89400100704,85.002006530746,44.66849899289,33.34749603276,994
1.64953776888829E+018,22,1.64953776888829E+018,r200141368/base_footprint,0,1.64953776888829E+018,v/m1vw10zy74w/map,-11.2312499446,4.89439192588,0,0,0,0.419281232754,0.907856402665,1,62.7772750854,25.9962043762,59.8094749451,89.960357666,45.7098045349,45.7098045349,62.7772750854,62.7772750854,47.5322418213,-0.274510324001,0,0.00343509926461,0.188237756491,0.0308974385262,0.0343325361609,-4.10220336914,-0.1873665452,-4.95835113525,-0.0583321675658,-1.04130554199,-0.0233118534088,-14.1847457886,-0.425361633301,21.89400100706,85.00200653075,44.66849899291,33.3474960327,994
1.64953776898848E+018,23,1.64953776898848E+018,r200141368/base_footprint,0,1.64953776898848E+018,v/m1vw10zy74w/map,-11.2312499446,4.89439192588,0,0,0,0.419281232754,0.907856402665,1,62.9187469482,25.8916168213,60.6945877075,89.960357666,45.5490608215,45.5490608215,62.9187469482,62.9187469482,43.2497177124,-0.295436710119,0,0.00312020839192,0.111740842462,0.0906830728054,0.0938032791018,-3.99761581421,-0.182589545846,-4.95835113525,-0.0583321675658,-0.880561828613,-0.019713262096,-9.90222167969,-0.296940475702,21.89400100709,85.00200653075,44.668498992887,33.34749603271,994
1.64953776908789E+018,24,1.64953776908789E+018,r200141368/base_footprint,0,1.64953776908789E+018,v/m1vw10zy74w/map,-11.1993154047,4.93422946767,0,0,0,0.370228634772,0.92894066441,1,64.0359268188,27.0405845642,60.4716415405,91.8102493286,45.5189590454,45.5189590454,64.0359268188,64.0359268188,29.4750003815,-0.167547494173,0,0.00291120982729,0.0444934591651,0.173097863793,0.176009073853,-5.14658355713,-0.235068202019,-6.80824279785,-0.0800950825214,-0.85046005249,-0.0190393701196,3.87249565125,0.116125531495,21.89400100707,85.00200653075,44.66849899291,33.34749603275,994
1.64953776918788E+018,25,1.64953776918788E+018,r200141368/base_footprint,0,1.64953776918788E+018,v/m1vw10zy74w/map,-11.1528301583,4.97513314105,0,0,0,0.32344645624,0.946246474205,1,63.7440261841,28.5067882538,59.2411384583,91.9949493408,45.3947563171,45.3947563171,63.7440261841,63.7440261841,34.0526885986,-0.183315187693,0,0.00243750819936,0.00588405039161,0.240976840258,0.243414357305,-6.88483428955,-0.318418681622,-6.75610351562,-0.0792608484626,-0.81266784668,-0.0182285737246,-0.597812652588,-0.0178692229092,21.62195396425,85.23884582518,44.58208847042,33.454875946012,1041
1.64953776928767E+018,26,1.64953776928767E+018,r200141368/base_footprint,0,1.64953776928767E+018,v/m1vw10zy74w/map,-11.1559033135,4.97134225401,0,0,0,0.322797482968,0.946468058092,1,63.7195281982,26.6968326569,59.9938163757,92.4921112061,45.318359375,45.318359375,63.7195281982,63.7195281982,35.4583282471,-0.215651988983,0,0.00195433641784,0.0529388487339,0.375060200691,0.377014547586,-5.07487869263,-0.234709531069,-7.25326538086,-0.0850934237242,-0.736270904541,-0.0165149495006,-2.00345230103,-0.0598852112889,21.62195396427,85.23884582524,44.582088470459,33.45487594607,1041
1.64953776938781E+018,27,1.64953776938781E+018,r200141368/base_footprint,0,1.64953776938781E+018,v/m1vw10zy74w/map,-11.1052442488,5.00595763357,0,0,0,0.269311773991,0.963053045471,1,64.3187103271,24.8868770599,61.0599365234,93.1543807983,45.2426757812,45.2426757812,64.3187103271,64.3187103271,26.2399253845,0.0166622269899,0,0.00189291092101,0.092073045671,0.50744920969,0.509342133999,-3.28461837769,-0.152049764991,-7.79141998291,-0.0912740156054,-0.66720199585,-0.0149679174647,7.13004684448,0.213666543365,21.60225868221,85.36296081539,44.57547378535,33.36997222898,1089
1.64953776948877E+018,28,1.64953776948877E+018,r200141368/base_footprint,0,1.64953776948877E+018,v/m1vw10zy74w/map,-11.1052442488,5.00595763357,0,0,0,0.269311773991,0.963053045471,1,63.9610900879,18.8948307037,62.0805587769,93.1543807983,45.1093177795,45.1093177795,63.9610900879,63.9610900879,31.2367839813,0.0533528365195,0,0.00188121874817,0.115915320814,0.570286333561,0.568405091763,2.70742797852,0.125330775976,-7.79141998291,-0.0912740156054,-0.533843994141,-0.0119761824608,2.13318824768,0.0639253854752,21.60225868222,85.36296081539,44.575473785359,33.36997222898,1089
1.64953776978824E+018,29,1.64953776978824E+018,r200141368/base_footprint,0,1.64953776978824E+018,v/m1vw10zy74w/map,-11.0477660042,5.03682983503,0,0,0,0.218842970887,0.975760090439,1,63.6284217834,23.3511581421,62.7937583923,94.2428436279,44.9453544617,44.9453544617,63.6284217834,63.6284217834,39.3724937439,-0.360486268997,0,0.00254291226156,0.123345792294,0.577367901802,0.574824988842,-1.84307670593,-0.0856922864914,-8.79285430908,-0.102900587022,-0.395576477051,-0.00887942686677,-5.96577835083,-0.178580209613,21.50808143617,85.44998931882,44.549777984649,33.40671539307,1094
1.64953776988763E+018,30,1.64953776988763E+018,r200141368/base_footprint,0,1.64953776988763E+018,v/m1vw10zy74w/map,-11.0477660042,5.03682983503,0,0,0,0.218842970887,0.975760090439,1,63.7827110291,26.5811595917,64.4872055054,94.2428436279,44.7658576965,44.7658576965,63.7827110291,63.7827110291,34.6566848755,-0.131670460105,0,0.00293778348714,0.130437165499,0.573839783669,0.570902049541,-5.07307815552,-0.235868468881,-8.79285430908,-0.102900587022,-0.216079711914,-0.00485029816628,-1.24996948242,-0.0374167114496,21.50808143618,85.44998931882,44.549777984586,33.40671539308,1094
1.64953777008781E+018,31,1.64953777008781E+018,r200141368/base_footprint,0,1.64953777008781E+018,v/m1vw10zy74w/map,-11.0477660042,5.03682983503,0,0,0,0.218842970887,0.975760090439,0,63.6296272278,23.3511581421,67.4179229736,94.2428436279,44.6006355286,44.6006355286,63.6296272278,63.6296272278,35.6278152466,-0.294243276119,0,0.00319096562453,0.136183813214,0.563360095024,0.560169100761,-1.84307670593,-0.0856922864914,-8.79285430908,-0.102900587022,-0.0508575439453,-0.00114158913493,-2.22109985352,-0.0664866268635,21.50808143617,85.44998931882,44.5497779846547,33.40671539308,1094
1.64953777038837E+018,32,1.64953777038837E+018,r200141368/base_footprint,0,1.64953777038838E+018,v/m1vw10zy74w/map,-10.9723296706,5.06555078277,0,0,0,0.169492705432,0.985531441815,0,63.3059310913,17.3776378632,73.0679473877,94.0472640991,44.5054588318,44.5054588318,63.3059310913,63.3059310913,39.7223701477,-0.278719395399,0,0.00288328598253,0.142232239246,0.535716116428,0.532832860947,4.11420249939,0.191430911422,-8.35208129883,-0.0974626690149,0.0516700744629,0.00115963653661,-6.26349258423,-0.187199726701,21.49184036259,85.69518280027,44.5571289062629,33.45887756347,1159
1.6495377704886E+018,33,1.6495377704886E+018,r200141368/base_footprint,0,1.6495377704886E+018,v/m1vw10zy74w/map,-10.9723296706,5.06555078277,0,0,0,0.169492705432,0.985531441815,0,63.300743103,20.677362442,78.0552978516,94.0472640991,44.3503646851,44.3503646851,63.300743103,63.300743103,38.1407546997,-0.31718569994,0,0.00282102986239,0.144717097282,0.524179577827,0.521358549595,0.814477920532,0.0378970764577,-8.35208129883,-0.0974626690149,0.206764221191,0.00464042974636,-4.68187713623,-0.139929294586,21.491840362532,85.69518280027,44.557128906291,33.45887756347,1159
1.64953777068836E+018,34,1.64953777068836E+018,r200141368/base_footprint,0,1.64953777068837E+018,v/m1vw10zy74w/map,-10.866018169,5.09306638075,0,0,0,0.108549607503,0.994091033412,0,63.6798820496,19.5046443939,82.7256011963,94.2460098267,44.0807418823,44.0807418823,63.6798820496,63.6798820496,29.1197910309,0.0135161057115,0,0.00243539293297,0.150740534067,0.452598065138,0.450162678957,1.92719268799,0.0899219512939,-8.32914733887,-0.0969442650676,0.436241149902,0.00979943200946,4.35772514343,0.130168706179,21.43183708189,85.91686248783,44.516983032202,33.47751617433,1210
1.64953777078782E+018,35,1.64953777078782E+018,r200141368/base_footprint,0,1.64953777078782E+018,v/m1vw10zy74w/map,-10.866018169,5.09306638075,0,0,0,0.108549607503,0.994091033412,0,63.0043182373,18.2757072449,86.6571350098,94.2460098267,43.8367919922,43.8367919922,63.0043182373,63.0043182373,38.6452522278,-0.44387114048,0,0.00245904061012,0.132518127561,0.300913840532,0.29845482111,3.15612983704,0.147263616323,-8.32914733887,-0.0969442650676,0.680191040039,0.0152793610469,-5.16773605347,-0.15436437726,21.43183708194,85.91686248783,44.516983032239,33.47751617433,1210
1.64953777088768E+018,36,1.64953777088768E+018,r200141368/base_footprint,0,1.64953777088768E+018,v/m1vw10zy74w/map,-10.7427738185,5.10659796687,0,0,0,0.0536360350295,0.998560551868,0,62.3553886414,19.1737766266,86.6357345581,92.9138336182,43.5836448669,43.5836448669,62.3553886414,62.3553886414,42.7961463928,-0.417239397764,0,0.0024533951655,0.122520647943,0.191441789269,0.188988387585,2.27564048767,0.106093347073,-6.92987823486,-0.0805950164795,0.939971923828,0.0211117602885,-9.38576889038,-0.280923753977,21.44941711427,85.98395538334,44.523616790728,33.41037750242,1200
1.64953777098819E+018,37,1.64953777098819E+018,r200141368/base_footprint,0,1.64953777098819E+018,v/m1vw10zy74w/map,-10.7427738185,5.10659796687,0,0,0,0.0536360350295,0.998560551868,0,62.9138031006,17.1122989655,86.389465332,92.9138336182,43.3260383606,43.3260383606,62.9138031006,62.9138031006,29.9625740051,-0.452994465828,0,0.00196675909683,0.16745942831,0.0477157533169,0.0457489937544,4.3371181488,0.202202141285,-6.92987823486,-0.0805950164795,1.19757843018,0.0268975999206,3.44780349731,0.10319558531,21.4494171143,85.98395538334,44.52361679078,33.41037750241,1200
1.64953777108793E+018,38,1.64953777108793E+018,r200141368/base_footprint,0,1.64953777108793E+018,v/m1vw10zy74w/map,-10.5144845609,5.11050108166,0,0,0,0.00162757696703,0.999998675496,0,61.6943321228,18.2757072449,81.0848007202,89.1057510376,43.1407623291,43.1407623291,61.6943321228,61.6943321228,36.2029266357,-0.213438779116,0,0.000451814208645,0.193358451128,0.116539090872,0.11699090898,3.07595825195,0.144061744213,-3.0305557251,-0.0352082364261,1.27156066895,0.0286308079958,-2.55850219727,-0.0760453566909,21.35166549685,86.0751953125,44.41232299805,33.64442443843,1207
1.64953777118808E+018,39,1.64953777118808E+018,r200141368/base_footprint,0,1.64953777118808E+018,v/m1vw10zy74w/map,-10.2811432125,5.11085828984,0,0,0,-0.0119175828581,0.999928983088,0,61.1986427307,21.5686283112,76.6163787842,85.4514083862,42.9751701355,42.9751701355,61.1986427307,61.1986427307,30.1813564301,-0.210258319974,0,0.00210419949144,0.20720037818,0.157525375485,0.155421182513,-0.379571914673,-0.0179135818034,0.344100952148,0.0040107103996,1.26147079468,0.0285164229572,3.74589347839,0.110409580171,21.189056396527,85.795509338348,44.23664093018,33.92724990849,1204
1.64953777128842E+018,40,1.64953777128842E+018,r200141368/base_footprint,0,1.64953777128842E+018,v/m1vw10zy74w/map,-10.2811432125,5.11085828984,0,0,0,-0.0119175828581,0.999928983088,0,60.6037712097,14.1972579956,73.2489318848,85.4514083862,42.7776565552,42.7776565552,60.6037712097,60.6037712097,38.755897522,-0.379845172167,0,0.00329635175876,0.223867177963,0.119117610157,0.115821257234,6.99179840088,0.329972147942,0.344100952148,0.0040107103996,1.458984375,0.0329813547432,-4.82864761353,-0.142323583364,21.18905639648,85.795509338348,44.2366409302,33.92724990847,1204
1.64953777138814E+018,41,1.64953777138814E+018,r200141368/base_footprint,0,1.64953777138814E+018,v/m1vw10zy74w/map,-10.0521186498,5.10247459843,0,0,0,-0.0138840425026,0.999903612037,0,60.9631271362,14.8375768661,69.5740737915,86.271697998,42.5148162842,42.5148162842,60.9631271362,60.9631271362,32.4018440247,-0.611600697041,0,0.00255747046322,0.227476388216,0.0622485019267,0.0596910342574,6.11891841888,0.291981965303,-0.929733276367,-0.0108942100778,1.6573677063,0.0375206209719,2.17824554443,0.0629913210869,20.95649528498,85.341964721633,44.1721839905,34.58008956913,1159
1.64953777148805E+018,42,1.64953777148805E+018,r200141368/base_footprint,0,1.64953777148805E+018,v/m1vw10zy74w/map,-10.0521186498,5.10247459843,0,0,0,-0.0138840425026,0.999903612037,0,60.1428260803,14.4385023117,62.5631027222,86.271697998,42.2587890625,42.2587890625,60.1428260803,60.1428260803,44.4021949768,-0.327645927668,0,0.000153093409608,0.227107360959,0.0498891733587,0.0497360788286,6.51799297333,0.311024963856,-0.929733276367,-0.0108942100778,1.91339492798,0.0433167368174,-9.82210540771,-0.284039318562,20.95649528503,85.341964721633,44.17218399048,34.58008956909,1159
1.64953777158832E+018,43,1.64953777158832E+018,r200141368/base_footprint,0,1.64953777158832E+018,v/m1vw10zy74w/map,-9.85048780033,5.09380067514,0,0,0,-0.00964924375685,0.999953444964,0,60.4456176758,12.8872919083,57.6459312439,89.2941589355,41.877948761,41.877948761,60.4456176758,60.4456176758,45.7196540833,-0.404528588057,0,1.29299414766E-05,0.225583359599,0.062432564795,0.0624196380377,7.86623859406,0.379031360149,-4.43812561035,-0.0523018278182,2.17457962036,0.0493633337319,-10.3232307434,-0.291646152735,20.75353050236,84.85603332515,44.05252838136,35.3964233399,1130
1.6495377716876E+018,44,1.6495377716876E+018,r200141368/base_footprint,0,1.6495377716876E+018,v/m1vw10zy74w/map,-9.85048780033,5.09380067514,0,0,0,-0.00964924375685,0.999953444964,0,60.3975257874,13.5472373962,48.805770874,89.2941589355,41.5174255371,41.5174255371,60.3975257874,60.3975257874,42.6916809082,-0.205190733075,0,0.000565716822166,0.222315624356,0.0722543150187,0.0716885998845,7.20629310608,0.347232162952,-4.43812561035,-0.0523018278182,2.53510284424,0.0575472712517,-7.29525756836,-0.206101551652,20.75353050228,84.85603332515,44.05252838134,35.39642333984,1130
1.64953777178784E+018,45,1.64953777178784E+018,r200141368/base_footprint,0,1.64953777178784E+018,v/m1vw10zy74w/map,-9.61798697532,5.09099167738,0,0,0,-0.0033733880784,0.99999431011,0,60.1941566467,11.5367078781,48.3136291504,87.1778182983,41.2300224304,41.2300224304,60.1941566467,60.1941566467,35.6295967102,-0.34927418828,0,0.000666130275931,0.220740750432,0.0769501850009,0.076284058392,8.94181156158,0.436643451452,-2.51663970947,-0.0297260172665,2.83722305298,0.0643839463592,0.754001617432,0.0207236688584,20.47851943968,84.66117858883,44.06724548338,36.383598327632,1128
1.64953777188862E+018,46,1.64953777188862E+018,r200141368/base_footprint,0,1.64953777188862E+018,v/m1vw10zy74w/map,-9.3802586844,5.09468409285,0,0,0,0.00656884092597,0.999978424932,0,60.2815589905,11.764705658,48.1599388123,87.1103668213,41.0656166077,41.0656166077,60.2815589905,60.2815589905,32.0379295349,-0.302706480026,0,0.00106123788282,0.224040791392,0.0831081643701,0.0820469260216,8.17382621765,0.409951269627,-2.65402984619,-0.0314248763025,2.84498596191,0.0647904127836,4.81106948853,0.130561739206,19.93853187565,84.45633697511,43.91060256961,36.84899902343,1153
1.64953777198979E+018,47,1.64953777198979E+018,r200141368/base_footprint,0,1.64953777198979E+018,v/m1vw10zy74w/map,-9.3802586844,5.09468409285,0,0,0,0.00656884092597,0.999978424932,0,60.3158569336,11.764705658,48.0886497498,87.1103668213,40.8908729553,40.8908729553,60.3158569336,60.3158569336,29.5333023071,-0.0925290808082,0,0.00110745697748,0.225054576993,0.0886596515775,0.0875521972775,8.17382621765,0.409951269627,-2.65402984619,-0.0314248763025,3.01972961426,0.0687699392438,7.31569671631,0.198531761765,19.93853187565,84.45633697511,43.91060256956,36.84899902341,1153
1.64953777218782E+018,48,1.64953777218782E+018,r200141368/base_footprint,0,1.64953777218782E+018,v/m1vw10zy74w/map,-9.13546877021,5.10300453595,0,0,0,0.00914947598784,0.999958142669,0,59.5019073486,14.1972579956,47.9798240662,85.3370895386,40.6844902039,40.6844902039,59.5019073486,59.5019073486,35.5717010498,-0.302018910646,0,0.00144247943535,0.241413190961,0.0976153835654,0.0961728990078,5.4621257782,0.277838110924,-0.977600097656,-0.011588501744,3.14218902588,0.0716958045959,1.45399475098,0.0392698831856,19.6593837738,84.359489440944,43.82667922978,37.02569580078,1150
1.6495377722878E+018,49,1.6495377722878E+018,r200141368/base_footprint,0,1.6495377722878E+018,v/m1vw10zy74w/map,-8.88789913308,5.10913863328,0,0,0,0.00862301309508,0.999962821131,0,59.7047424316,6.0579457283,48.0438270569,84.7730789185,40.392906189,40.392906189,59.7047424316,59.7047424316,26.7410793304,-0.317206203938,0,0.00153570680413,0.259988516569,0.105220861733,0.103685155511,13.244562149,0.68615758419,-0.643333435059,-0.00764692015946,3.33549880981,0.0762776210904,10.4269008636,0.280534505844,19.3025078773,84.129745483441,43.72840499881,37.167980194,1161
1.64953777238783E+018,50,1.64953777238783E+018,r200141368/base_footprint,0,1.64953777238783E+018,v/m1vw10zy74w/map,-8.88789913308,5.10913863328,0,0,0,0.00862301309508,0.999962821131,0,59.3112564087,10.0840339661,48.0503883362,84.7730789185,40.1971893311,40.1971893311,59.3112564087,59.3112564087,31.7100868225,-0.194532498717,0,0.00173629191704,0.29488837719,0.103939808905,0.102203518152,9.21847343445,0.477579057217,-0.643333435059,-0.00764692015946,3.53121566772,0.0807533636689,5.45789337158,0.146843954921,19.30250740055,84.129745483441,43.72840499882,37.16798019408,1161
1.64953777248944E+018,51,1.64953777248944E+018,r200141368/base_footprint,0,1.64953777248944E+018,v/m1vw10zy74w/map,-8.66124640489,5.11160201373,0,0,0,0.00151737468911,0.999998848786,0,59.2354545593,9.88735961914,48.1112709045,84.314414978,39.980304718,39.980304718,59.2354545593,59.2354545593,29.0810146332,-0.512254297733,0,0.00180332397576,0.301088809967,0.103528447449,0.101725123823,8.64107704163,0.466368377209,-0.607620239258,-0.0072589116171,3.49459075928,0.0803818106651,8.0145778656,0.216052025557,18.52843666077,83.706794738742,43.47489547728,37.0955924988,1143
1.6495377725878E+018,52,1.6495377725878E+018,r200141368/base_footprint,0,1.64953777258781E+018,v/m1vw10zy74w/map,-8.66124640489,5.11160201373,0,0,0,0.00151737468911,0.999998848786,0,58.6580810547,9.052983284,48.2497329712,84.314414978,39.7085151672,39.7085151672,58.6580810547,58.6580810547,36.5383644104,-0.164650633931,0,0.00191261724103,0.328511953354,0.102501943707,0.100589327514,9.47545337677,0.511400580406,-0.607620239258,-0.0072589116171,3.76638031006,0.086633451283,0.557228088379,0.0150214098394,18.52843666077,83.706794738742,43.47489547726,37.095592498779,1143
1.64953777268858E+018,53,1.64953777268858E+018,r200141368/base_footprint,0,1.64953777268858E+018,v/m1vw10zy74w/map,-8.42625062461,5.11608200194,0,0,0,0.00131118241986,0.9999991404,0,58.7084236145,7.56302499771,48.3764190674,83.8614044189,39.4798088074,39.4798088074,58.7084236145,58.7084236145,31.5313568115,-0.277196228504,0,0.00162636209279,0.378250151873,0.093735486269,0.0921091213822,10.2912521362,0.576402664185,-0.581001281738,-0.00697644660249,3.80588150024,0.0879247039557,6.04243850708,0.160815224051,17.85427713391,83.280403137162,43.28569030764,37.57379531858,1135
1.64953777278814E+018,54,1.64953777278814E+018,r200141368/base_footprint,0,1.64953777278814E+018,v/m1vw10zy74w/map,-8.1876308252,5.11555925321,0,0,0,-0.00111339487521,0.999999380176,0,58.2240600586,4.35886573792,48.4017066956,83.4275283813,39.1498146057,39.1498146057,58.2240600586,58.2240600586,35.1240539551,-0.463476896286,0,0.00145131279714,0.448177188635,0.0745330750942,0.0730817615986,13.2811393738,0.752898812294,-0.423545837402,-0.00510271685198,4.07944488525,0.0943676754832,3.29970550537,0.0858766958117,17.64000511172,83.003982543898,43.22925949095,38.42375946047,1129
1.6495377728883E+018,55,1.6495377728883E+018,r200141368/base_footprint,0,1.6495377728883E+018,v/m1vw10zy74w/map,-8.1876308252,5.11555925321,0,0,0,-0.00111339487521,0.999999380176,0,58.1695404053,6.22335910797,48.521938324,83.4275283813,38.9464263916,38.9464263916,58.1695404053,58.1695404053,33.9088058472,-0.293750286102,0,0.00135945854709,0.469784647226,0.0676644966006,0.0663050413132,11.4166460037,0.647201955318,-0.423545837402,-0.00510271685198,4.28283309937,0.0990725532174,4.51495361328,0.11750420928,17.64000511167,83.003982543898,43.22925949097,38.42375946048,1129
1.6495377729881E+018,56,1.6495377729881E+018,r200141368/base_footprint,0,1.6495377729881E+018,v/m1vw10zy74w/map,-8.1876308252,5.11555925321,0,0,0,-0.00111339487521,0.999999380176,0,58.1912117004,6.22335910797,49.3001098633,83.4275283813,38.7445373535,38.7445373535,58.1912117004,58.1912117004,31.3382835388,-0.736815333366,0,0.00132071285043,0.49261751771,0.0600644387305,0.0587437264621,11.4166460037,0.647201955318,-0.423545837402,-0.00510271685198,4.48472213745,0.103742748499,7.08547592163,0.184403508902,17.64000511167,83.003982543898,43.22925949095,38.42375946043,1129
1.64953777318764E+018,57,1.64953777318764E+018,r200141368/base_footprint,0,1.64953777318764E+018,v/m1vw10zy74w/map,-8.1876308252,5.11555925321,0,0,0,-0.00111339487521,0.999999380176,0,58.1534080505,6.39759540558,51.6600341797,83.4275283813,38.6605949402,38.6605949402,58.1534080505,58.1534080505,31.1121940613,-0.29735660553,0,0.00124827632681,0.503551781178,0.0546021051705,0.0533538274467,11.2424097061,0.637324631214,-0.423545837402,-0.00510271685198,4.56866455078,0.105684541166,7.31156539917,0.190287604928,17.64000511168,83.003982543898,43.22925949098,38.42375946047,1129
1.64953777328769E+018,58,1.64953777328769E+018,r200141368/base_footprint,0,1.64953777328769E+018,v/m1vw10zy74w/map,-7.94846092631,5.12309512656,0,0,0,-0.00154732678083,0.999998802889,0,57.3122138977,7.92838859558,48.6001396179,79.8050689697,38.4822158813,38.4822158813,57.3122138977,57.3122138977,31.2863388062,-0.446922749281,0,0.00117688905448,0.516122162342,0.0512648560107,0.0500879697502,9.08066177368,0.533872365952,3.11437225342,0.0375590100884,4.63248443604,0.107445590198,8.41492080688,0.211956009269,17.00905036926,82.91944122312,43.11470031734,39.70125961308,1178
1.64953777339688E+018,59,1.64953777339688E+018,r200141368/base_footprint,0,1.64953777339688E+018,v/m1vw10zy74w/map,-7.94902637271,5.12294433087,0,0,0,-0.0023272544847,0.99999729194,0,57.649394989,8.11507129669,48.5212974548,81.5394897461,38.3989562988,38.3989562988,57.649394989,57.649394989,30.5617904663,-0.510098218918,0,0.00108551292215,0.527522265911,0.0466961041093,0.0456105917692,8.89397907257,0.522896885872,1.37995147705,0.0166420731694,4.71574401855,0.109376706183,9.13946914673,0.230206027627,17.00905036926,82.91944122315,43.11470031735,39.70125961303,1178
1.64953777358847E+018,60,1.64953777358847E+018,r200141368/base_footprint,0,1.64953777358847E+018,v/m1vw10zy74w/map,-7.94902637271,5.12294433087,0,0,0,-0.0023272544847,0.99999729194,0,57.212802887,4.84429073334,48.4339027405,81.5394897461,38.1531791687,38.1531791687,57.212802887,57.212802887,35.766002655,-0.21623365581,0,0.000885474961251,0.552713096142,0.0395979136229,0.0387124381959,12.1647596359,0.715193331242,1.37995147705,0.0166420731694,4.96152114868,0.115077249706,3.93525695801,0.0991217121482,17.00905036924,82.91944122315,43.11470031738,39.70125961301,1178
1.64953777379719E+018,61,1.64953777379719E+018,r200141368/base_footprint,0,1.64953777379719E+018,v/m1vw10zy74w/map,-7.94902637271,5.12294433087,0,0,0,-0.0023272544847,0.99999729194,0,56.9207000732,6.39759540558,48.4912567139,81.5394897461,38.0612182617,38.0612182617,56.9207000732,56.9207000732,40.0306968689,-0.0914129018784,0,0.000703813740984,0.578097045422,0.0312751233578,0.0305713117123,10.6114549637,0.623871088028,1.37995147705,0.0166420731694,5.05348205566,0.117210187018,-0.329437255859,-0.00829790439457,17.00905036928,82.91944122315,43.11470031736,39.701259613041,1178
1.6495377738876E+018,62,1.6495377738876E+018,r200141368/base_footprint,0,1.6495377738876E+018,v/m1vw10zy74w/map,-7.69660769089,5.13040469602,0,0,0,-0.00124366148446,0.999999226653,0,56.9820175171,1.96078431606,48.4810523987,81.907875061,37.8152427673,37.8152427673,56.9820175171,56.9820175171,37.5966186523,-0.85650229454,0,0.000356169912266,0.632302343845,0.0169162414968,0.0165600720793,14.7414388657,0.882603406906,0.915992736816,0.0110595263541,5.17873001099,0.120452463627,3.03068161011,0.0745971724391,16.70222318176,82.823867797816,42.99397277829,40.62730026241,1207
1.64953777398782E+018,63,1.64953777398782E+018,r200141368/base_footprint,0,1.64953777398782E+018,v/m1vw10zy74w/map,-7.69660769089,5.13040469602,0,0,0,-0.00124366148446,0.999999226653,0,56.8095245361,2.52100849152,48.4641990662,81.907875061,37.5601463318,37.5601463318,56.8095245361,56.8095245361,37.9464836121,-1.34023296833,0,7.57698726375E-05,0.691595673561,0.00577976135537,0.00570399127901,14.1812143326,0.849061489105,0.915992736816,0.0110595263541,5.43382644653,0.126385778189,2.68081665039,0.0659855976701,16.70222282412,82.823867797816,42.99397277833,40.62730026249,1207
1.64953777408954E+018,64,1.64953777408954E+018,r200141368/base_footprint,0,1.64953777408954E+018,v/m1vw10zy74w/map,-7.46397842943,5.12508348212,0,0,0,-0.00376910994534,0.99999289688,0,57.1674537659,4.35886573792,48.4726448059,83.4858932495,37.3235549927,37.3235549927,57.1674537659,57.1674537659,34.6294326782,-1.07489645481,0,0.000167266771314,0.737715125084,0.000825310766231,0.000658044009469,12.0112991333,0.733731091022,-0.829376220703,-0.0100340088829,5.57500457764,0.129957854748,6.77151870728,0.163559496403,16.37016487122,82.656517028797,42.89855957034,41.40095138548,1226
1.64953777418799E+018,65,1.64953777418799E+018,r200141368/base_footprint,0,1.64953777418799E+018,v/m1vw10zy74w/map,-7.23162858793,5.12665933573,0,0,0,-0.00334710438448,0.99999439843,0,56.1432037354,5.04201698303,48.5457305908,78.8261566162,37.1954879761,37.1954879761,56.1432037354,56.1432037354,34.9077911377,-1.59456968307,0,0.000603771710303,0.836578011513,0.00778687512502,0.00718310335651,10.9747657776,0.685204148293,3.59050750732,0.0435653105378,5.50110626221,0.128841802478,6.70457458496,0.161119759083,16.01678276063,82.41666412352,42.69659423831,41.61236572266,1227
1.64953777428861E+018,66,1.64953777428861E+018,r200141368/base_footprint,0,1.64953777428862E+018,v/m1vw10zy74w/map,-7.25032155254,5.12881550491,0,0,0,-0.00427374100391,0.999990867527,0,56.9268531799,3.59477114677,51.6287841797,83.6114196777,37.0655212402,37.0655212402,56.9268531799,56.9268531799,36.6254005432,-1.18029725552,0,9.54238930717E-05,0.947204172611,0.00992649514228,0.00983107183129,12.3759059906,0.774914264679,-1.12552642822,-0.0136450780556,5.61288452148,0.131515800953,4.96234893799,0.119322374463,15.97067713737,82.48589324948,42.67840576168,41.58774948119,1221
1.6495377743885E+018,67,1.6495377743885E+018,r200141368/base_footprint,0,1.6495377743885E+018,v/m1vw10zy74w/map,-7.01469461751,5.13807533884,0,0,0,-0.00330187345853,0.999994548801,0,56.7047805786,3.59477114677,50.5049438477,83.7870407104,37.0054969788,37.0054969788,56.7047805786,56.7047805786,40.6066818237,-1.23613059521,0,0.000172016734723,1.04424870014,0.0118925608695,0.0117205437273,12.4821596146,0.776401877403,-1.63328552246,-0.0198808386922,5.57437133789,0.130915656686,0.745536804199,0.0180289428681,16.07693076137,82.15375518794,42.57986831669,41.352218627899,1208
1.64953777448846E+018,68,1.64953777448846E+018,r200141368/base_footprint,0,1.64953777448846E+018,v/m1vw10zy74w/map,-6.79330703903,5.14477838112,0,0,0,-0.00475584652715,0.999988690898,0,56.2430229187,2.09790205956,48.9795722961,81.140083313,36.9119415283,36.9119415283,56.2430229187,56.2430229187,38.3788490295,-0.443875998259,0,0.00016974900791,1.23850345612,0.0190879646689,0.0189182162285,14.0778408051,0.870305657387,0.910621643066,0.0110982796177,5.62697601318,0.132278308272,2.95923995972,0.0715862810612,16.17574286466,82.050704956066,42.53891754148,41.33808898922,1203
1.64953777458845E+018,69,1.64953777458845E+018,r200141368/base_footprint,0,1.64953777458845E+018,v/m1vw10zy74w/map,-6.54200166058,5.15495120509,0,0,0,-0.00640712870849,0.99997947414,0,57.0311698914,3.21234869957,48.3996429443,84.6511688232,36.6632995605,36.6632995605,57.0311698914,57.0311698914,34.1467933655,-0.6339443326,0,0.000117953175504,1.3551107645,0.0201939288527,0.0200759768486,12.8275794983,0.799727976322,-2.4750213623,-0.0301184877753,5.75226974487,0.13561694324,6.79319381714,0.165930524468,16.03992819787,82.1761474609,42.41556930537,40.93998718264,1226
1.64953777468835E+018,70,1.64953777468835E+018,r200141368/base_footprint,0,1.64953777468835E+018,v/m1vw10zy74w/map,-6.54200166058,5.15495120509,0,0,0,-0.00640712870849,0.99997947414,0,56.8227958679,6.54985380173,48.3535041809,84.6511688232,36.4345588684,36.4345588684,56.8227958679,56.8227958679,35.4271354675,-1.22111523151,0,1.03968031908E-05,1.50058960915,0.0164216198027,0.0164320170879,9.49007415771,0.591653168201,-2.4750213623,-0.0301184877753,5.98101043701,0.141009792686,5.51285171509,0.134656906128,16.03992795944,82.1761474609,42.41556930541,40.93998718259,1226
1.64953777478761E+018,71,1.64953777478761E+018,r200141368/base_footprint,0,1.64953777478761E+018,v/m1vw10zy74w/map,-6.2970714662,5.15841263074,0,0,0,-0.00519622033835,0.999986499556,0,55.4838676453,1.54359614849,48.2343711853,82.1235351562,36.2967758179,36.2967758179,55.4838676453,55.4838676453,48.9402809143,-0.51796913147,0,0.000217861219426,1.59870147705,0.0115673467517,0.0117852082476,14.4316987991,0.903376042843,0.0599822998047,0.00072985800216,6.0537109375,0.142943128943,-8.1951713562,-0.201132640243,15.97529494759,82.1835174560047,42.3504867554,40.7451095581,1274
1.64953777488776E+018,72,1.64953777488776E+018,r200141368/base_footprint,0,1.64953777488776E+018,v/m1vw10zy74w/map,-6.08328559779,5.16297849782,0,0,0,-0.00676987625354,0.999977084125,0,55.8381958008,4.35886573792,48.0280303955,82.1565551758,36.2023506165,36.2023506165,55.8381958008,55.8381958008,41.6614761353,-0.935748100281,0,0.000529149489012,1.77165782452,0.0091188903898,0.00964803993702,11.7003040314,0.728574633598,-0.0773315429688,-0.000942157348618,6.1523475647,0.145257741213,-1.32033920288,-0.0327293500304,16.05916976932,82.0792236328312,42.3546981812,40.34113693242,1290
1.64953777498796E+018,73,1.64953777498796E+018,r200141368/base_footprint,0,1.64953777498796E+018,v/m1vw10zy74w/map,-6.08328559779,5.16297849782,0,0,0,-0.00676987625354,0.999977084125,0,55.9831466675,3.06545162201,47.8682746887,82.1565551758,36.1546516418,36.1546516418,55.9831466675,55.9831466675,38.5371856689,-0.992238163948,0,0.000858264393173,1.9203016758,0.0137201733887,0.014578438364,12.9937181473,0.809115171432,-0.0773315429688,-0.000942157348618,6.20004653931,0.146383911371,1.80395126343,0.044717412442,16.05916976931,82.0792236328312,42.35469818111,40.34113693233,1290
1.64953777508875E+018,74,1.64953777508875E+018,r200141368/base_footprint,0,1.64953777508875E+018,v/m1vw10zy74w/map,-5.84873769784,5.16111936652,0,0,0,-0.00631659035868,0.999980050144,0,54.5006332397,11.5561113358,47.7470626831,76.7486572266,36.1384773254,36.1384773254,54.5006332397,54.5006332397,45.5792999268,-0.480852603912,0,0.000422992365202,2.09542226791,0.0197520107031,0.0201750025153,4.62782382965,0.285951703787,5.23097991943,0.0638082846999,6.17772293091,0.14598955214,-5.93804550171,-0.149794593453,16.18393516545,81.97963714603,42.31620025631,39.64125442509,1301
1.64953777518829E+018,75,1.64953777518829E+018,r200141368/base_footprint,0,1.64953777518829E+018,v/m1vw10zy74w/map,-5.6046541011,5.15620070416,0,0,0,-0.00710259776553,0.999974776234,0,55.0398597717,4.6801199913,47.6712722778,77.2009353638,36.0472564697,36.0472564697,55.0398597717,55.0398597717,36.5162620544,-0.959600508213,0,0.000372302049072,2.16953325272,0.0233872067183,0.0237595103681,12.0429267883,0.720139503479,4.59341430664,0.0561580881476,6.33102416992,0.14939314127,2.96910858154,0.0751951560378,16.7230467796,81.79434967044,42.37828063962,39.48537063594,1280
1.64953777528828E+018,76,1.64953777528828E+018,r200141368/base_footprint,0,1.64953777528828E+018,v/m1vw10zy74w/map,-5.38034848687,5.15284659648,0,0,0,-0.00817515884974,0.999966582831,0,54.822353363,10.2835378647,47.7109107971,74.9990310669,35.9216690063,35.9216690063,54.822353363,54.822353363,31.1481971741,-1.86986625195,0,0.000438877410488,2.34236121178,0.0261737685651,0.0266126450151,7.45412349701,0.420242756605,7.70027923584,0.0931117683649,6.92066574097,0.161538019776,8.59734344482,0.216309636831,17.73766136171,82.69931030274,42.84233474727,39.74554061892,1409
1.64953777538838E+018,77,1.64953777538838E+018,r200141368/base_footprint,0,1.64953777538839E+018,v/m1vw10zy74w/map,-5.37116348808,5.15549550947,0,0,0,-0.00602018684765,0.999981878511,0,54.7214126587,4.88110160828,47.8235321045,76.5788726807,35.8912010193,35.8912010193,54.7214126587,54.7214126587,38.3234939575,-1.77656900883,0,0.000481749739265,2.44088125229,0.0242053400725,0.0246870908886,12.8565597534,0.724817097187,6.12043762207,0.0740083307028,6.95113372803,0.162249177694,1.42204666138,0.0357787720859,17.73766136168,82.69931030277,42.84233474733,39.74554061888,1409
1.64953777548768E+018,78,1.64953777548768E+018,r200141368/base_footprint,0,1.64953777548768E+018,v/m1vw10zy74w/map,-5.12317909644,5.15207572458,0,0,0,-0.00763524196026,0.999970851115,0,54.7486343384,5.20524740219,47.9446296692,77.8936233521,35.7804985046,35.7804985046,54.7486343384,54.7486343384,41.3709754944,-1.47604906559,0,0.000465007673483,2.61370992661,0.0244471952319,0.0249122027308,13.8226604462,0.726441383362,6.08596801758,0.0724696069956,7.77394104004,0.17848791182,-1.63554000854,-0.0411607436836,19.02790784839,83.97959136968,43.55443954464,39.73543548586,1680
1.6495377755878E+018,79,1.6495377755878E+018,r200141368/base_footprint,0,1.6495377755878E+018,v/m1vw10zy74w/map,-5.12317909644,5.15207572458,0,0,0,-0.00763524196026,0.999970851115,0,54.9113044739,1.96078431606,48.1819000244,77.8936233521,35.6060714722,35.6060714722,54.9113044739,54.9113044739,36.5591201782,-1.51521444321,0,0.000450861698482,2.71264505386,0.0224229358137,0.0228737965226,17.0671234131,0.896952152252,6.08596801758,0.0724696069956,7.94836807251,0.182492718101,3.17631530762,0.079936593771,19.02790772916,83.97959136968,43.55443954471,39.73543548582,1680
1.64953777568777E+018,80,1.64953777568777E+018,r200141368/base_footprint,0,1.64953777568778E+018,v/m1vw10zy74w/map,-4.88922093304,5.14721255911,0,0,0,-0.00925238766861,0.999957195745,0,56.3030014038,1.10826945305,48.6009521484,86.4139709473,35.4128570557,35.4128570557,56.3030014038,56.3030014038,40.0951461792,-1.65989637375,0,0.000352065137122,2.83594822884,0.017253767699,0.0176058318466,18.3349266052,0.942999660969,-1.9624710083,-0.0232378467917,8.42255020142,0.192140340805,-0.121765136719,-0.00304615544155,19.44319605825,84.451499939,43.83540725712,39.973381042481,1734
1.64953777578824E+018,81,1.64953777578824E+018,r200141368/base_footprint,0,1.64953777578824E+018,v/m1vw10zy74w/map,-4.65185335901,5.14321050582,0,0,0,-0.0108838762878,0.999940768864,0,55.5218925476,3.36134457588,50.8600616455,83.3251190186,35.2722854614,35.2722854614,55.5218925476,55.5218925476,41.5170631409,-1.50746536255,0,0.000148526276462,2.98722195625,0.00478579755872,0.0049343239516,16.4843578339,0.830626070499,1.13223266602,0.0134059693664,8.79914093018,0.199656367302,-1.40593719482,-0.0350510515273,19.84570240978,84.45735168462,44.07142639158,40.11112594608,1735
1.64953777598829E+018,82,1.64953777598829E+018,r200141368/base_footprint,0,1.64953777598829E+018,v/m1vw10zy74w/map,-4.65185335901,5.14321050582,0,0,0,-0.0108838762878,0.999940768864,0,55.8832931519,5.37084388733,51.3957557678,83.3251190186,35.2059249878,35.2059249878,55.8832931519,55.8832931519,34.2951431274,-2.24970936775,0,1.61921088875E-05,3.05927491188,0.00208134460263,0.00206515262835,14.4748592377,0.729369938374,1.13223266602,0.0134059693664,8.86550140381,0.201162114739,5.8159828186,0.144996747375,19.84570312503,84.45735168462,44.07142639161,40.111125946,1735
1.64953777608841E+018,83,1.64953777608841E+018,r200141368/base_footprint,0,1.64953777608841E+018,v/m1vw10zy74w/map,-4.65185335901,5.14321050582,0,0,0,-0.0108838762878,0.999940768864,0,56.1695213318,3.82138252258,52.7330245972,83.3251190186,35.1933631897,35.1933631897,56.1695213318,56.1695213318,29.0074081421,-2.40816569328,0,3.09210445266E-05,3.08530521393,0.00419919472188,0.00416827388108,16.0243206024,0.807445347309,1.13223266602,0.0134059693664,8.8780632019,0.201447144151,11.103717804,0.276823878288,19.84570312498,84.45735168462,44.0714263916,40.1111259461,1735
1.64953777628838E+018,84,1.64953777628838E+018,r200141368/base_footprint,0,1.64953777628838E+018,v/m1vw10zy74w/map,-4.43230915671,5.14142270912,0,0,0,-0.00812290802178,0.999967008638,0,55.5476417542,4.51832914352,53.2748527527,80.5634841919,35.237071991,35.237071991,55.5476417542,55.5476417542,30.7313842773,-2.19429087639,0,4.66738820251E-05,3.13446736336,0.00660364096984,0.00655696727335,15.2458877563,0.771388411522,3.31051635742,0.0394701138139,8.79502487183,0.199741229415,9.22505950928,0.230877891183,19.76421689982,83.87400054932,44.03209686283,39.95644378658,1593
1.64953777638781E+018,85,1.64953777638781E+018,r200141368/base_footprint,0,1.64953777638781E+018,v/m1vw10zy74w/map,-4.42944335308,5.14773660558,0,0,0,-0.00684174522696,0.999976594987,0,56.3192138672,6.22335910797,56.1825904846,84.2989654541,35.3575668335,35.3575668335,56.3192138672,56.3192138672,31.5921401978,-2.23745775223,0,4.53907086921E-05,3.18328309059,0.0064627462998,0.00641735550016,13.5408582687,0.685119867325,-0.424964904785,-0.00506670586765,8.6745300293,0.197004705667,8.36430358887,0.209335535765,19.76421737667,83.874000549315,44.0320968628,39.95644378667,1593
1.64953777648779E+018,86,1.64953777648779E+018,r200141368/base_footprint,0,1.64953777648779E+018,v/m1vw10zy74w/map,-4.42944335308,5.14773660558,0,0,0,-0.00684174522696,0.999976594987,0,56.4150695801,3.26797389984,56.432598114,84.2989654541,35.3640327454,35.3640327454,56.4150695801,56.4150695801,29.9365940094,-2.43182134628,0,3.43970350514E-05,3.206366539,0.0059628393501,0.00592844234779,16.4962425232,0.834651947021,-0.424964904785,-0.00506670586765,8.66806411743,0.196857854724,10.0198497772,0.25076931715,19.76421642304,83.874000549315,44.03209686283,39.9564437866,1593
1.6495377766886E+018,87,1.6495377766886E+018,r200141368/base_footprint,0,1.6495377766886E+018,v/m1vw10zy74w/map,-4.42944335308,5.14773660558,0,0,0,-0.00684174522696,0.999976594987,0,56.0624046326,2.96264481544,53.8850364685,84.2989654541,35.4064598083,35.4064598083,56.0624046326,56.0624046326,36.7427825928,-1.85235798359,0,0.000151066269609,3.25521397591,0.00475806370378,0.00460699759424,16.8015727997,0.850100576878,-0.424964904785,-0.00506670586765,8.62563705444,0.195894300938,3.21366119385,0.0804291069508,19.76421761514,83.874000549315,44.03209686274,39.95644378665,1593
1.6495377767881E+018,88,1.6495377767881E+018,r200141368/base_footprint,0,1.6495377767881E+018,v/m1vw10zy74w/map,-4.20210614864,5.14691954517,0,0,0,-0.00461378389551,0.999989356442,0,54.9782180786,0.386431932449,51.0878486633,80.2292785645,35.3833312988,35.3833312988,54.9782180786,54.9782180786,41.3574676514,-1.9252358675,0,0.000112385649118,3.28117823601,0.00409786682576,0.00398548133671,18.8970432281,0.979960441589,3.14147949219,0.0376808308065,8.59274291992,0.195395857096,-0.995502471924,-0.0246643703431,19.283475160549,83.37075805669,43.97607421872,40.361965179476,1499
1.64953777688807E+018,89,1.64953777688807E+018,r200141368/base_footprint,0,1.64953777688807E+018,v/m1vw10zy74w/map,-4.19175452426,5.15040264453,0,0,0,-0.00396764930153,0.999992128849,0,56.1417808533,4.20168066025,51.5285873413,84.0562057495,35.4949989319,35.4949989319,56.1417808533,56.1417808533,35.396232605,-2.16377282143,0,0.000214322688407,3.39844822884,0.000352056551492,0.000137733848533,15.0817947388,0.782109737396,-0.685447692871,-0.00822168029845,8.48107528687,0.192856580019,4.96573257446,0.123029999435,19.28347539905,83.370758056629,43.97607421877,40.36196517946,1499
1.6495377769884E+018,90,1.6495377769884E+018,r200141368/base_footprint,0,1.6495377769884E+018,v/m1vw10zy74w/map,-3.94618844621,5.15914194231,0,0,0,0.00104321326145,0.999999455853,0,55.5636253357,4.6801199913,55.2268333435,81.541595459,35.6148414612,35.6148414612,55.5636253357,55.5636253357,38.0447998047,-2.0055372715,0,1.22808032756E-05,3.55507802963,0.0017039621016,0.00171624287032,14.4993228912,0.755982458591,1.97156524658,0.0236078388989,8.43060302734,0.191406920552,2.85065460205,0.0697059035301,19.1794428825,83.51316070558,44.04544448854,40.89545440675,1561
1.64953777708765E+018,91,1.64953777708765E+018,r200141368/base_footprint,0,1.64953777708765E+018,v/m1vw10zy74w/map,-3.73384042009,5.15726698197,0,0,0,0.000475936587303,0.999999886742,0,55.9925308228,9.24369716644,56.6728553772,85.7686767578,35.5819282532,35.5819282532,55.9925308228,55.9925308228,45.1865005493,-2.23675227165,0,6.22019870207E-05,3.67785215378,0.00524178799242,0.00517958588898,11.2883501053,0.549791753292,-0.647605895996,-0.00760805606842,9.21187591553,0.205650672317,-4.48992156982,-0.110326759517,20.53204727174,85.121070861804,44.79380416873,40.69657897948,2022
1.6495377771878E+018,92,1.6495377771878E+018,r200141368/base_footprint,0,1.6495377771878E+018,v/m1vw10zy74w/map,-3.73384042009,5.15726698197,0,0,0,0.000475936587303,0.999999886742,0,56.4263954163,11.9763011932,55.2900695801,85.7686767578,35.6553916931,35.6553916931,56.4263954163,56.4263954163,38.1703910828,-1.91875767708,0,2.38057455135E-05,3.73540282249,0.0070218835026,0.00699807750061,8.55574607849,0.416702032089,-0.647605895996,-0.00760805606842,9.13841247559,0.204010635614,2.52618789673,0.0620737150311,20.53204727169,85.121070861804,44.79380416869,40.69657897953,2022
1.64953777728779E+018,93,1.64953777728779E+018,r200141368/base_footprint,0,1.64953777728779E+018,v/m1vw10zy74w/map,-3.49747403287,5.16103985565,0,0,0,0.000967737885964,0.999999531742,0,56.6567687988,12.1909637451,51.2465858459,86.3927688599,35.9007225037,35.9007225037,56.6567687988,56.6567687988,38.9199142456,-1.97413861752,0,0.000285534391878,3.89599084854,0.00736096920446,0.0070754350163,8.99617385864,0.424605429173,-0.483245849609,-0.00562505563721,9.15675354004,0.203223839402,1.53030776978,0.0378318764269,21.18713760374,85.909523010291,45.05747604374,40.45022201538,2201
1.64953777738833E+018,94,1.64953777738833E+018,r200141368/base_footprint,0,1.64953777738835E+018,v/m1vw10zy74w/map,-3.27042048166,5.16249092543,0,0,0,-0.000835323383414,0.999999651117,0,57.241771698,8.4033613205,49.7165565491,87.5054397583,36.0449371338,36.0449371338,57.241771698,57.241771698,33.9529953003,-1.99818563461,0,5.83013206779E-05,3.96074533463,0.00576766114682,0.00582596240565,13.1598978043,0.610292613506,-1.50517272949,-0.0175019539893,9.01678466797,0.200098544359,6.48215103149,0.160309821367,21.5632591248,86.00026702881,45.06172180177,40.43514633179,2171
1.64953777748881E+018,95,1.64953777748881E+018,r200141368/base_footprint,0,1.64953777748881E+018,v/m1vw10zy74w/map,-3.02974888738,5.15896756962,0,0,0,0.000119731046851,0.999999992832,0,55.9598770142,7.56302499771,48.291973114,84.2633743286,36.1018714905,36.1018714905,55.9598770142,55.9598770142,45.9705810547,-1.89291214943,0,0.00060338532785,4.07743501663,0.00211493205279,0.00271831732243,14.1109256744,0.651054620743,1.48748016357,0.017346534878,8.84522247314,0.196791872382,-5.46787261963,-0.135000169277,21.67395067211,85.75085449217,44.94709396364,40.50270843507,2027
1.64953777758832E+018,96,1.64953777758832E+018,r200141368/base_footprint,0,1.64953777758832E+018,v/m1vw10zy74w/map,-3.02974888738,5.15896756962,0,0,0,0.000119731046851,0.999999992832,0,55.8232650757,4.88110160828,48.2275466919,84.2633743286,36.1044502258,36.1044502258,55.8232650757,55.8232650757,48.4574127197,-1.21738839149,0,0.0010282426374,4.13041114807,0.00481946300715,0.00584770552814,16.792848587,0.774794101715,1.48748016357,0.017346534878,8.84264373779,0.19673448801,-7.95470428467,-0.196399316192,21.67395019528,85.75085449217,44.94709396359,40.50270843503,2027
1.64953777768828E+018,97,1.64953777768828E+018,r200141368/base_footprint,0,1.64953777768829E+018,v/m1vw10zy74w/map,-2.78267562708,5.16302265407,0,0,0,-0.00261160844417,0.999996589745,0,55.5228042603,8.86495399475,48.1904411316,82.0462265015,36.1418914795,36.1418914795,55.5228042603,55.5228042603,46.2883682251,-1.80591571331,0,0.00147343345452,4.19164943695,0.00774160213768,0.00921503547579,12.7549362183,0.589963018894,2.39912414551,0.0284103751183,8.46641540527,0.189794585109,-4.74292373657,-0.114162303507,21.61989021305,84.44535064701,44.60830688477,41.54544448853,1593
1.64953777778835E+018,98,1.64953777778835E+018,r200141368/base_footprint,0,1.64953777778835E+018,v/m1vw10zy74w/map,-2.55809317069,5.15966707504,0,0,0,-0.00496818959155,0.99998765847,0,55.5598487854,0.84033614397,47.9482917786,80.7738494873,36.1812744141,36.1812744141,55.5598487854,55.5598487854,41.4663505554,-1.72448420525,0,0.000987329753116,4.26433801651,0.0078735537827,0.00886088330299,20.9019870758,0.96135020256,2.91428375244,0.0348231419921,8.29301452637,0.18646761775,1.39183425903,0.0324753448367,21.74232321977,83.68813323974,44.47428894047,42.85818481443,1485
1.64953777788829E+018,99,1.64953777788829E+018,r200141368/base_footprint,0,1.64953777788829E+018,v/m1vw10zy74w/map,-2.55809317069,5.15966707504,0,0,0,-0.00496818959155,0.99998765847,0,55.2037811279,0,47.881187439,80.7738494873,36.1305389404,36.1305389404,55.2037811279,55.2037811279,47.3275947571,-0.869430482388,0,0.00115361041389,4.31048488617,0.0092899100855,0.0104435198009,21.7423229218,1,2.91428375244,0.0348231419921,8.34375,0.187608391047,-4.46940994263,-0.104283697903,21.7423229218,83.68813323974,44.4742889404,42.85818481447,1485
1.64953777798778E+018,100,1.64953777798778E+018,r200141368/base_footprint,0,1.64953777798778E+018,v/m1vw10zy74w/map,-2.30502792513,5.15493463693,0,0,0,-0.00586451168288,0.999982803604,0,55.4024429321,5.88235282898,47.8154335022,80.7202835083,36.3174858093,36.3174858093,55.4024429321,55.4024429321,45.577911377,-1.62015843391,0,0.0012565581128,4.35043764114,0.0143175618723,0.0155741199851,15.8044891357,0.728759348392,2.71309661865,0.0325181186199,8.19049453735,0.184023052454,-1.76328277588,-0.0402441583574,21.68684196468,83.43338012695,44.50798034665,43.81462860112,1457
1.64953777808764E+018,101,1.64953777808764E+018,r200141368/base_footprint,0,1.64953777808764E+018,v/m1vw10zy74w/map,-2.08657092982,5.14642399092,0,0,0,-0.00598794470729,0.999982072098,0,56.8656387329,11.5435647964,47.7576408386,84.9434738159,36.5015258789,36.5015258789,56.8656387329,56.8656387329,36.4314498901,-1.90110766888,0,0.00201476481743,4.39666128159,0.0189299695194,0.0209447350353,9.9743013382,0.463535815477,-1.54329681396,-0.0185047183186,8.0234375,0.180200874805,8.0599937439,0.181158289313,21.5178661346,83.40017700194,44.5249633789,44.491443634,1429
