%time,field.header.seq,field.header.stamp,field.header.frame_id,field.pose.header.seq,field.pose.header.stamp,field.pose.header.frame_id,field.pose.pose.position.x,field.pose.pose.position.y,field.pose.pose.position.z,field.pose.pose.orientation.x,field.pose.pose.orientation.y,field.pose.pose.orientation.z,field.pose.pose.orientation.w,field.label,field.main_output,field.scan_score,field.pose_score,field.cov_score,field.lhood_map_score,field.lhood_robot_score,field.lhood_map_score_all,field.lhood_robot_score_all,field.point_angle_diff,field.average_orientation,field.map_average_orientation,field.sensor_div,field.odom_div_x,field.odom_div_w,field.imu_div_w,field.kdtree_div,field.kdtree_div_p,field.cov_div,field.cov_div_p,field.likelihood_div,field.likelihood_div_p,field.normal_diff_div,field.normal_diff_div_p,field.kdtree_average,field.cov_average,field.likelihood_average,field.normal_diff_average,field.map_update_count
1.64952449741387E+018,0,1.64952449741387E+018,r2002313a3/base_footprint,0,1.64952449741387E+018,v/m1vw10zy74w/map,0.82944669753,5.0786069944,0,0,0,-0.0847166628647,0.996405081798,0,63.5707473755,24.6646022797,100,83.8306884766,48.3947372437,48.3947372437,63.5707473755,63.5707473755,40.1801567078,-1.94052922726,0,0.00273172114976,4.10978412628,0.369360983372,0.366629272699,-4.93872261047,-0.250367671251,2.26634216309,0.0263231173158,-5.34224319458,-0.124086730182,4.19976425171,0.0946320816875,19.72587966923,86.09703063969,43.05249404912,44.37992095951,2280
1.64952449751421E+018,1,1.64952449751421E+018,r2002313a3/base_footprint,0,1.64952449751421E+018,v/m1vw10zy74w/map,1.06946100776,5.03110966683,0,0,0,-0.122410206153,0.99247959245,0,62.683391571,18.5520362854,95.7675552368,82.4489059448,47.7732124329,47.7732124329,62.683391571,62.683391571,44.4657325745,-1.07880628109,0,0.00297367153689,4.05638980865,0.416535586119,0.413561910391,0.695404052734,0.0361296907067,3.88705444336,0.0450224280357,-4.86779403687,-0.113454066217,-0.0736389160156,-0.00165882951114,19.247440338134,86.33596038816,42.90541839603,44.3920936584844,2152
1.64952449761594E+018,2,1.64952449761594E+018,r2002313a3/base_footprint,0,1.64952449761594E+018,v/m1vw10zy74w/map,1.06946100776,5.03110966683,0,0,0,-0.122410206153,0.99247959245,0,62.5006103516,20.5882358551,96.7370223999,82.4489059448,47.3075561523,47.3075561523,62.5006103516,62.5006103516,42.7266807556,-1.2275005579,0,0.00357044814155,3.95837926865,0.511158645153,0.507588148117,-1.34079551697,-0.0696609765291,3.88705444336,0.0450224280357,-4.40213775635,-0.102600976825,1.66541290283,0.0375159792602,19.24744033813,86.33596038816,42.90541839595,44.39209365843,2152
1.64952449771415E+018,3,1.64952449771415E+018,r2002313a3/base_footprint,0,1.64952449771415E+018,v/m1vw10zy74w/map,1.29806354599,4.95866676164,0,0,0,-0.180702162878,0.983537863191,0,61.7491760254,18.032787323,95.9335327148,80.4019775391,46.9120483398,46.9120483398,61.7491760254,61.7491760254,44.612071991,-1.17424941063,0,0.00414845254272,3.91294646263,0.551698625088,0.547550141811,0.29298210144,0.0159874372184,6.38603973389,0.0735820457339,-4.14009475708,-0.0967946127057,-0.368869781494,-0.00833732075989,18.32576942444,86.78801727299,42.77195358272,44.243202209506,2009
1.64952449781287E+018,4,1.64952449781287E+018,r2002313a3/base_footprint,0,1.64952449781287E+018,v/m1vw10zy74w/map,1.46566816722,4.88073967328,0,0,0,-0.245508013967,0.969394561094,0,61.1353378296,15.1398267746,91.3641586304,79.5113830566,46.3462524414,46.3462524414,61.1353378296,61.1353378296,46.3444252014,-1.06929194927,0,0.00534476106986,3.78102254868,0.638776600361,0.633431851864,0.900336265564,0.0561301186681,7.03147888184,0.0812485143542,-3.69197845459,-0.0865558832884,-1.84631729126,-0.0414920412004,16.040163040164,86.54286193844,42.65427398681,44.49810791014,1622
1.64952449791319E+018,5,1.64952449791319E+018,r2002313a3/base_footprint,0,1.64952449791319E+018,v/m1vw10zy74w/map,1.59970559237,4.80904782392,0,0,0,-0.298958924138,0.954265980573,0,60.821559906,16.3830814362,86.022102356,80.6992721558,45.8215446472,45.8215446472,60.821559906,60.821559906,50.6019706726,-0.702525138855,0,0.00570261664689,3.58414387703,0.743159472942,0.737456858158,-1.05909729004,-0.069113701582,6.32422637939,0.0726726278663,-3.28016281128,-0.0771052241325,-5.85410308838,-0.130824178457,15.32398414616,87.02349853519,42.54138183592,44.74786758422,1619
1.64952449801371E+018,6,1.64952449801371E+018,r2002313a3/base_footprint,0,1.64952449801371E+018,v/m1vw10zy74w/map,1.70881418708,4.72454475509,0,0,0,-0.355789739529,0.934566028296,0,61.0152587891,14.7058820724,84.107170105,82.9189224243,45.4052238464,45.4052238464,61.0152587891,61.0152587891,50.6098518372,-1.03212380409,0,0.0067569357343,3.40792560577,0.832409441471,0.825652480125,0.004225730896,0.000287267146632,4.93042755127,0.0561236664653,-3.06268692017,-0.072331212461,-5.47348022461,-0.121265403926,14.710107803296,87.84934997557,42.34253692623,45.13637161259,1685
1.64952449811531E+018,7,1.64952449811531E+018,r2002313a3/base_footprint,0,1.64952449811531E+018,v/m1vw10zy74w/map,1.82183370815,4.62554806593,0,0,0,-0.415725399636,0.909490182518,0,61.5391731262,13.0434780121,80.3240814209,83.7074737549,45.0655708313,45.0655708313,61.5391731262,61.5391731262,40.3499641418,-0.935003042221,0,0.00718050682917,3.29380249977,0.877260446548,0.870079934597,2.01428127289,0.133770316839,4.89342498779,0.0552299693227,-2.94563293457,-0.0699344053864,4.57576370239,0.10185174644,15.05775928499,88.60089874269,42.11993789673,44.92572784419,1793
1.64952449821738E+018,8,1.64952449821738E+018,r2002313a3/base_footprint,0,1.64952449821738E+018,v/m1vw10zy74w/map,1.91972868859,4.51572591478,0,0,0,-0.473117312985,0.880999437091,0,61.3170204163,18.7922954559,73.9096679688,84.9661178589,44.8165359497,44.8165359497,61.3170204163,61.3170204163,46.1902389526,-1.73766577244,0,0.00697108265013,3.21183466911,0.910417616367,0.903446555138,-3.19619655609,-0.204935640097,3.85968017578,0.043452244252,-2.80478286743,-0.0667618587613,-1.53319168091,-0.0343325808644,15.59609889981,88.82579803468,42.01175308227,44.65704727169,1778
1.64952449831287E+018,9,1.64952449831287E+018,r2002313a3/base_footprint,0,1.64952449831287E+018,v/m1vw10zy74w/map,1.91972868859,4.51572591478,0,0,0,-0.473117312985,0.880999437091,0,61.0768013,16.4086685181,69.314743042,84.9661178589,44.4524269104,44.4524269104,61.0768013,61.0768013,46.5818138123,-0.816943347454,0,0.00682802544907,3.15903806686,0.935886263847,0.929058253765,-0.812569618225,-0.0521008260548,3.85968017578,0.043452244252,-2.44067382812,-0.058095023036,-1.92476654053,-0.0431010723114,15.596098899875,88.82579803468,42.01175308228,44.65704727177,1778
1.64952449841298E+018,10,1.64952449841298E+018,r2002313a3/base_footprint,0,1.64952449841298E+018,v/m1vw10zy74w/map,1.9954703901,4.39126519075,0,0,0,-0.523513601904,0.85201731709,0,61.310344696,20.8924942017,65.3073120117,86.2580337524,44.1761474609,44.1761474609,61.310344696,61.310344696,44.045135498,-0.453723311424,0,0.00601768027991,3.03010797501,0.986227214336,0.9802095294,-4.50126647949,-0.274614363909,2.50662994385,0.0282390527427,-2.19487762451,-0.052282307297,0.293487548828,0.00661922991276,16.39122772221,88.76466369625,41.98126983639,44.338623046828,1794
1.64952449851294E+018,11,1.64952449851294E+018,r2002313a3/base_footprint,0,1.64952449851294E+018,v/m1vw10zy74w/map,2.06887079424,4.22190554301,0,0,0,-0.57664407463,0.816995478074,0,61.1483459473,31.7226886749,60.5140762329,85.0056762695,44.3603210449,44.3603210449,61.1483459473,61.1483459473,44.4416809082,-1.86658835411,0,0.00498441513628,2.90847921371,1.01308870316,1.00810432434,-13.2018642426,-0.712811887264,3.20104980469,0.0362903140485,-2.37203979492,-0.0564929023385,-0.933120727539,-0.0214468315244,18.5208244323,88.20672607419,41.98828124998,43.508560180661,1795
1.64952449861312E+018,12,1.64952449861312E+018,r2002313a3/base_footprint,0,1.64952449861312E+018,v/m1vw10zy74w/map,2.13596052029,3.99073600891,0,0,0,-0.622900775683,0.782300852392,0,60.8963737488,29.4117641449,57.4920959473,81.561668396,44.5770149231,44.5770149231,60.8963737488,60.8963737488,38.9190177917,-1.85725343227,0,0.00472230650485,2.81494474411,1.02812850475,1.02340626717,-8.04035949707,-0.376220464706,5.35762786865,0.0616391077638,-2.36529159546,-0.0560339987278,3.13826370239,0.074618794024,21.37140464783,86.91929626465,42.21172332764,42.05728149409,1686
1.64952449871364E+018,13,1.64952449871364E+018,r2002313a3/base_footprint,0,1.64952449871364E+018,v/m1vw10zy74w/map,2.13939438171,3.99751412134,0,0,0,-0.623097118969,0.782144475358,0,61.223613739,32.6203193665,56.2995147705,83.2149429321,44.8520393372,44.8520393372,61.223613739,61.223613739,41.9507865906,-2.70541167259,0,0.00447636423633,2.70299196243,1.0335996151,1.02912330627,-11.7402706146,-0.562272191048,4.06756591797,0.0466023012996,-2.67720794678,-0.0634788051248,0.437721252441,0.0103264134377,20.8800487519,87.28250885007,42.17483139042,42.388507843041,1726
1.6495244988134E+018,14,1.6495244988134E+018,r2002313a3/base_footprint,0,1.6495244988134E+018,v/m1vw10zy74w/map,2.13939438171,3.99751412134,0,0,0,-0.623097118969,0.782144475358,0,61.8159103394,29.8434963226,54.5404129028,83.2149429321,45.0686721802,45.0686721802,61.8159103394,61.8159103394,33.6290283203,-3.01542401314,0,0.00402774708346,2.63867783546,1.0323060751,1.02827823162,-8.9634475708,-0.429282873869,4.06756591797,0.0466023012996,-2.89384078979,-0.068615347147,8.75947952271,0.206647515297,20.8800487518,87.28250885007,42.17483139041,42.38850784301,1726
1.64952449891441E+018,15,1.64952449891441E+018,r2002313a3/base_footprint,0,1.64952449891441E+018,v/m1vw10zy74w/map,2.17917253886,3.76876036268,0,0,0,-0.654261831815,0.756268110812,0,61.3472900391,35.7298469543,53.2752418518,82.2327880859,45.2942123413,45.2942123413,61.3472900391,61.3472900391,40.9642906189,-2.91070842743,0,0.00324174854904,2.53749752045,1.01899933815,1.01575756073,-12.8392658234,-0.560897350311,3.45962524414,0.040372595191,-2.89660644531,-0.0683200508356,-0.0439071655273,-0.00107299012598,22.8905811309,85.69241333004,42.39760589599,40.9203834533727,1644
1.64952449901398E+018,16,1.64952449901398E+018,r2002313a3/base_footprint,0,1.64952449901399E+018,v/m1vw10zy74w/map,2.21738367883,3.53129253555,0,0,0,-0.668101412487,0.744070226949,0,61.0888404846,34.6405220032,51.5191955566,78.1781692505,45.5583076477,45.5583076477,61.0888404846,61.0888404846,33.8719978333,3.03353357315,0,0.00226266891696,2.46287512779,0.995249390602,0.992986738682,-10.506937027,-0.435365766287,6.07892608643,0.072147347033,-2.88146209717,-0.0675181597471,5.76034164429,0.145344480872,24.1335849762,84.25709533693,42.67684555053,39.63233947759,1531
1.64952449911617E+018,17,1.64952449911617E+018,r2002313a3/base_footprint,0,1.64952449911617E+018,v/m1vw10zy74w/map,2.22746894136,3.5272167775,0,0,0,-0.667212434112,0.744867483359,0,61.9050064087,35.1291923523,51.2194290161,80.9528198242,45.926776886,45.926776886,61.9050064087,61.9050064087,33.1492347717,3.08450865746,0,0.00132910837419,2.40079426765,0.975987076759,0.974657952785,-10.9956073761,-0.455614328384,3.3042755127,0.0392165854573,-3.24993133545,-0.0761521011591,6.48310470581,0.163581177592,24.1335849762,84.2570953369,42.67684555055,39.63233947751,1531
1.64952449921509E+018,18,1.64952449921509E+018,r2002313a3/base_footprint,0,1.64952449921509E+018,v/m1vw10zy74w/map,2.22746894136,3.5272167775,0,0,0,-0.667212434112,0.744867483359,0,61.9310302734,39.5272140503,53.1744232178,80.9528198242,46.282699585,46.282699585,61.9310302734,61.9310302734,36.5247917175,-3.0994155407,0,0.00116262503434,2.38863539696,0.970728933811,0.969566345215,-15.3936290741,-0.637850880623,3.3042755127,0.0392165854573,-3.60585403442,-0.0844920501113,3.10754776001,0.078409396112,24.1335849762,84.2570953369,42.67684555058,39.63233947751,1531
1.64952449931276E+018,19,1.64952449931276E+018,r2002313a3/base_footprint,0,1.64952449931276E+018,v/m1vw10zy74w/map,2.22311481711,3.34251755058,0,0,0,-0.6689186282,0.743335636739,0,61.9990692139,38.9978218079,54.9916343689,79.5581207275,46.6822052002,46.6822052002,61.9990692139,61.9990692139,34.5937805176,-2.84923148155,0,0.000857419101521,2.34331679344,0.940126299858,0.939268887043,-14.6193313599,-0.599681556225,3.98297119141,0.0476767905056,-3.87577438354,-0.0905418694019,4.4354133606,0.113643482327,24.378490448,83.54109191891,42.80643081666,39.0291938782,1486
1.64952449941278E+018,20,1.64952449941278E+018,r2002313a3/base_footprint,0,1.64952449941278E+018,v/m1vw10zy74w/map,2.22311481711,3.34251755058,0,0,0,-0.6689186282,0.743335636739,0,62.712802887,38.4277076721,59.4542922974,79.5581207275,46.8438911438,46.8438911438,62.712802887,62.712802887,23.4928283691,-2.80602741241,0,0.000448154256446,2.30968475342,0.886745035648,0.886296868324,-14.0492172241,-0.576295614243,3.98297119141,0.0476767905056,-4.03746032715,-0.0943190157413,15.536365509,0.398070365191,24.378490448,83.54109191891,42.80643081665,39.0291938781,1486
1.64952449951287E+018,21,1.64952449951287E+018,r2002313a3/base_footprint,0,1.64952449951287E+018,v/m1vw10zy74w/map,2.25441464097,3.09243375027,0,0,0,-0.668369074308,0.743829806144,0,63.4946899414,37.9084968567,64.4298171997,81.2565231323,46.9687614441,46.9687614441,63.4946899414,63.4946899414,16.8816890717,-2.99224805832,0,1.48707101744E-06,2.30005908012,0.84208714962,0.842088639736,-12.8556537628,-0.513141512871,1.06307983398,0.0129140540957,-3.93848419189,-0.0915282070637,21.1990642548,0.556687116623,25.0528430939,82.31960296628,43.03027725221,38.0807533265,1372
1.64952449961422E+018,22,1.64952449961422E+018,r2002313a3/base_footprint,0,1.64952449961422E+018,v/m1vw10zy74w/map,2.25441464097,3.09243375027,0,0,0,-0.668369074308,0.743829806144,0,63.0303688049,38.4277076721,68.5926437378,81.2565231323,47.194316864,47.194316864,63.0303688049,63.0303688049,27.6754875183,-2.41416239738,0,6.14425107415E-06,2.29945087433,0.818740427494,0.818746566772,-13.3748645782,-0.533866167068,1.06307983398,0.0129140540957,-4.16403961182,-0.0967699959874,10.4052658081,0.273242115974,25.0528430939,82.31960296628,43.03027725218,38.0807533264,1372
1.64952449981381E+018,23,1.64952449981381E+018,r2002313a3/base_footprint,0,1.64952449981381E+018,v/m1vw10zy74w/map,2.25441464097,3.09243375027,0,0,0,-0.668369074308,0.743829806144,0,63.128200531,40.087146759,72.6833496094,81.2565231323,47.4119224548,47.4119224548,63.128200531,63.128200531,28.2646484375,-2.86841702461,0,0.000126040395116,2.30131435394,0.806422412395,0.806296348572,-15.0343036652,-0.600103676319,1.06307983398,0.0129140540957,-4.38164520264,-0.101827025414,9.81610488892,0.257770776749,25.0528430938,82.31960296628,43.03027725216,38.08075332642,1372
1.64952449991331E+018,24,1.64952449991331E+018,r2002313a3/base_footprint,0,1.64952449991331E+018,v/m1vw10zy74w/map,2.25441464097,3.09243375027,0,0,0,-0.668369074308,0.743829806144,0,63.3336219788,34.6405220032,74.941368103,81.2565231323,47.3753585815,47.3753585815,63.3336219788,63.3336219788,24.1721630096,-2.87344932556,0,8.47436749609E-05,2.30293393135,0.794094979763,0.794010221958,-9.5876789093,-0.382698237896,1.06307983398,0.0129140540957,-4.34508132935,-0.100977301598,13.9085903168,0.36523938179,25.0528430939,82.31960296628,43.03027725215,38.0807533264,1372
1.6495245000131E+018,25,1.6495245000131E+018,r2002313a3/base_footprint,0,1.6495245000131E+018,v/m1vw10zy74w/map,2.28132216514,2.863602976,0,0,0,-0.66384856377,0.747867023194,0,63.0872344971,34.1608200073,76.9187927246,80.0564804077,47.4075469971,47.4075469971,63.0872344971,63.0872344971,24.6346073151,-2.9398624897,0,3.43617939507E-05,2.31955456734,0.725982069969,0.726016461849,-6.02323722839,-0.21406377852,-0.784805297852,-0.00990019831806,-3.95480728149,-0.0910139903426,10.2698001862,0.294226467609,28.13758277891,79.271675109848,43.45273971561,34.9044075013,937
1.64952450011423E+018,26,1.64952450011423E+018,r2002313a3/base_footprint,0,1.64952450011423E+018,v/m1vw10zy74w/map,2.28132216514,2.863602976,0,0,0,-0.66384856377,0.747867023194,0,63.3398475647,37.9679145813,80.0707931519,80.0564804077,47.5813369751,47.5813369751,63.3398475647,63.3398475647,21.9645042419,-3.06941986084,0,0.000444766745204,2.33851194382,0.66447031498,0.664915084839,-9.83033180237,-0.349366605282,-0.784805297852,-0.00990019831806,-4.12859725952,-0.0950135067105,12.9399032593,0.370724052191,28.13758277893,79.271675109848,43.45273971558,34.9044075012,937
1.64952450021309E+018,27,1.64952450021309E+018,r2002313a3/base_footprint,0,1.64952450021309E+018,v/m1vw10zy74w/map,2.31593930058,2.6053055649,0,0,0,-0.654995823173,0.75563249773,0,63.6292991638,34.8739509583,82.3442764282,81.143989563,47.7642745972,47.7642745972,63.6292991638,63.6292991638,22.645149231,3.10925722122,0,0.00105040112976,2.36540865898,0.578295111656,0.579345524311,-6.10740089417,-0.212309122086,-2.54467010498,-0.0323752164841,-4.06331634521,-0.0929800271988,11.5625762939,0.338010668755,28.76655006413,78.59931945802,43.70095825199,34.2077255249,949
1.64952450031483E+018,28,1.64952450031483E+018,r2002313a3/base_footprint,0,1.64952450031483E+018,v/m1vw10zy74w/map,2.31593930058,2.6053055649,0,0,0,-0.654995823173,0.75563249773,0,63.7420921326,34.6405220032,81.9898223877,81.143989563,47.7989578247,47.7989578247,63.7420921326,63.7420921326,20.9894599915,-3.12767314911,0,0.00180887745228,2.39865660667,0.475690603256,0.477499485016,-5.87397193909,-0.204194515944,-2.54467010498,-0.0323752164841,-4.09799957275,-0.0937736779451,13.2182655334,0.386411696672,28.76655006411,78.59931945802,43.70095825195,34.2077255249,949
1.64952450041334E+018,29,1.64952450041334E+018,r2002313a3/base_footprint,0,1.64952450041334E+018,v/m1vw10zy74w/map,2.31593930058,2.6053055649,0,0,0,-0.654995823173,0.75563249773,0,63.611541748,40.1069526672,81.7348556519,81.143989563,47.7981529236,47.7981529236,63.611541748,63.611541748,23.330663681,-2.86520504951,0,0.00250402651727,2.43472671509,0.394557803869,0.397061824799,-11.3404026031,-0.394221842289,-2.54467010498,-0.0323752164841,-4.09719467163,-0.0937552601099,10.8770618439,0.31797093153,28.7665500641,78.59931945802,43.70095825197,34.2077255249,949
1.64952450051485E+018,30,1.64952450051485E+018,r2002313a3/base_footprint,0,1.64952450051485E+018,v/m1vw10zy74w/map,2.39759841596,2.13014457778,0,0,0,-0.61752844292,0.786548550431,0,63.0162773132,34.5268554688,81.4495620728,76.6407928467,48.1339912415,48.1339912415,63.0162773132,63.0162773132,21.4609642029,2.85740280151,0,0.00405436754227,2.56173872948,0.217320248485,0.221374616027,-3.91330718994,-0.127829253674,1.48764038086,0.0190409608185,-3.59507369995,-0.0807175785303,12.8588218689,0.374676644802,30.61354827886,78.12843322756,44.53891754155,34.3197860718,987
1.6495245006139E+018,31,1.6495245006139E+018,r2002313a3/base_footprint,0,1.6495245006139E+018,v/m1vw10zy74w/map,2.39498656164,2.12573813276,0,0,0,-0.618668926139,0.785651805719,0,63.1994590759,44.3277320862,78.5547943115,78.560585022,48.4563064575,48.4563064575,63.1994590759,63.1994590759,28.5559654236,3.07340884209,0,0.00427511846647,2.69566583633,0.0773185268044,0.0815936401486,-13.7141838074,-0.447977602482,-0.432151794434,-0.00553129985929,-3.91738891602,-0.0879542902112,5.76382064819,0.167944535613,30.6135482788,78.128433227566,44.53891754148,34.31978607179,987
1.64952450071356E+018,32,1.64952450071356E+018,r2002313a3/base_footprint,0,1.64952450071356E+018,v/m1vw10zy74w/map,2.45004048232,1.89594118125,0,0,0,-0.599280041236,0.800539463222,0,63.33543396,39.6681747437,75.2848052979,77.8683853149,48.7679405212,48.7679405212,63.33543396,63.33543396,26.9821186066,3.02067565918,0,0.00564678478986,2.85712575912,0.0902525559068,0.0846057683229,-8.46215248108,-0.271170496941,0.543312072754,0.00692896731198,-3.89579391479,-0.0868198722601,7.17008781433,0.209945082664,31.20602226262,78.411697387654,44.87214660641,34.15220642093,947
1.64952450081449E+018,33,1.64952450081449E+018,r2002313a3/base_footprint,0,1.64952450081449E+018,v/m1vw10zy74w/map,2.53129271188,1.64954289028,0,0,0,-0.574909555519,0.818216965708,0,63.6121063232,40.6737060547,71.0890579224,77.5046310425,49.2390098572,49.2390098572,63.6121063232,63.6121063232,25.7800388336,2.77853155136,0,0.00609004124999,2.91039228439,0.152160480618,0.146070435643,-8.92633056641,-0.281167507172,1.32221984863,0.0167737249285,-3.9263343811,-0.0866498053074,8.48121070862,0.247545287013,31.74737548829,78.82685089113,45.3126754761,34.26124954222,864
1.64952450091309E+018,34,1.64952450091309E+018,r2002313a3/base_footprint,0,1.64952450091309E+018,v/m1vw10zy74w/map,2.60541336205,1.44919443061,0,0,0,-0.559628368907,0.82874368095,0,63.3347358704,40.2121505737,67.0882034302,76.3133621216,49.7224845886,49.7224845886,63.3347358704,63.3347358704,31.7056941986,3.02905631065,0,0.00583431869745,2.96699404716,0.261347174644,0.255512863398,-8.18932342529,-0.255733937025,3.19899749756,0.040232706815,-4.05275344849,-0.0887404680252,2.08355903625,0.0616633631289,32.02282714841,79.51235961916,45.66973114011,33.78925323485,753
1.64952450101301E+018,35,1.64952450101301E+018,r2002313a3/base_footprint,0,1.64952450101301E+018,v/m1vw10zy74w/map,2.63195667218,1.39509019054,0,0,0,-0.554824985155,0.8319670882,0,64.1017150879,41.6470603943,62.04454422,77.0867233276,50.1966362,50.1966362,64.1017150879,64.1017150879,25.8050403595,2.83865141869,0,0.00582289276645,2.98326301575,0.365693509579,0.359870612621,-9.63689041138,-0.301057159901,2.58582305908,0.0324556343257,-4.38854217529,-0.0958027690649,7.834192276,0.232888549566,32.01016998292,79.67254638668,45.80809402471,33.6392326355,725
1.649524501114E+018,36,1.649524501114E+018,r2002313a3/base_footprint,0,1.649524501114E+018,v/m1vw10zy74w/map,2.74641006897,1.13900371506,0,0,0,-0.533102449408,0.846050694956,0,64.5453948975,37.4416427612,58.4318313599,78.214881897,50.5206260681,50.5206260681,64.5453948975,64.5453948975,25.3792114258,2.69108247757,0,0.00582251744345,2.96426558495,0.432665288448,0.426842778921,-5.22387695312,-0.1621427387,2.20764160156,0.0274505391717,-4.37442016602,-0.0947947949171,7.66207122803,0.231893882155,32.21776580808,80.42252349856,46.14620590208,33.04128265383,621
1.64952450121728E+018,37,1.64952450121728E+018,r2002313a3/base_footprint,0,1.64952450121728E+018,v/m1vw10zy74w/map,2.74641006897,1.13900371506,0,0,0,-0.533102449408,0.846050694956,0,64.4197311401,42.0814476013,54.3841705322,78.214881897,50.7970237732,50.7970237732,64.4197311401,64.4197311401,30.6262702942,3.07901525497,0,0.00581577979028,2.94571089745,0.46189057827,0.456074804068,-9.86368179321,-0.306156605482,2.20764160156,0.0274505391717,-4.65081787109,-0.100784406066,2.41501235962,0.0730907544494,32.21776580809,80.42252349856,46.14620590211,33.04128265382,621
1.64952450131402E+018,38,1.64952450131402E+018,r2002313a3/base_footprint,0,1.64952450131402E+018,v/m1vw10zy74w/map,2.88407862591,0.869572713037,0,0,0,-0.512865536045,0.858468952227,0,64.9584121704,38.9312973022,50.4502258301,79.7295684814,51.0921287537,51.0921287537,64.9584121704,64.9584121704,29.5700206757,3.05015730858,0,0.00624724011868,2.92115449905,0.482592374086,0.476345151663,-6.27197265625,-0.192042320967,1.46702575684,0.0180675778538,-4.65837097168,-0.100322939456,3.03054237366,0.0929598137736,32.65932464595,81.19659423824,46.43375778202,32.60056304936,584
1.64952450141497E+018,39,1.64952450141497E+018,r2002313a3/base_footprint,0,1.64952450141497E+018,v/m1vw10zy74w/map,2.88407862591,0.869572713037,0,0,0,-0.512865536045,0.858468952227,0,65.2521362305,42.9590034485,47.4013710022,79.7295684814,51.374584198,51.374584198,65.2521362305,65.2521362305,27.3335323334,-2.82875037193,0,0.00625307206064,2.8931748867,0.496853470802,0.490600407124,-10.2996788025,-0.315367162228,1.46702575684,0.0180675778538,-4.94082641602,-0.10640591383,5.26703071594,0.161562561989,32.659324646,81.19659423824,46.43375778198,32.60056304934,584
1.64952450151292E+018,40,1.64952450151292E+018,r2002313a3/base_footprint,0,1.64952450151292E+018,v/m1vw10zy74w/map,3.04423108941,0.594714032642,0,0,0,-0.478232264861,0.878233397706,0,65.658164978,46.9261398315,47.2332725525,80.6270141602,51.5814857483,51.5814857483,65.658164978,65.658164978,25.4903469086,-2.98932242393,0,0.00634051254019,2.84717059135,0.504765987396,0.498425483704,-13.6242828369,-0.409114807844,1.05778503418,0.0129495942965,-4.91049575806,-0.105215162039,6.40386581421,0.200784564018,33.3018569946,81.68479919438,46.67098999024,31.89421272281,572
1.64952450161476E+018,41,1.64952450161476E+018,r2002313a3/base_footprint,0,1.64952450161477E+018,v/m1vw10zy74w/map,3.21517619895,0.351554849183,0,0,0,-0.443996748911,0.896028396289,0,64.7496871948,47.9119911194,48.3341178894,75.5590438843,51.7676124573,51.7676124573,64.7496871948,64.7496871948,25.6084690094,-3.05767560005,0,0.00511621264741,2.79769444466,0.511635959148,0.506519794464,-13.8571586609,-0.406907260418,6.49185943604,0.0791198983788,-4.82130050659,-0.102698177099,5.95902824402,0.188771009445,34.0548324585,82.05090332034,46.94631195071,31.56749725342,561
1.64952450172279E+018,42,1.64952450172279E+018,r2002313a3/base_footprint,0,1.64952450172279E+018,v/m1vw10zy74w/map,3.23188456012,0.335905758001,0,0,0,-0.440376203134,0.89781334347,0,65.8051147461,44.7963790894,51.1323661804,80.2875900269,51.890083313,51.890083313,65.8051147461,65.8051147461,24.9562110901,-2.96888923645,0,0.00461042579263,2.7626516819,0.515888631344,0.51127821207,-10.5949325562,-0.309780240059,1.82694244385,0.0222487095743,-4.9253692627,-0.10487382859,6.48663139343,0.206299141049,34.2014465332,82.11453247075,46.9647140503,31.44284248353,558
1.64952450181362E+018,43,1.64952450181362E+018,r2002313a3/base_footprint,0,1.64952450181362E+018,v/m1vw10zy74w/map,3.23188456012,0.335905758001,0,0,0,-0.440376203134,0.89781334347,0,65.9235992432,47.4153289795,54.5546226501,80.2875900269,52.2404670715,52.2404670715,65.9235992432,65.9235992432,26.6075973511,3.0198700428,0,0.00451218290254,2.74484825134,0.516888678074,0.512376487255,-13.2138824463,-0.386354476213,1.82694244385,0.0222487095743,-5.27575302124,-0.112334400415,4.83524513245,0.153778880835,34.2014465332,82.11453247075,46.96471405026,31.44284248355,558
1.64952450191468E+018,44,1.64952450191468E+018,r2002313a3/base_footprint,0,1.64952450191468E+018,v/m1vw10zy74w/map,3.43957449033,0.0862867726983,0,0,0,-0.41027163088,0.911963370369,0,66.1967926025,47.9119911194,58.8940238953,79.6527099609,52.4828338623,52.4828338623,66.1967926025,66.1967926025,22.0220375061,3.06902980804,0,0.00411054398865,2.68660330772,0.512694060802,0.50858348608,-12.4498023987,-0.351072579622,2.86179351807,0.0346823073924,-5.10470199585,-0.10774384439,9.18425178528,0.29430770874,35.4621887207,82.51450347897,47.37813186645,31.20628929138,554
1.64952450201326E+018,45,1.64952450201326E+018,r2002313a3/base_footprint,0,1.64952450201326E+018,v/m1vw10zy74w/map,3.43957449033,0.0862867726983,0,0,0,-0.41027163088,0.911963370369,0,66.0330886841,48.3065948486,62.5715026855,79.6527099609,52.954246521,52.954246521,66.0330886841,66.0330886841,30.0600891113,3.01617288589,0,0.0031073205173,2.62407255173,0.508135378361,0.505028069019,-12.8444061279,-0.362200051546,2.86179351807,0.0346823073924,-5.57611465454,-0.117693848908,1.14620018005,0.0367297828197,35.4621887207,82.51450347897,47.37813186646,31.20628929135,554
1.64952450211337E+018,46,1.64952450211337E+018,r2002313a3/base_footprint,0,1.64952450211337E+018,v/m1vw10zy74w/map,3.67137265328,-0.16167996329,0,0,0,-0.386871680219,0.922133560307,0,66.6950836182,50.6061973572,66.7970809937,80.6582717896,53.2931747437,53.2931747437,66.6950836182,66.6950836182,25.4245414734,2.96075868607,0,0.00296023674309,2.60185289383,0.5083578825,0.505397617817,-14.003993988,-0.38259974122,2.08404541016,0.0251871775836,-5.47519683838,-0.114500805736,5.96686553955,0.190079584718,36.6022033692,82.74231719976,47.81797790532,31.39140701295,558
1.64952450221565E+018,47,1.64952450221565E+018,r2002313a3/base_footprint,0,1.64952450221565E+018,v/m1vw10zy74w/map,3.89751010404,-0.38391756581,0,0,0,-0.369860265626,0.929087393043,0,66.1279602051,48.0164146423,71.7733383179,76.48387146,53.7429275513,53.7429275513,66.1279602051,66.1279602051,25.4623394012,2.93944263458,0,0.00232672155835,2.532579422,0.506175756454,0.503849029541,-11.0208015442,-0.297894835472,6.29907226562,0.0760914236307,-5.78421020508,-0.120608106256,6.24675941467,0.197002112865,36.9956130981,82.78294372562,47.95871734622,31.70909881587,557
1.6495245023128E+018,48,1.6495245023128E+018,r2002313a3/base_footprint,0,1.6495245023128E+018,v/m1vw10zy74w/map,3.91430960709,-0.397897733749,0,0,0,-0.36769994715,0.929944486981,0,66.9281082153,47.0139198303,74.402557373,80.1323776245,53.8678703308,53.8678703308,66.9281082153,66.9281082153,25.5436706543,-3.07666730881,0,0.00100765307434,2.4091925621,0.496761798859,0.495754152536,-10.0183067322,-0.270797163248,2.65056610107,0.032018262893,-5.90915298462,-0.123213320971,6.16542816162,0.19443719089,36.9956130981,82.78294372557,47.95871734618,31.70909881592,557
1.64952450241565E+018,49,1.64952450241565E+018,r2002313a3/base_footprint,0,1.64952450241565E+018,v/m1vw10zy74w/map,4.16288925946,-0.621610737816,0,0,0,-0.3568096878,0.934177096001,0,66.6410598755,43.014705658,77.0993347168,79.7573471069,53.9685821533,53.9685821533,66.6410598755,66.6410598755,30.4481220245,2.87248301506,0,0.000829679542221,2.35435914993,0.488509744406,0.487680077553,-6.38549423218,-0.174327924848,2.88757324219,0.0349395126104,-5.77017974854,-0.119717240334,1.32328033447,0.0416500456631,36.62921142582,82.64492034909,48.19840240476,31.77140235897,554
1.64952450251329E+018,50,1.64952450251329E+018,r2002313a3/base_footprint,0,1.64952450251329E+018,v/m1vw10zy74w/map,4.3994253897,-0.831359690671,0,0,0,-0.354008508442,0.935242201759,0,65.7753295898,42.5235748291,80.2701721191,73.9570236206,53.9923362732,53.9923362732,65.7753295898,65.7753295898,25.4066009521,2.92915248871,0,0.000586067093536,2.23980927467,0.464996665716,0.464410603046,-6.35642242432,-0.175751253963,8.48380279541,0.102907784283,-5.58866119385,-0.115459442139,6.17010688782,0.195400580764,36.16715240478,82.44082641601,48.40367507935,31.57670783992,554
1.64952450261308E+018,51,1.64952450261308E+018,r2002313a3/base_footprint,0,1.64952450261308E+018,v/m1vw10zy74w/map,4.42478367538,-0.850023676759,0,0,0,-0.352845801174,0.935681484584,0,66.0437774658,46.1924285889,81.577255249,76.5837097168,53.9837989807,53.9837989807,66.0437774658,66.0437774658,29.9383182526,2.81792259216,0,8.83959655766E-05,2.1810092926,0.45240649581,0.452494889498,-10.1761398315,-0.282542705536,5.88208770752,0.0713276043534,-5.54581069946,-0.114493004978,1.75276756287,0.055307906121,36.0162887574,82.46579742432,48.43798828124,31.69108581547,552
1.64952450271329E+018,52,1.64952450271329E+018,r2002313a3/base_footprint,0,1.64952450271329E+018,v/m1vw10zy74w/map,4.42478367538,-0.850023676759,0,0,0,-0.352845801174,0.935681484584,0,65.84034729,45.8450050354,82.6830291748,76.5837097168,53.9608154297,53.9608154297,65.84034729,65.84034729,33.3519058228,3.02063059807,0,8.98541111383E-05,2.12048244476,0.439555943012,0.439645797014,-9.82871627808,-0.272896409035,5.88208770752,0.0713276043534,-5.52282714844,-0.114018507302,-1.66082000732,-0.0524065345526,36.01628875732,82.46579742432,48.43798828126,31.69108581548,552
1.64952450281423E+018,53,1.64952450281423E+018,r2002313a3/base_footprint,0,1.64952450281423E+018,v/m1vw10zy74w/map,4.68522516123,-1.08016205992,0,0,0,-0.356297518102,0.934372558776,0,65.9750366211,46.6911773682,82.7947158813,76.8366622925,54.0522346497,54.0522346497,65.9750366211,65.9750366211,32.8254127502,2.87267661095,0,0.000258410349488,2.05605149269,0.427358835936,0.427617251873,-10.9565010071,-0.306606978178,5.51151275635,0.066929385066,-5.36004638672,-0.110080212355,-1.65545463562,-0.0531105808914,35.7346763611,82.34817504885,48.69218826298,31.16995811458,567
1.6495245029156E+018,54,1.6495245029156E+018,r2002313a3/base_footprint,0,1.6495245029156E+018,v/m1vw10zy74w/map,4.68522516123,-1.08016205992,0,0,0,-0.356297518102,0.934372558776,0,66.3503112793,45.7013587952,82.8169631958,76.8366622925,54.1662406921,54.1662406921,66.3503112793,66.3503112793,27.3017349243,2.85977435112,0,0.000615340599325,1.97828650475,0.417098611593,0.417713969946,-9.96668243408,-0.278907865286,5.51151275635,0.066929385066,-5.4740524292,-0.112421572208,3.86822319031,0.124101005495,35.73467636112,82.34817504885,48.6921882629,31.16995811461,567
1.64952450301368E+018,55,1.64952450301368E+018,r2002313a3/base_footprint,0,1.64952450301368E+018,v/m1vw10zy74w/map,4.93957180802,-1.30832074048,0,0,0,-0.368711601177,0.929543842515,0,66.6303939819,49.8404006958,83.2730789185,78.107635498,54.2496185303,54.2496185303,66.6303939819,66.6303939819,27.7363262177,2.97772717476,0,0.000588979921304,1.8777500391,0.408988416195,0.40957736969,-13.6725311279,-0.378029763699,4.15328979492,0.0504892170429,-5.20169448853,-0.106053307652,3.17830276489,0.102809019387,36.1678695679,82.26092529292,49.04792404177,30.91462898259,602
1.6495245031163E+018,56,1.6495245031163E+018,r2002313a3/base_footprint,0,1.6495245031163E+018,v/m1vw10zy74w/map,5.15308870458,-1.51477479897,0,0,0,-0.382783788925,0.923837957077,0,66.278427124,44.3684463501,83.4490203857,75.3374176025,54.2874450684,54.2874450684,66.278427124,66.278427124,24.5074691772,3.11509633064,0,0.00135547982063,1.69434833527,0.391728311777,0.39037284255,-5.89914321899,-0.153346762061,7.07484436035,0.0858469903469,-4.72742462158,-0.0953878685832,6.31876373291,0.204980075359,38.46930313111,82.41226196285,49.56002044682,30.82623291011,808
1.64952450321388E+018,57,1.64952450321388E+018,r2002313a3/base_footprint,0,1.64952450321388E+018,v/m1vw10zy74w/map,5.16438265806,-1.52602885913,0,0,0,-0.385448345181,0.922729414941,0,66.8109588623,49.7081260681,83.3973083496,78.1814880371,54.3709144592,54.3709144592,66.8109588623,66.8109588623,26.0619945526,2.95749616623,0,0.00181129109114,1.56671857834,0.381874680519,0.380063384771,-11.238822937,-0.29215040803,4.23077392578,0.0513367056847,-4.81089401245,-0.0970720723271,4.76423835754,0.154551431537,38.4693031311,82.41226196288,49.56002044675,30.82623291014,808
1.64952450331425E+018,58,1.64952450331425E+018,r2002313a3/base_footprint,0,1.64952450331425E+018,v/m1vw10zy74w/map,5.16438265806,-1.52602885913,0,0,0,-0.385448345181,0.922729414941,0,66.7119064331,45.2177810669,83.0863952637,78.1814880371,54.3429832458,54.3429832458,66.7119064331,66.7119064331,27.5432929993,2.99701952934,0,0.00212476029992,1.3078622818,0.36830624938,0.366181492805,-6.74847793579,-0.175425007939,4.23077392578,0.0513367056847,-4.78296279907,-0.096508488059,3.28293991089,0.106498248875,38.46930313111,82.41226196288,49.56002044673,30.82623291019,808
1.64952450341334E+018,59,1.64952450341334E+018,r2002313a3/base_footprint,0,1.64952450341334E+018,v/m1vw10zy74w/map,5.38559610739,-1.76416575921,0,0,0,-0.406180128748,0.91379303073,0,67.0337600708,48.0164146423,81.6353302002,79.6468353271,54.3885307312,54.3885307312,67.0337600708,67.0337600708,27.5170459747,2.96087765694,0,0.00240941531956,1.12475728989,0.358689785004,0.356280386448,-7.24305343628,-0.177641808987,3.47319030762,0.0417852401733,-3.95877075195,-0.078500688076,3.19144821167,0.103927209973,40.77336120602,83.12002563472,50.42975997925,30.70849418637,1369
1.64952450351464E+018,60,1.64952450351464E+018,r2002313a3/base_footprint,0,1.64952450351464E+018,v/m1vw10zy74w/map,5.38559610739,-1.76416575921,0,0,0,-0.406180128748,0.91379303073,0,67.2082443237,51.2867660522,81.2254104614,79.6468353271,54.4582710266,54.4582710266,67.2082443237,67.2082443237,25.1295318604,2.97892189026,0,0.00267762481235,1.01225972176,0.351822912693,0.349145293236,-10.5134048462,-0.25784984231,3.47319030762,0.0417852401733,-4.02851104736,-0.0798836052418,5.57896232605,0.181674897671,40.773361206,83.12002563472,50.42975997924,30.70849418645,1369
1.64952450431305E+018,61,1.64952450431305E+018,r2002313a3/base_footprint,0,1.64952450431305E+018,v/m1vw10zy74w/map,5.38559610739,-1.76416575921,0,0,0,-0.406180128748,0.91379303073,0,67.1434326172,48.4162902832,81.0694198608,79.6468353271,54.5055198669,54.5055198669,67.1434326172,67.1434326172,26.8064651489,3.00339174271,0,0.00326950871386,0.906811892986,0.344458580017,0.341189086437,-7.64292907715,-0.187449082732,3.47319030762,0.0417852401733,-4.0757598877,-0.080820530653,3.90202903748,0.127066761255,40.77336120605,83.12002563472,50.4297599792,30.70849418638,1369
1.64952450461617E+018,62,1.64952450461617E+018,r2002313a3/base_footprint,0,1.64952450461617E+018,v/m1vw10zy74w/map,5.38559610739,-1.76416575921,0,0,0,-0.406180128748,0.91379303073,0,67.0386199951,50.7523956299,80.0801010132,79.6468353271,54.6247367859,54.6247367859,67.0386199951,67.0386199951,29.9805431366,3.09601211548,0,0.00411616778001,0.808941662312,0.336589217186,0.332473039627,-9.97903442383,-0.244743973017,3.47319030762,0.0417852401733,-4.19497680664,-0.0831845477223,0.727951049805,0.0237052012235,40.77336120607,83.12002563472,50.42975997926,30.708494186405,1369
1.64952450491917E+018,63,1.64952450491917E+018,r2002313a3/base_footprint,0,1.64952450491917E+018,v/m1vw10zy74w/map,5.56597753939,-1.97452166665,0,0,0,-0.434462595486,0.900689876219,0,67.1609191895,44.3197135925,78.8067398071,78.8428344727,54.5363082886,54.5363082886,67.1609191895,67.1609191895,23.9297294617,3.00368595123,0,0.00454609422013,0.762324988842,0.332109570503,0.327563464642,-1.63576126099,-0.0383226275444,6.32821655273,0.0743000879884,-3.41883087158,-0.0668818354607,6.39286804199,0.210828512907,42.68395233151,85.17105102543,51.11747741702,30.32259750369,2045
1.64952450501286E+018,64,1.64952450501286E+018,r2002313a3/base_footprint,0,1.64952450501286E+018,v/m1vw10zy74w/map,5.57036261029,-1.98085120043,0,0,0,-0.435537214867,0.900170725177,0,67.8462524414,51.1312217712,77.1327285767,82.7714233398,54.4857559204,54.4857559204,67.8462524414,67.8462524414,25.1906909943,3.07490229607,0,0.00550374947488,0.633160114288,0.314446717501,0.308942973614,-8.4472694397,-0.197902694345,2.39962768555,0.0281742177904,-3.36827850342,-0.0658928900957,5.1319065094,0.169243633747,42.6839523315,85.17105102535,51.11747741698,30.3225975037,2045
1.64952450511325E+018,65,1.64952450511325E+018,r2002313a3/base_footprint,0,1.64952450511325E+018,v/m1vw10zy74w/map,5.57036261029,-1.98085120043,0,0,0,-0.435537214867,0.900170725177,0,67.8003311157,48.4162902832,75.275138855,82.7714233398,54.5794868469,54.5794868469,67.8003311157,67.8003311157,27.0296611786,3.01263046265,0,0.00561684556305,0.474320143461,0.284649461508,0.279032617807,-5.73233795166,-0.134297266603,2.39962768555,0.0281742177904,-3.46200942993,-0.0677265301347,3.29293632507,0.108596779406,42.68395233154,85.17105102535,51.11747741697,30.32259750367,2045
1.64952450521384E+018,66,1.64952450521384E+018,r2002313a3/base_footprint,0,1.64952450521384E+018,v/m1vw10zy74w/map,5.57036261029,-1.98085120043,0,0,0,-0.435537214867,0.900170725177,0,68.0831832886,48.8100585938,73.6279449463,82.7714233398,54.6749725342,54.6749725342,68.0831832886,68.0831832886,22.9695663452,-3.09642601013,0,0.00526792975143,0.315345257521,0.254302889109,0.249034956098,-6.12610626221,-0.143522471189,2.39962768555,0.0281742177904,-3.55749511719,-0.0695944949985,7.35303115845,0.242493450642,42.68395233159,85.17105102535,51.11747741701,30.32259750365,2045
1.64952450531332E+018,67,1.64952450531332E+018,r2002313a3/base_footprint,0,1.64952450531332E+018,v/m1vw10zy74w/map,5.57036261029,-1.98085120043,0,0,0,-0.435537214867,0.900170725177,0,67.8955459595,53.300403595,70.8645477295,82.7714233398,54.6715965271,54.6715965271,67.8955459595,67.8955459595,26.3105239868,-3.13937282562,0,0.00543163251132,0.155592978001,0.217223212123,0.211791574955,-10.6164512634,-0.248722314835,2.39962768555,0.0281742177904,-3.55411911011,-0.069528453052,4.01207351685,0.132312983274,42.6839523316,85.17105102535,51.11747741699,30.32259750365,2045
1.6495245054147E+018,68,1.6495245054147E+018,r2002313a3/base_footprint,0,1.6495245054147E+018,v/m1vw10zy74w/map,5.57036261029,-1.98085120043,0,0,0,-0.435537214867,0.900170725177,0,68.1440582275,50.9803924561,69.167137146,82.7714233398,54.6430740356,54.6430740356,68.1440582275,68.1440582275,21.5292377472,3.09717941284,0,0.00506717665121,0.00899366475642,0.177848532796,0.17278136313,-8.29644012451,-0.194369062781,2.39962768555,0.0281742177904,-3.52559661865,-0.0689704716206,8.79335975647,0.289993613958,42.68395233159,85.17105102535,51.11747741695,30.32259750367,2045
1.64952450551397E+018,69,1.64952450551397E+018,r2002313a3/base_footprint,0,1.64952450551397E+018,v/m1vw10zy74w/map,5.72724160285,-2.18820479661,0,0,0,-0.459664401871,0.888092696543,0,68.489440918,54.7511329651,69.5637054443,84.5741882324,54.7387657166,54.7387657166,68.489440918,68.489440918,22.835855484,2.84727311134,0,0.00528486305848,0.057401638478,0.158716395497,0.153431534767,-10.9148483276,-0.248991176486,1.56768798828,0.0181989073753,-3.22089004517,-0.0625198557973,7.18270111084,0.239275366068,43.8362846375,86.14187622068,51.51787567143,30.01855659484,2365
1.64952450581439E+018,70,1.64952450581439E+018,r2002313a3/base_footprint,0,1.64952450581439E+018,v/m1vw10zy74w/map,5.72724160285,-2.18820479661,0,0,0,-0.459664401871,0.888092696543,0,68.5207901001,48.3065948486,71.0785675049,84.5741882324,54.685344696,54.685344696,68.5207901001,68.5207901001,21.6945304871,3.09458327293,0,0.00476692104712,0.340279072523,0.017361080274,0.0125941596925,-4.47031021118,-0.101977400482,1.56768798828,0.0181989073753,-3.16746902466,-0.0614829137921,8.32402610779,0.27729600668,43.83628463742,86.14187622068,51.51787567134,30.01855659489,2365
1.64952450591496E+018,71,1.64952450591496E+018,r2002313a3/base_footprint,0,1.64952450591497E+018,v/m1vw10zy74w/map,5.72724160285,-2.18820479661,0,0,0,-0.459664401871,0.888092696543,0,68.4767456055,40.7341880798,72.8217544556,84.5741882324,54.6318473816,54.6318473816,68.4767456055,68.4767456055,21.9096088409,2.98003220558,0,0.00149946275633,0.41088873148,0.0431388728321,0.0446383357048,3.10209655762,0.0707654953003,1.56768798828,0.0181989073753,-3.11397171021,-0.0604444891214,8.10894775391,0.27013117075,43.83628463742,86.14187622068,51.51787567139,30.01855659481,2365
1.64952450601423E+018,72,1.64952450601423E+018,r2002313a3/base_footprint,0,1.64952450601423E+018,v/m1vw10zy74w/map,5.76446208034,-2.24546623778,0,0,0,-0.510812141539,0.859692361287,0,69.129196167,50.0891265869,74.4594421387,89.2241363525,54.6739654541,54.6739654541,69.129196167,69.129196167,27.3601970673,2.94906139374,0,0.0002742332872,0.471053630114,0.0632767602801,0.0630025342107,-6.15265655518,-0.140035301447,-2.94651031494,-0.0341514982283,-3.08958053589,-0.0598937161267,2.50527381897,0.0838852971792,43.93647003172,86.27762603756,51.58438491821,29.86547088627,2453
1.64952450761338E+018,73,1.64952450761338E+018,r2002313a3/base_footprint,0,1.64952450761338E+018,v/m1vw10zy74w/map,5.75938058589,-2.24070555206,0,0,0,-0.558974513935,0.829184836313,0,69.6615066528,49.1978607178,75.5306854248,92.1364593506,54.660358429,54.660358429,69.6615066528,69.6615066528,28.1160583496,2.9572622776,0,0.00221524434164,0.149714738131,0.0432928204536,0.0410775765777,-5.26139068604,-0.119749963284,-5.85883331299,-0.0679067522287,-3.07597351074,-0.0596299357712,1.74941253662,0.0585764274001,43.93647003176,86.27762603761,51.58438491826,29.86547088622,2453
1.64952450801375E+018,74,1.64952450801375E+018,r2002313a3/base_footprint,0,1.64952450801375E+018,v/m1vw10zy74w/map,5.75938058589,-2.24070555206,0,0,0,-0.558974513935,0.829184836313,0,69.9476776123,52.9411773682,76.117149353,92.1364593506,54.7204742432,54.7204742432,69.9476776123,69.9476776123,23.6141395569,3.05714631081,0,0.00177374307532,0.101167984307,0.0348516814411,0.0330779366195,-9.00470733643,-0.204948350787,-5.85883331299,-0.0679067522287,-3.13608932495,-0.0607953220606,6.25133132935,0.209316343069,43.93647003177,86.27762603761,51.58438491825,29.86547088625,2453
1.64952450821357E+018,75,1.64952450821357E+018,r2002313a3/base_footprint,0,1.64952450821357E+018,v/m1vw10zy74w/map,5.82821812135,-2.43833661856,0,0,0,-0.592880301995,0.805290598173,0,69.6466522217,57.4660644531,75.9705963135,90.8506088257,54.8276596069,54.8276596069,69.6466522217,69.6466522217,25.5611763,3.13629555702,0,6.96596107446E-05,0.0165765173733,0.0143810631707,0.0143114039674,-12.6066932678,-0.281026959419,-4.03043365479,-0.0464227758348,-2.89596557617,-0.0557648986578,4.15609931946,0.13985465467,44.8593711853,86.82017517091,51.93169403073,29.71727561946,2419
1.64952450831313E+018,76,1.64952450831313E+018,r2002313a3/base_footprint,0,1.64952450831313E+018,v/m1vw10zy74w/map,5.83179032166,-2.44976852258,0,0,0,-0.593930270774,0.804516521557,0,69.9151535034,61.0859718323,76.8061141968,91.477935791,54.9525871277,54.9525871277,69.9151535034,69.9151535034,24.3357944489,3.0466966629,0,0.0011139010312,0.0174046456814,0.00303367921151,0.00414758035913,-16.226600647,-0.361721545458,-4.65776062012,-0.0536483675241,-3.02089309692,-0.0581705085933,5.38148117065,0.181089311838,44.8593711853,86.82017517088,51.93169403078,29.71727561955,2419
1.6495245084138E+018,77,1.6495245084138E+018,r2002313a3/base_footprint,0,1.6495245084138E+018,v/m1vw10zy74w/map,5.83179032166,-2.44976852258,0,0,0,-0.593930270774,0.804516521557,0,69.7990875244,53.8461532593,77.737663269,91.477935791,54.9457893372,54.9457893372,69.7990875244,69.7990875244,26.3514823914,-3.03610467911,0,0.000814520462882,0.0251578111202,0.000199364396394,0.000615156081039,-8.98678207397,-0.200332328677,-4.65776062012,-0.0536483675241,-3.0140953064,-0.0580396093428,3.36579322815,0.113260492682,44.85937118533,86.82017517088,51.9316940308,29.71727561955,2419
1.64952450851434E+018,78,1.64952450851434E+018,r2002313a3/base_footprint,0,1.64952450851434E+018,v/m1vw10zy74w/map,5.83179032166,-2.44976852258,0,0,0,-0.593930270774,0.804516521557,0,69.9982299805,56.5610847473,80.4495544434,91.477935791,54.9896697998,54.9896697998,69.9982299805,69.9982299805,23.2408103943,3.00751423836,0,0.000361295009498,0.0454048626125,0.00384102412499,0.0034797291737,-11.701713562,-0.260853260756,-4.65776062012,-0.0536483675241,-3.05797576904,-0.058884575963,6.47646522522,0.217936038971,44.8593711853,86.82017517088,51.93169403076,29.71727561952,2419
1.64952450861525E+018,79,1.64952450861525E+018,r2002313a3/base_footprint,0,1.64952450861525E+018,v/m1vw10zy74w/map,5.89497208301,-2.66072410539,0,0,0,-0.600333609812,0.79974968392,0,69.8425292969,47.0139198303,82.0006256104,90.3087692261,54.9807815552,54.9807815552,69.8425292969,69.8425292969,21.7384605408,2.94286584854,0,0.000451678730315,0.0498655736446,0.00436029490083,0.00390861649066,-1.36123657227,-0.0298172309995,-3.00133514404,-0.0343766286969,-2.73527908325,-0.0523543469608,7.85014724731,0.265309780836,45.65268325803,87.30743408206,52.24550247195,29.58860778811,2238
1.64952450871516E+018,80,1.64952450871516E+018,r2002313a3/base_footprint,0,1.64952450871516E+018,v/m1vw10zy74w/map,5.89497208301,-2.66072410539,0,0,0,-0.600333609812,0.79974968392,0,69.8704986572,53.300403595,83.8802871704,90.3087692261,54.9567489624,54.9567489624,69.8704986572,69.8704986572,20.9754829407,2.89630365372,0,0.000650804664474,0.05478958413,0.00139057065826,0.000739765935577,-7.64772033691,-0.167519629002,-3.00133514404,-0.0343766286969,-2.71124649048,-0.05189435184,8.61312484741,0.291095972061,45.65268325809,87.30743408206,52.24550247192,29.58860778811,2238
1.6495245088139E+018,81,1.6495245088139E+018,r2002313a3/base_footprint,0,1.6495245088139E+018,v/m1vw10zy74w/map,5.89497208301,-2.66072410539,0,0,0,-0.600333609812,0.79974968392,0,69.4767913818,49.3212661743,85.992729187,90.3087692261,54.8172264099,54.8172264099,69.4767913818,69.4767913818,26.5554389954,3.13595414162,0,0.00102371454705,0.094819933176,0.0204921923578,0.0215159077197,-3.66858291626,-0.0803585350513,-3.00133514404,-0.0343766286969,-2.57172393799,-0.0492238327861,3.03316879272,0.102511376143,45.65268325804,87.30743408206,52.24550247191,29.58860778812,2238
1.64952450891432E+018,82,1.64952450891432E+018,r2002313a3/base_footprint,0,1.64952450891432E+018,v/m1vw10zy74w/map,5.95211286114,-2.86734967915,0,0,0,-0.606249523721,0.795274490341,0,69.4170379639,51.6643867493,87.2134857178,89.1334152222,54.7254257202,54.7254257202,69.4170379639,69.4170379639,22.4081382751,2.80349898338,0,0.000115660855954,0.128537252545,0.057458024472,0.0573423616588,-5.44634628296,-0.117840267718,-2.51763153076,-0.0290666595101,-2.30142593384,-0.0439002364874,6.90900611877,0.235664367676,46.21804046634,86.61578369144,52.42399978636,29.31714439387,1778
1.64952450901395E+018,83,1.64952450901395E+018,r2002313a3/base_footprint,0,1.64952450901395E+018,v/m1vw10zy74w/map,5.95211286114,-2.86734967915,0,0,0,-0.606249523721,0.795274490341,0,68.925163269,53.8461532593,88.5390548706,89.1334152222,54.5490379333,54.5490379333,68.925163269,68.925163269,29.3570098877,2.74969339371,0,0.00143864890561,0.134759813547,0.0634381175041,0.0619994662702,-7.62811279297,-0.165046215057,-2.51763153076,-0.0290666595101,-2.12503814697,-0.0405355989933,-0.0398654937744,-0.00135980139021,46.21804046633,86.61578369144,52.42399978633,29.3171443939256,1778
1.64952450911445E+018,84,1.64952450911445E+018,r2002313a3/base_footprint,0,1.64952450911446E+018,v/m1vw10zy74w/map,5.95211286114,-2.86734967915,0,0,0,-0.606249523721,0.795274490341,0,68.97631073,49.3212661743,88.577911377,89.1334152222,54.4610557556,54.4610557556,68.97631073,68.97631073,27.4861068726,2.60652041435,0,0.00173711555544,0.141972690821,0.0585601627827,0.0568230487406,-3.10322570801,-0.0671431720257,-2.51763153076,-0.0290666595101,-2.03705596924,-0.0388573184609,1.83103752136,0.062456201762,46.21804046629,86.61578369144,52.42399978636,29.31714439396,1778
1.64952450921424E+018,85,1.64952450921424E+018,r2002313a3/base_footprint,0,1.64952450921424E+018,v/m1vw10zy74w/map,6.01411724803,-3.09058430093,0,0,0,-0.608438021212,0.793601395125,0,69.1018066406,47.5113105774,89.6095657349,89.5576400757,54.32264328,54.32264328,69.1018066406,69.1018066406,25.2595329285,2.64069604874,0,0.00159622868523,0.14743822813,0.0553434379399,0.0537472106516,-1.04713058472,-0.0225362982601,-3.7818145752,-0.0440895147622,-1.76398086548,-0.0335621349514,3.9706363678,0.135840341449,46.46417999268,85.7758255005,52.55866241452,29.2301692963,1455
1.64952450931652E+018,86,1.64952450931652E+018,r2002313a3/base_footprint,0,1.64952450931653E+018,v/m1vw10zy74w/map,6.01411724803,-3.09058430093,0,0,0,-0.608438021212,0.793601395125,0,69.0090179443,49.7081260681,90.6250534058,89.5576400757,54.3407592773,54.3407592773,69.0090179443,69.0090179443,27.1253604889,2.70548772812,0,0.000947590218857,0.152762621641,0.0133580900729,0.0124105000868,-3.24394607544,-0.0698160603642,-3.7818145752,-0.0440895147622,-1.78209686279,-0.0339068137109,2.10480880737,0.0720080956817,46.46417999266,85.7758255005,52.55866241451,29.23016929627,1455
1.64952450941407E+018,87,1.64952450941407E+018,r2002313a3/base_footprint,0,1.64952450941407E+018,v/m1vw10zy74w/map,6.07263687502,-3.31055941838,0,0,0,-0.609330507343,0.792916346673,0,68.9551315308,52.4023361206,90.6341323853,88.4967727661,54.2669906616,54.2669906616,68.9551315308,68.9551315308,23.4794445038,2.81514310837,0,0.00161462556571,0.160195991397,0.00272388570011,0.00433851126581,-5.71072006226,-0.122307181358,-3.32131958008,-0.038993857801,-1.58148574829,-0.0300174728036,5.6615486145,0.194281250238,46.69161605834,85.17545318602,52.68550491331,29.1409931183,1357
1.64952450951474E+018,88,1.64952450951474E+018,r2002313a3/base_footprint,0,1.64952450951474E+018,v/m1vw10zy74w/map,6.07263687502,-3.31055941838,0,0,0,-0.609330507343,0.792916346673,0,68.9406814575,47.8107032776,90.5602111816,88.4967727661,54.1463050842,54.1463050842,68.9406814575,68.9406814575,22.4362411499,2.53233933449,0,0.00313818734139,0.137903794646,0.0153866466135,0.0185248348862,-1.11908721924,-0.0239676274359,-3.32131958008,-0.038993857801,-1.4608001709,-0.0277267936617,6.70475196838,0.230079740286,46.69161605836,85.17545318602,52.6855049133,29.14099311828,1357
1.64952450961422E+018,89,1.64952450961422E+018,r2002313a3/base_footprint,0,1.64952450961422E+018,v/m1vw10zy74w/map,6.13366790559,-3.53543386017,0,0,0,-0.607791759639,0.794096453156,0,68.5329666138,48.6952667236,90.2510910034,86.634979248,54.1557350159,54.1557350159,68.5329666138,68.5329666138,23.174451828,2.66039705276,0,0.00367570971139,0.137958750129,0.0188983622938,0.0225740727037,-1.6535949707,-0.0351517051458,-1.88507080078,-0.0222427472472,-1.33333206177,-0.0252417903394,5.6838760376,0.196957916021,47.0416717529,84.74990844722,52.82240295413,28.8583278656,1235
1.64952450971464E+018,90,1.64952450971464E+018,r2002313a3/base_footprint,0,1.64952450971464E+018,v/m1vw10zy74w/map,6.13366790559,-3.53543386017,0,0,0,-0.607791759639,0.794096453156,0,68.4455413818,42.9323959351,89.5103530884,86.634979248,54.0744895935,54.0744895935,68.4455413818,68.4455413818,23.870677948,2.85229063034,0,0.00369013403542,0.137373209,0.019812207669,0.0235023405403,4.10927581787,0.087353952229,-1.88507080078,-0.0222427472472,-1.2520866394,-0.0237037055194,4.9876499176,0.172832250595,47.04167175297,84.74990844722,52.8224029541,28.8583278656,1235
1.64952450981307E+018,91,1.64952450981307E+018,r2002313a3/base_footprint,0,1.64952450981307E+018,v/m1vw10zy74w/map,6.19090422114,-3.74744509079,0,0,0,-0.606398849166,0.795160635174,0,68.3661880493,38.5425796509,88.7815856934,86.2720870972,53.9498786926,53.9498786926,68.3661880493,68.3661880493,22.6468105316,2.78012919426,0,0.00357420207001,0.137422591448,0.0172996297479,0.020873831585,8.46701431274,0.180112481117,-1.85210418701,-0.0219391677529,-1.09865188599,-0.0207876320928,6.03745079041,0.210479557514,47.00959396364,84.41998291019,52.85122680661,28.68426132201,1139
1.64952450991345E+018,92,1.64952450991345E+018,r2002313a3/base_footprint,0,1.64952450991345E+018,v/m1vw10zy74w/map,6.25308482939,-3.97033799966,0,0,0,-0.604933661923,0.796275872215,0,68.4658508301,42.4836616516,88.5680160522,86.8628768921,53.9111862183,53.9111862183,68.4658508301,68.4658508301,22.5618114471,2.86640143394,0,0.0032311566174,0.137814313173,0.0131336767226,0.01636483334,3.93774032593,0.0848259702325,-2.7891998291,-0.0331756621599,-0.99974822998,-0.0188947468996,6.01936721802,0.210605978966,46.42140197753,84.073677063,52.91143798832,28.58117866512,1054
1.64952451001408E+018,93,1.64952451001408E+018,r2002313a3/base_footprint,0,1.64952451001409E+018,v/m1vw10zy74w/map,6.25308482939,-3.97033799966,0,0,0,-0.604933661923,0.796275872215,0,68.4901199341,41.1764717102,88.2705917358,86.8628768921,53.8118591309,53.8118591309,68.4901199341,68.4901199341,21.0522117615,2.69013500214,0,0.00317822699435,0.136975198984,0.007548911497,0.0107271391898,5.24493026733,0.112985178828,-2.7891998291,-0.0331756621599,-0.900421142578,-0.0170175135136,7.52896690369,0.26342394948,46.42140197753,84.073677063,52.911437988322,28.58117866519,1054
1.64952451011389E+018,94,1.64952451011389E+018,r2002313a3/base_footprint,0,1.64952451011389E+018,v/m1vw10zy74w/map,6.31874464869,-4.21309017122,0,0,0,-0.604653151925,0.796488898772,0,68.3194885254,42.0544319153,88.9188461304,86.2546539307,53.7881355286,53.7881355286,68.3194885254,68.3194885254,21.6778659821,2.77833747864,0,0.00311639369465,0.136942535639,0.000113495800178,0.0030028980691,3.56045913696,0.0780547559261,-2.59911346436,-0.0310692321509,-0.839656829834,-0.0158579964191,6.70988464355,0.236365497112,45.61489105226,83.65554046634,52.948478698766,28.38775062565,994
1.6495245102155E+018,95,1.6495245102155E+018,r2002313a3/base_footprint,0,1.6495245102155E+018,v/m1vw10zy74w/map,6.37981545374,-4.44236232983,0,0,0,-0.611149247753,0.791515380123,0,68.2546768188,37.195930481,88.9157714844,84.5104522705,53.9033050537,53.9033050537,68.2546768188,68.2546768188,17.8091259003,2.66653132439,0,0.00329309049994,0.137961447239,0.00085012242198,0.00244296807796,7.88943862915,0.174988895655,-1.33792877197,-0.0160861872137,-0.930534362793,-0.0175662767142,10.609128952,0.373320907354,45.08536911015,83.17252349853,52.972770690907,28.4182548523,948
1.64952451031389E+018,96,1.64952451031389E+018,r2002313a3/base_footprint,0,1.64952451031389E+018,v/m1vw10zy74w/map,6.37981545374,-4.44236232983,0,0,0,-0.611149247753,0.791515380123,0,68.0309829712,39.8084831238,89.5878753662,84.5104522705,53.8215026855,53.8215026855,68.0309829712,68.0309829712,20.9520969391,2.78510260582,0,0.00377543619834,0.139391645789,0.0039960895665,0.00777152553201,5.27688598633,0.117042094469,-1.33792877197,-0.0160861872137,-0.848731994629,-0.0160220433027,7.46615791321,0.262724012136,45.08536911013,83.17252349853,52.972770690871,28.41825485231,948
1.64952451041322E+018,97,1.64952451041322E+018,r2002313a3/base_footprint,0,1.64952451041322E+018,v/m1vw10zy74w/map,6.43865024178,-4.67248401657,0,0,0,-0.619975520797,0.784621152922,0,67.4115447998,48.9284095764,90.8746643066,81.7857208252,53.954082489,53.954082489,67.4115447998,67.4115447998,23.7249317169,2.74965047836,0,0.00388832041062,0.139557763934,0.00498150708154,0.00886982772499,-3.87156295776,-0.0859261825681,0.800102233887,0.00968813057989,-0.919033050537,-0.0173287857324,4.9280166626,0.17198985815,45.05684661864,82.585823059087,53.035049438463,28.6529483795,906
1.64952451051313E+018,98,1.64952451051313E+018,r2002313a3/base_footprint,0,1.64952451051313E+018,v/m1vw10zy74w/map,6.4906524337,-4.90121431657,0,0,0,-0.628843376592,0.777531997873,0,66.2290267944,41.1764717102,90.7536849976,76.3488540649,54.0813293457,54.0813293457,66.2290267944,66.2290267944,26.8117580414,2.69661402702,0,0.00391053920612,0.138961538672,0.00672021741048,0.0106307566166,4.35348129272,0.0956179648638,5.7915802002,0.0705082714558,-1.01999282837,-0.0192229002714,2.13382339478,0.0737184509635,45.52995300292,82.1404342651,53.06133651733,28.94558143618,866
1.64952451061402E+018,99,1.64952451061402E+018,r2002313a3/base_footprint,0,1.64952451061402E+018,v/m1vw10zy74w/map,6.49637922158,-4.92982333253,0,0,0,-0.630456920354,0.776224240524,0,67.5105667114,40.7341880798,90.633895874,80.9232177734,54.1694374084,54.1694374084,67.5105667114,67.5105667114,21.163269043,2.58435726166,0,0.00400257250294,0.138538748026,0.00892894715071,0.0129315201193,5.08389282227,0.110958226025,1.15773773193,0.0141048273072,-1.07782363892,-0.0203012023121,7.79038238525,0.26906388998,45.81808090207,82.08095550533,53.09161376948,28.95365142825,862
1.64952451081329E+018,100,1.64952451081329E+018,r2002313a3/base_footprint,0,1.64952451081329E+018,v/m1vw10zy74w/map,6.49637922158,-4.92982333253,0,0,0,-0.630456920354,0.776224240524,0,67.3430862427,47.0139198303,90.3546981812,80.9232177734,54.2211952209,54.2211952209,67.3430862427,67.3430862427,24.7369174957,2.70290231705,0,0.00405671121553,0.138550579548,0.00967532768846,0.0137320393696,-1.19583892822,-0.0260997172445,1.15773773193,0.0141048273072,-1.12958145142,-0.0212760809809,4.2167339325,0.145637378097,45.81808090208,82.08095550533,53.09161376948,28.9536514282,862
1.64952451101378E+018,101,1.64952451101378E+018,r2002313a3/base_footprint,0,1.64952451101378E+018,v/m1vw10zy74w/map,6.49637922158,-4.92982333253,0,0,0,-0.630456920354,0.776224240524,0,67.3960800171,43.3878822327,90.1533355713,80.9232177734,54.2381744385,54.2381744385,67.3960800171,67.3960800171,23.966506958,2.6779191494,0,0.00398615561426,0.137784063816,0.0105005968362,0.0144867524505,2.43019866943,0.0530401654541,1.15773773193,0.0141048273072,-1.14656066895,-0.0215958897024,4.98714447021,0.172245785594,45.81808090213,82.08095550533,53.09161376955,28.95365142821,862
1.64952451121393E+018,102,1.64952451121393E+018,r2002313a3/base_footprint,0,1.64952451121393E+018,v/m1vw10zy74w/map,6.53879940049,-5.13521469878,0,0,0,-0.634607023701,0.772834992395,0,66.9290618896,47.4153289795,91.0536193848,78.188835144,54.2226905823,54.2226905823,66.9290618896,66.9290618896,22.3618049622,2.83653116226,0,0.00389157352038,0.13734741509,0.0106505714357,0.0145421456546,-0.429992675781,-0.00915163569152,3.28859710693,0.04036206007,-1.02605056763,-0.0192878823727,6.8124332428,0.233508527279,46.985336303719,81.47743225093,53.19664001467,29.174238205,826
