%time,field.header.seq,field.header.stamp,field.header.frame_id,field.pose.header.seq,field.pose.header.stamp,field.pose.header.frame_id,field.pose.pose.position.x,field.pose.pose.position.y,field.pose.pose.position.z,field.pose.pose.orientation.x,field.pose.pose.orientation.y,field.pose.pose.orientation.z,field.pose.pose.orientation.w,field.label,field.main_output,field.scan_score,field.pose_score,field.cov_score,field.lhood_map_score,field.lhood_robot_score,field.lhood_map_score_all,field.lhood_robot_score_all,field.point_angle_diff,field.average_orientation,field.map_average_orientation,field.sensor_div,field.odom_div_x,field.odom_div_w,field.imu_div_w,field.kdtree_div,field.kdtree_div_p,field.cov_div,field.cov_div_p,field.likelihood_div,field.likelihood_div_p,field.normal_diff_div,field.normal_diff_div_p,field.kdtree_average,field.cov_average,field.likelihood_average,field.normal_diff_average,field.map_update_count
1.64952408003356E+018,0,1.64952408003356E+018,r2002313a3/base_footprint,0,1.64952408003356E+018,v/m1vw10zy74w/map,-4.69028798924,5.12017723532,0,0,0,0.00610504637115,0.999981364031,0,62.1052970886,28.571428299,100,84.0969772339,46.3839302063,46.3839302063,62.1052970886,62.1052970886,45.8002166748,-0.670172274113,0,0.000234632927459,4.45473051071,0.0140511700884,0.0142858028412,-8.76340293884,-0.442416787148,0.385612487793,0.00456440169364,-2.39414978027,-0.0544251352549,-5.72172927856,-0.142763108015,19.80802536016,84.482589721693,43.98978042603,40.07848739624,1705
1.64952408013505E+018,1,1.64952408013505E+018,r2002313a3/base_footprint,0,1.64952408013505E+018,v/m1vw10zy74w/map,-4.45957966447,5.12327363621,0,0,0,0.00514986293022,0.999986739368,0,61.6730690002,19.9614276886,74.9971008301,80.5450439453,46.1627502441,46.1627502441,61.6730690002,61.6730690002,38.4046173096,-1.56052696705,0,9.09411828616E-05,4.45900964737,0.0101866479963,0.0102775888517,-0.309295654297,-0.0157385300845,3.65634918213,0.0434238575399,-2.13398742676,-0.0484680309892,1.5832862854,0.0395941324532,19.652132034303,84.20139312743,44.02876281734,39.987903595,1682
1.64952408033408E+018,2,1.64952408033408E+018,r2002313a3/base_footprint,0,1.64952408033408E+018,v/m1vw10zy74w/map,-4.45459597359,5.12278749803,0,0,0,0.0053324612877,0.999985782327,0,61.8330917358,18.032787323,74.9971008301,82.5434265137,45.8620491028,45.8620491028,61.8330917358,61.8330917358,39.47082901,-0.930317223072,0,1.87936484508E-06,4.46103334427,0.00638986751437,0.00638798810542,1.6193447113,0.0824004560709,1.65796661377,0.0196904893965,-1.8332862854,-0.0416383780539,0.517074584961,0.0129307750612,19.6521320343,84.20139312747,44.0287628174,39.987903594961,1682
1.64952408043424E+018,3,1.64952408043424E+018,r2002313a3/base_footprint,0,1.64952408043424E+018,v/m1vw10zy74w/map,-4.45459597359,5.12278749803,0,0,0,0.0053324612877,0.999985782327,0,61.3088951111,23.1499042511,79.9066238403,82.5434265137,45.7153587341,45.7153587341,61.3088951111,61.3088951111,47.322063446,-1.32310342789,0,5.4553947848E-05,4.46132183075,0.00277657620609,0.00283113005571,-3.4977722168,-0.17798435688,1.65796661377,0.0196904893965,-1.68659591675,-0.0383066833019,-7.33415985107,-0.18340946734,19.6521320343,84.20139312747,44.02876281735,39.98790359493,1682
1.64952408053373E+018,4,1.64952408053373E+018,r2002313a3/base_footprint,0,1.64952408053373E+018,v/m1vw10zy74w/map,-4.20972604834,5.12552841023,0,0,0,0.00223306017877,0.999997506718,0,61.1524772644,21.882352829,79.9066238403,83.1897583008,45.5182228088,45.5182228088,61.1524772644,61.1524772644,50.3353118896,-1.11291122437,0,0.000148340681335,4.4614777565,0.00504351686686,0.00489517627284,-2.55750656128,-0.132342919707,0.223922729492,0.00268448446877,-1.54021072388,-0.0350222922862,-9.95623397827,-0.246569126844,19.32484626772,83.413681030292,43.97801208492,40.37907791133,1504
1.64952408063373E+018,5,1.64952408063373E+018,r2002313a3/base_footprint,0,1.64952408063373E+018,v/m1vw10zy74w/map,-3.99302339846,5.14322308982,0,0,0,0.00519437866759,0.999986509124,0,61.3374977112,18.7675075531,79.9066238403,82.4632034302,45.3870353699,45.3870353699,61.3374977112,61.3374977112,42.9725646973,-1.07059311867,0,0.000100390810985,4.46168518066,0.00324538722634,0.00314499647357,0.170974731445,0.00902790017426,0.278388977051,0.00336455903016,-1.45947647095,-0.033224619925,-2.4181098938,-0.0596262477338,18.938482284545,82.741592407251,43.92755889895,40.5544548035,1446
1.64952408073444E+018,6,1.64952408073444E+018,r2002313a3/base_footprint,0,1.64952408073444E+018,v/m1vw10zy74w/map,-3.74842488494,5.13046890207,0,0,0,0.0067866567253,0.99997697038,0,61.8183479309,18.7675075531,77.8039855957,85.1650009155,45.2546806335,45.2546806335,61.8183479309,61.8183479309,42.6142959595,-1.20772004128,0,0.000101637808257,4.46112775803,0.0169737190008,0.017075356096,1.4506778717,0.071751140058,-0.446075439453,-0.00526535743847,-0.606304168701,-0.0135795343667,-1.9652557373,-0.048346914351,20.2181854248,84.718925476047,44.648376464799,40.6490402222,1907
1.64952408083393E+018,7,1.64952408083393E+018,r2002313a3/base_footprint,0,1.64952408083393E+018,v/m1vw10zy74w/map,-3.74842488494,5.13046890207,0,0,0,0.0067866567253,0.99997697038,0,61.2734413147,17.1764698029,77.8039855957,85.1650009155,44.9100151062,44.9100151062,61.2734413147,61.2734413147,48.7001991272,-1.40343821049,0,0.000207251185202,4.46110677719,0.0202290564775,0.020436309278,3.04171562195,0.150444537401,-0.446075439453,-0.00526535743847,-0.261638641357,-0.005859981291,-8.05115890503,-0.198065161705,20.21818542485,84.718925476047,44.648376464843,40.64904022217,1907
1.64952408093401E+018,8,1.64952408093401E+018,r2002313a3/base_footprint,0,1.64952408093401E+018,v/m1vw10zy74w/map,-3.49710300601,5.1352403809,0,0,0,0.00407471772782,0.999991698303,0,60.8490715027,18.4060726166,81.5796127319,84.7973861694,44.6480445862,44.6480445862,60.8490715027,60.8490715027,52.186164856,-1.75713026524,0,0.000352484406903,4.46162700653,0.0262270178646,0.02657950297,2.66429901123,0.12644764781,0.891586303711,0.0104049127549,0.350975036621,0.00779961515218,-11.7109642029,-0.289336770773,21.07037162783,85.688972473111,44.999019622821,40.4752006531,2121
1.64952408103438E+018,9,1.64952408103438E+018,r2002313a3/base_footprint,0,1.6495240810344E+018,v/m1vw10zy74w/map,-3.49710300601,5.1352403809,0,0,0,0.00407471772782,0.999991698303,0,60.5655403137,13.165266037,81.5796127319,84.7973861694,44.2260971069,44.2260971069,60.5655403137,60.5655403137,52.7327194214,-1.71617019176,0,0.000467349833343,4.46092748642,0.0312841534615,0.0317515023053,7.90510559082,0.375176370144,0.891586303711,0.0104049127549,0.772922515869,0.0171764306724,-12.2575187683,-0.302840232849,21.07037162782,85.688972473111,44.999019622769,40.4752006531,2121
1.6495240811341E+018,10,1.6495240811341E+018,r2002313a3/base_footprint,0,1.6495240811341E+018,v/m1vw10zy74w/map,-3.27084788006,5.15829872575,0,0,0,0.00196752534294,0.99999806442,0,60.7015113831,15.2941179276,80.7584152222,83.1643371582,43.895488739,43.895488739,60.7015113831,60.7015113831,40.8357086182,-1.83864569664,0,0.000513584993314,4.46275901794,0.033158455044,0.0336720384657,6.2691411972,0.29073253274,2.83592987061,0.0329758264124,1.16623306274,0.0258807931095,-0.400562286377,-0.00990629009902,21.5632591248,86.00026702881,45.06172180174,40.435146331823,2171
1.64952408123426E+018,11,1.64952408123426E+018,r2002313a3/base_footprint,0,1.64952408123426E+018,v/m1vw10zy74w/map,-3.27084788006,5.15829872575,0,0,0,0.00196752534294,0.99999806442,0,61.1765785217,17.6470584869,82.5183944702,83.1643371582,43.7709388733,43.7709388733,61.1765785217,61.1765785217,30.9393234253,-1.84756195545,0,0.000381155841751,4.46220111847,0.0369583182037,0.0373394750059,3.91620063782,0.181614503264,2.83592987061,0.0329758264124,1.29078292847,0.0286447759718,9.49582290649,0.2348408252,21.56325912472,86.00026702881,45.06172180177,40.43514633179,2171
1.64952408133427E+018,12,1.64952408133427E+018,r2002313a3/base_footprint,0,1.64952408133427E+018,v/m1vw10zy74w/map,-3.03853031503,5.14243397063,0,0,0,0.00802414966294,0.999967805993,0,61.33959198,16.2512454987,82.5183944702,86.4568252563,43.7938461304,43.7938461304,61.33959198,61.33959198,40.1054382324,-2.01438355446,0,0.000554058235139,4.46046638489,0.0390348434448,0.0395888984203,5.58474349976,0.255758672953,-0.526466369629,-0.00612666318193,1.23134994507,0.0273480191827,0.425445556641,0.0104968240485,21.83598899846,85.930358886671,45.02519607547,40.530883789041,2127
1.64952408143357E+018,13,1.64952408143357E+018,r2002313a3/base_footprint,0,1.64952408143357E+018,v/m1vw10zy74w/map,-3.03853031503,5.14243397063,0,0,0,0.00802414966294,0.999967805993,0,61.8020057678,16.9550170898,81.8667678833,86.4568252563,43.8144607544,43.8144607544,61.8020057678,61.8020057678,32.0046195984,-1.8095318079,0,0.000242547728703,4.46269750595,0.0404749512672,0.040717497468,4.88097190857,0.223528772593,-0.526466369629,-0.00612666318193,1.21073532104,0.0268901735544,8.52626419067,0.210364624858,21.83598899837,85.930358886671,45.02519607544,40.53088378907,2127
1.64952408153375E+018,14,1.64952408153375E+018,r2002313a3/base_footprint,0,1.64952408153375E+018,v/m1vw10zy74w/map,-2.80436722845,5.14458662862,0,0,0,0.00790650628829,0.999968743091,0,60.6613502502,21.8981704712,81.8667678833,83.7554321289,43.9481391907,43.9481391907,60.6613502502,60.6613502502,44.2551803589,-1.5614259243,0,6.54533359921E-05,4.46104240417,0.0425540432334,0.0424885898829,-0.149950027466,-0.00689481804147,1.03652954102,0.0122243845835,0.772109985352,0.0172653328627,-3.22741317749,-0.0786641165614,21.748220443734,84.79196166992,44.720249176052,41.02776718141,1709
1.64952408163393E+018,15,1.64952408163393E+018,r2002313a3/base_footprint,0,1.64952408163393E+018,v/m1vw10zy74w/map,-2.78809445927,5.14708432082,0,0,0,0.00829234576406,0.99996561791,0,61.0841789246,24.509803772,81.8667678833,85.0232620239,43.9433250427,43.9433250427,61.0841789246,61.0841789246,41.1564483643,-1.85530030727,0,0.000379011238692,4.46283245087,0.043980114162,0.043601103127,-2.76158332825,-0.126979738474,-0.231300354004,-0.0027278570924,0.776924133301,0.0173729825765,-0.128681182861,-0.0031364413444,21.74822044375,84.791961669896,44.720249176001,41.027767181439,1709
1.64952408173363E+018,16,1.64952408173363E+018,r2002313a3/base_footprint,0,1.64952408173363E+018,v/m1vw10zy74w/map,-2.56284581543,5.14636130063,0,0,0,0.00531613208433,0.99998586927,0,60.5471611023,23.4815883636,77.5064315796,84.1884536743,43.9335479736,43.9335479736,60.5471611023,60.5471611023,47.7118759155,-1.57243657112,0,0.000366900203517,4.46301746368,0.042506609112,0.0421397089958,-1.73926544189,-0.0799944624305,-0.50032043457,-0.00597839150578,0.540740966797,0.0121585074812,-4.85369110107,-0.113250039518,21.74232292171,83.68813323973,44.474288940397,42.85818481443,1485
1.6495240818341E+018,17,1.6495240818341E+018,r2002313a3/base_footprint,0,1.6495240818341E+018,v/m1vw10zy74w/map,-2.56284581543,5.14636130063,0,0,0,0.00531613208433,0.99998586927,0,60.4639663696,20.2722415924,73.7755432129,84.1884536743,44.0600280762,44.0600280762,60.4639663696,60.4639663696,50.5753135681,-1.56643354893,0,0.000190874794498,4.46163320541,0.0406888909638,0.0404980182648,1.47008132935,0.0676138103008,-0.50032043457,-0.00597839150578,0.414260864258,0.00931461434811,-7.71712875366,-0.180061966181,21.74232292175,83.68813323973,44.474288940458,42.85818481444,1485
1.64952408293364E+018,18,1.64952408293364E+018,r2002313a3/base_footprint,0,1.64952408293364E+018,v/m1vw10zy74w/map,-1.91843447439,5.15070913664,0,0,0,-0.000174726318823,0.999999984735,0,61.1640510559,22.8868026733,73.7755432129,87.8738327026,44.0985603333,44.0985603333,61.1640510559,61.1640510559,51.6573448181,-1.24764168262,0,0.000873842451256,2.31309723854,0.0431434251368,0.0440172664821,-1.39824485779,-0.0650692731142,-4.49122619629,-0.0538628660142,0.481784820557,0.0108071127906,-6.79512786865,-0.151466608047,21.48855781551,83.38260650631,44.580345153857,44.86221694945,1418
1.64952408303352E+018,19,1.64952408303352E+018,r2002313a3/base_footprint,0,1.64952408303352E+018,v/m1vw10zy74w/map,-1.91843447439,5.15070913664,0,0,0,-0.000174726318823,0.999999984735,0,61.562828064,22.8868026733,75.4218521118,87.8738327026,44.0971107483,44.0971107483,61.562828064,61.562828064,44.4637145996,-2.61988353729,0,0.000898826518096,2.09524440765,0.0414122603834,0.0423110872507,-1.39824485779,-0.0650692731142,-4.49122619629,-0.0538628660142,0.483234405518,0.010839628987,0.398502349854,0.00888280570507,21.48855781551,83.38260650631,44.580345153818,44.862216949454,1418
1.64952408313522E+018,20,1.64952408313522E+018,r2002313a3/base_footprint,0,1.64952408313522E+018,v/m1vw10zy74w/map,-1.91843447439,5.15070913664,0,0,0,-0.000174726318823,0.999999984735,0,60.9600143433,27.9918861389,75.4218521118,87.8738327026,44.2692947388,44.2692947388,60.9600143433,60.9600143433,57.17395401,-2.0913977623,0,0.000849057512823,1.92115843296,0.0368424095213,0.0376914665103,-6.50332832336,-0.302641451359,-4.49122619629,-0.0538628660142,0.311050415039,0.00697729922831,-12.3117370605,-0.274434447289,21.48855781554,83.38260650631,44.580345153839,44.8622169495,1418
1.64952408343422E+018,21,1.64952408343422E+018,r2002313a3/base_footprint,0,1.64952408343422E+018,v/m1vw10zy74w/map,-1.91843447439,5.15070913664,0,0,0,-0.000174726318823,0.999999984735,0,61.5482406616,20.9095401764,75.4218521118,87.8738327026,44.3079109192,44.3079109192,61.5482406616,61.5482406616,47.0029144287,-1.06138336658,0,0.000804779236205,1.83228731155,0.0344560928643,0.0352608710527,0.57901763916,0.0269453935325,-4.49122619629,-0.0538628660142,0.272434234619,0.0061110840179,-2.14069747925,-0.0477171577513,21.48855781556,83.38260650631,44.580345153819,44.86221694945,1418
1.64952408353446E+018,22,1.64952408353446E+018,r2002313a3/base_footprint,0,1.64952408353446E+018,v/m1vw10zy74w/map,-1.71336612829,5.14131294826,0,0,0,-0.00401998239963,0.999991919838,0,60.9319000244,22.8543872833,75.4218521118,85.999130249,44.3517112732,44.3517112732,60.9319000244,60.9319000244,51.8211708069,-1.26281154156,0,0.000783548923209,1.78938055038,0.0332658104599,0.0340493582189,-1.76697921753,-0.0837930962443,-2.65431976318,-0.0318474508822,0.16491317749,0.00370453018695,-7.03639221191,-0.157115712762,21.08740806577,83.34481048582,44.51662445069,44.78477859499,1421
1.6495240836345E+018,23,1.6495240836345E+018,r2002313a3/base_footprint,0,1.6495240836345E+018,v/m1vw10zy74w/map,-1.71336612829,5.14131294826,0,0,0,-0.00401998239963,0.999991919838,0,61.1059532166,24.509803772,75.4218521118,85.999130249,44.3290405273,44.3290405273,61.1059532166,61.1059532166,48.4433135986,-1.55882871151,0,0.000752014108002,1.44185602665,0.0220073163509,0.0227593313903,-3.42239570618,-0.16229569912,-2.65431976318,-0.0318474508822,0.18758392334,0.00421379506588,-3.65853500366,-0.081691481173,21.08740806582,83.34481048582,44.51662445064,44.78477859494,1421
1.64952408373392E+018,24,1.64952408373392E+018,r2002313a3/base_footprint,0,1.64952408373392E+018,v/m1vw10zy74w/map,-1.47916198189,5.14248164029,0,0,0,0.00204420733608,0.999997910606,0,61.4372558594,23.1891098022,76.2875976562,86.4396438599,44.422580719,44.422580719,61.4372558594,61.4372558594,45.0760002136,-1.55193758011,0,0.000699353811797,1.22414064407,0.0212376397103,0.021936994046,-2.37815666199,-0.114274278283,-3.1248550415,-0.0375066064298,0.0386352539062,0.000868965289555,-0.383655548096,-0.00858436804265,20.81095314021,83.3147888184,44.4612159729062,44.692344665504,1446
1.64952408383383E+018,25,1.64952408383383E+018,r2002313a3/base_footprint,0,1.64952408383383E+018,v/m1vw10zy74w/map,-1.47916198189,5.14248164029,0,0,0,0.00204420733608,0.999997910606,0,61.3709449768,17.4573059082,76.2875976562,86.4396438599,44.3545188904,44.3545188904,61.3709449768,61.3709449768,45.5345039368,-1.27865362167,0,0.00050711852964,0.831579685211,0.0178412403911,0.0183483585715,3.35364723206,0.161148175597,-3.1248550415,-0.0375066064298,0.10669708252,0.00239977869205,-0.84215927124,-0.0188434794545,20.81095314026,83.3147888184,44.46121597292,44.69234466556,1446
1.64952408393383E+018,26,1.64952408393383E+018,r2002313a3/base_footprint,0,1.64952408393383E+018,v/m1vw10zy74w/map,-1.25469832158,5.14285350697,0,0,0,0.00713575756887,0.999974540158,0,61.0333595276,20,76.2875976562,84.8357009888,44.4774665833,44.4774665833,61.0333595276,61.0333595276,47.164680481,-0.69167727232,0,0.000697104667779,0.525890409946,0.00965938717127,0.0103564923629,0.504528045654,0.0246056895703,-1.4610748291,-0.0175242144614,-0.0774154663086,-0.0017435895279,-2.03755950928,-0.0451515503228,20.504528045654,83.3746261597,44.4000511169914,45.12712097172,1463
1.649524084034E+018,27,1.649524084034E+018,r2002313a3/base_footprint,0,1.649524084034E+018,v/m1vw10zy74w/map,-1.25469832158,5.14285350697,0,0,0,0.00713575756887,0.999974540158,0,60.8714370728,18.4060726166,77.8130187988,84.8357009888,44.3724594116,44.3724594116,60.8714370728,60.8714370728,48.9452323914,-1.01998245716,0,0.000863109074999,0.438650876284,0.00857852678746,0.00944163650274,2.09845542908,0.102341070771,-1.4610748291,-0.0175242144614,0.0275917053223,0.000621434068307,-3.81811141968,-0.0846079140902,20.50452804568,83.3746261597,44.4000511169223,45.12712097172,1463
1.64952408413408E+018,28,1.64952408413408E+018,r2002313a3/base_footprint,0,1.64952408413408E+018,v/m1vw10zy74w/map,-1.25469832158,5.14285350697,0,0,0,0.00713575756887,0.999974540158,0,60.9059906006,24.0986709595,77.8130187988,84.8357009888,44.4029579163,44.4029579163,60.9059906006,60.9059906006,48.652633667,-0.290565222502,0,0.000936716387514,0.26391556859,0.00684466026723,0.00778137659654,-3.59414291382,-0.175285324454,-1.4610748291,-0.0175242144614,-0.00290679931641,-6.54683753964E-05,-3.52551269531,-0.0781240314245,20.50452804568,83.3746261597,44.4000511169836,45.12712097169,1463
1.64952408423529E+018,29,1.64952408423529E+018,r2002313a3/base_footprint,0,1.6495240842353E+018,v/m1vw10zy74w/map,-1.0333838625,5.15253628016,0,0,0,0.00465738081834,0.999989154343,0,60.1442756653,16.7862262726,77.8130187988,83.7511444092,44.3602218628,44.3602218628,60.1442756653,60.1442756653,57.9975318909,-2.08096218109,0,0.00071744347224,0.0896083936095,0.00562705891207,0.0063445023261,5.32607841492,0.240864917636,2.00164031982,0.0233419854194,0.106163024902,0.00238748942502,-12.6799964905,-0.279803305864,22.11230468752,85.75278472902,44.466384887702,45.3175354004,1998
1.64952408433395E+018,30,1.64952408433395E+018,r2002313a3/base_footprint,0,1.64952408433395E+018,v/m1vw10zy74w/map,-1.0333838625,5.15253628016,0,0,0,0.00465738081834,0.999989154343,0,60.6529426575,23.4815883636,77.413848877,83.7511444092,44.3355827332,44.3355827332,60.6529426575,60.6529426575,48.5754203796,-2.0652050972,0,0.000422445766162,0.0858499631286,0.00401136605069,0.00443381164223,-1.36928367615,-0.061924058944,2.00164031982,0.0233419854194,0.130802154541,0.00294159632176,-3.25788497925,-0.0718901604414,22.11230468745,85.75278472902,44.466384887741,45.31753540035,1998
1.64952408443376E+018,31,1.64952408443376E+018,r2002313a3/base_footprint,0,1.64952408443376E+018,v/m1vw10zy74w/map,-1.0333838625,5.15253628016,0,0,0,0.00465738081834,0.999989154343,0,60.7846794128,27.2183456421,77.413848877,83.7511444092,44.5588035583,44.5588035583,60.7846794128,60.7846794128,48.6149368286,-0.835933983326,0,0.000313115044264,0.162673935294,0.00160732225049,0.00192043720745,-5.10604095459,-0.230914011598,2.00164031982,0.0233419854194,-0.0924186706543,-0.00207839417271,-3.29740142822,-0.0727621540427,22.11230468751,85.75278472902,44.4663848876457,45.31753540038,1998
1.64952408453409E+018,32,1.64952408453409E+018,r2002313a3/base_footprint,0,1.64952408453409E+018,v/m1vw10zy74w/map,-0.801788750219,5.15451025255,0,0,0,0.00203058040007,0.999997938369,0,61.1739692688,25.490196228,78.6807556152,84.2918701172,44.6187553406,44.6187553406,61.1739692688,61.1739692688,44.2018203735,-1.17736232281,0,0.000149365092511,0.0731446892023,0.00145043153316,0.0013010664843,-1.82382202148,-0.0770638510585,2.84886932373,0.0326927378774,0.305328369141,0.00679654069245,-0.0344123840332,-0.000779135269113,23.66637420652,87.14073944093,44.924083709741,44.1674079894668,2660
1.64952408463358E+018,33,1.64952408463358E+018,r2002313a3/base_footprint,0,1.64952408463358E+018,v/m1vw10zy74w/map,-0.801788750219,5.15451025255,0,0,0,0.00203058040007,0.999997938369,0,60.9033432007,21.5686283112,78.6807556152,84.2918701172,44.6535491943,44.6535491943,60.9033432007,60.9033432007,49.4488983154,-0.981545567513,0,0.000144798643305,0.0294577050954,0.00630925269797,0.00645405100659,2.09774589539,0.0886382460594,2.84886932373,0.0326927378774,0.270534515381,0.00602203747258,-5.28149032593,-0.119578905404,23.66637420659,87.14073944093,44.924083709681,44.16740798947,2660
1.64952408473378E+018,34,1.64952408473378E+018,r2002313a3/base_footprint,0,1.64952408473378E+018,v/m1vw10zy74w/map,-0.582362722617,5.15909998248,0,0,0,-0.000189215305852,0.999999982099,0,61.3655166626,26.3510284424,78.6807556152,85.1312713623,44.6451034546,44.6451034546,61.3655166626,61.3655166626,44.0603713989,-1.63261187077,0,0.000294631143333,0.103205025196,0.0191836282611,0.0194782596081,-2.32704734802,-0.0968635156751,2.65926361084,0.030291005969,0.356861114502,0.00792990066111,-0.0475006103516,-0.00107924360782,24.02398109438,87.79053497314,45.001964569102,44.0128707885484,3095
1.64952408483376E+018,35,1.64952408483376E+018,r2002313a3/base_footprint,0,1.64952408483376E+018,v/m1vw10zy74w/map,-0.582362722617,5.15909998248,0,0,0,-0.000189215305852,0.999999982099,0,61.3695716858,20.6121463776,78.2339324951,85.1312713623,44.7594528198,44.7594528198,61.3695716858,61.3695716858,45.2223472595,-1.3468722105,0,0.000257027946645,0.13666062057,0.0195328947157,0.0197899211198,3.4118347168,0.142017871141,2.65926361084,0.030291005969,0.242511749268,0.00538891460747,-1.20947647095,-0.02748006396,24.0239810944,87.79053497314,45.001964569068,44.01287078855,3095
1.64952408493427E+018,36,1.64952408493427E+018,r2002313a3/base_footprint,0,1.64952408493427E+018,v/m1vw10zy74w/map,-0.338406804408,5.16188643218,0,0,0,0.00163933843498,0.999998656284,0,61.1270523071,21.5686283112,78.2339324951,83.9235305786,44.6282234192,44.6282234192,61.1270523071,61.1270523071,43.8225631714,-0.635861515999,0,1.19902242659E-05,0.140658482909,0.0185806248337,0.0185926146805,2.03549194336,0.0862346068025,3.83950042725,0.0437484942377,0.194995880127,0.00435033207759,0.387722015381,0.00876995082945,23.60412025456,87.76303100585,44.823219299327,44.210285186781,2896
1.64952408503476E+018,37,1.64952408503476E+018,r2002313a3/base_footprint,0,1.64952408503476E+018,v/m1vw10zy74w/map,-0.338406804408,5.16188643218,0,0,0,0.00163933843498,0.999998656284,0,61.0231781006,21.2362918854,77.2458724976,83.9235305786,44.6103172302,44.6103172302,61.0231781006,61.0231781006,45.4989318848,-0.61760276556,0,0.000338068697602,0.143219083548,0.0171935707331,0.017531638965,2.36782836914,0.100314199924,3.83950042725,0.0437484942377,0.212902069092,0.00474981637672,-1.288646698,-0.0291481204331,23.60412025454,87.76303100585,44.823219299292,44.2102851868,2896
1.64952408513406E+018,38,1.64952408513406E+018,r2002313a3/base_footprint,0,1.64952408513406E+018,v/m1vw10zy74w/map,-0.110134281083,5.17013769059,0,0,0,0.000488277216804,0.999999880793,0,60.9626960754,17.4573059082,77.2458724976,83.2799377441,44.5275115967,44.5275115967,60.9626960754,60.9626960754,43.3763618469,-0.0373606719077,0,0.000164574579685,0.144532099366,0.0175477806479,0.01771235466,4.78236198425,0.215037479997,4.12702178955,0.0472161695361,-0.063045501709,-0.0014178850688,0.769474029541,0.017430273816,22.23966789245,87.40695953365,44.464466094991,44.145835876441,2601
1.64952408703384E+018,39,1.64952408703384E+018,r2002313a3/base_footprint,0,1.64952408703384E+018,v/m1vw10zy74w/map,0.337554326445,5.17945360108,0,0,0,-0.00642135871549,0.999979382864,0,60.6716041565,21.2445316315,77.1229248047,83.8385162354,44.5102958679,44.5102958679,60.6716041565,60.6716041565,50.4410171509,-0.782033741474,0,0.000504631199874,0.191170275211,0.000849921721965,0.000345290522091,-2.05035018921,-0.106821447611,0.77465057373,0.00915520172566,-1.0206451416,-0.023468689993,-5.53239059448,-0.123192153871,19.19418144229,84.61316680913,43.4896507263,44.90862655642,1740
1.64952408713373E+018,40,1.64952408713373E+018,r2002313a3/base_footprint,0,1.64952408713373E+018,v/m1vw10zy74w/map,0.337554326445,5.17945360108,0,0,0,-0.00642135871549,0.999979382864,0,61.0180549622,15.966386795,77.760383606,83.8385162354,44.3180923462,44.3180923462,61.0180549622,61.0180549622,42.1290664673,-0.702223360538,0,0.000260998116573,0.191595852375,0.00201787753031,0.00227887555957,3.22779464722,0.168165266514,0.77465057373,0.00915520172566,-0.828441619873,-0.0190491676331,2.77956008911,0.0618936792016,19.19418144222,84.61316680913,43.489650726327,44.90862655641,1740
1.64952408723377E+018,41,1.64952408723377E+018,r2002313a3/base_footprint,0,1.64952408723377E+018,v/m1vw10zy74w/map,0.337554326445,5.17945360108,0,0,0,-0.00642135871549,0.999979382864,0,61.003742218,18.9322795868,77.3374176025,83.8385162354,44.0829200745,44.0829200745,61.003742218,61.003742218,39.8468742371,-0.645210802555,0,0.000179734503035,0.191390156746,0.00407357513905,0.00425330968574,0.261901855469,0.0136448564008,0.77465057373,0.00915520172566,-0.593269348145,-0.0136416209862,5.06175231934,0.11271224916,19.194181442269,84.61316680913,43.489650726355,44.90862655644,1740
1.6495240873339E+018,42,1.6495240873339E+018,r2002313a3/base_footprint,0,1.6495240873339E+018,v/m1vw10zy74w/map,0.540867373629,5.17173453847,0,0,0,-0.0180974194603,0.999836228294,0,60.2575187683,21.8981704712,77.3374176025,83.5823287964,43.9410171509,43.9410171509,60.2575187683,60.2575187683,50.8239974976,-1.8163715601,0,0.000263975438429,0.187706798315,0.00423839176074,0.00450236722827,-2.14338302612,-0.108499422669,2.31468963623,0.0269472636282,-0.738170623779,-0.0170861575752,-6.28223800659,-0.141041532159,19.75478744508,85.89701843263,43.202846527121,44.54175949101,2230
1.6495240874345E+018,43,1.6495240874345E+018,r2002313a3/base_footprint,0,1.6495240874345E+018,v/m1vw10zy74w/map,0.540867373629,5.17173453847,0,0,0,-0.0180974194603,0.999836228294,0,61.0211143494,19.9209098816,77.3374176025,83.5823287964,43.6662406921,43.6662406921,61.0211143494,61.0211143494,34.1117210388,-0.453461915255,0,0.000410403008573,0.185726851225,0.014840147458,0.014429744333,-0.166122436523,-0.00840922445059,2.31468963623,0.0269472636282,-0.463394165039,-0.0107260104269,10.4300384521,0.234163150191,19.754787445077,85.89701843263,43.202846527061,44.5417594909,2230
1.64952408753384E+018,44,1.64952408753384E+018,r2002313a3/base_footprint,0,1.64952408753384E+018,v/m1vw10zy74w/map,0.775253313674,5.15507389532,0,0,0,-0.025755159565,0.999668280859,0,60.7540969849,14.7058820724,77.1993179321,82.4191055298,43.3712844849,43.3712844849,60.7540969849,60.7540969849,31.544921875,0.199414536357,0,0.00139427976683,0.186381682754,0.0285109151155,0.0271166358143,5.30994319916,0.26528725028,3.93783569336,0.045599527657,-0.235969543457,-0.00547044910491,12.8199310303,0.288965940475,20.01582527156,86.35694122316,43.135314941443,44.3648529053,2443
1.64952408763504E+018,45,1.64952408763504E+018,r2002313a3/base_footprint,0,1.64952408763504E+018,v/m1vw10zy74w/map,0.775253313674,5.15507389532,0,0,0,-0.025755159565,0.999668280859,0,59.9880638123,13.9891252518,77.1993179321,82.4191055298,43.0635681152,43.0635681152,59.9880638123,59.9880638123,42.0101470947,0.485699683428,0,0.00141750811599,0.186438709497,0.0270032715052,0.0255857631564,6.02670001984,0.301096767187,3.93783569336,0.045599527657,0.0717468261719,0.00166329671629,2.35470581055,0.053075928241,20.01582527164,86.35694122316,43.1353149413719,44.36485290525,2443
1.64952408773454E+018,46,1.64952408773454E+018,r2002313a3/base_footprint,0,1.64952408773454E+018,v/m1vw10zy74w/map,1.0029937501,5.13404792855,0,0,0,-0.0597498549146,0.998213381416,0,60.2677574158,11.764705658,76.6851119995,83.712348938,42.7588768005,42.7588768005,60.2677574158,60.2677574158,38.3407211304,-1.00391435623,0,0.00144283706322,0.183937445283,0.0478459373116,0.0464031025767,7.98244285583,0.404232680798,2.60491943359,0.0301784276962,0.249561309814,0.00580261275172,6.0302772522,0.135905832052,19.74714851383,86.31726837159,43.008438110314,44.3709983826,2257
1.64952408783376E+018,47,1.64952408783376E+018,r2002313a3/base_footprint,0,1.64952408783376E+018,v/m1vw10zy74w/map,1.21549349699,5.09747376607,0,0,0,-0.101704380684,0.994814665629,0,58.6993560791,17.9436473846,76.6851119995,80.000869751,42.5922317505,42.5922317505,58.6993560791,58.6993560791,51.4108085632,-0.973260045052,0,0.00196979707107,0.169717654586,0.0629795566201,0.0610097572207,1.02685165405,0.054128870368,6.69724273682,0.0772478505969,0.274620056152,0.0064063500613,-7.18257522583,-0.162397965789,18.97049903865,86.69811248782,42.866851806652,44.22823333737,2068
1.64952408793387E+018,48,1.64952408793387E+018,r2002313a3/base_footprint,0,1.64952408793387E+018,v/m1vw10zy74w/map,1.23804402496,5.09696238118,0,0,0,-0.106523476802,0.994310187462,0,59.8368873596,16.9550170898,76.6851119995,84.4238204956,42.3498153687,42.3498153687,59.8368873596,59.8368873596,44.2397842407,0.869232654572,0,0.0046687759459,0.0883141011,0.0676534697413,0.0629846975207,2.01548194885,0.106242962182,2.27429199219,0.0262323133647,0.517036437988,0.0120614515617,-0.0115509033203,-0.000261165841948,18.97049903865,86.69811248779,42.866851806688,44.2282333373797,2068
1.64952408803463E+018,49,1.64952408803463E+018,r2002313a3/base_footprint,0,1.64952408803463E+018,v/m1vw10zy74w/map,1.3985086854,5.04950522939,0,0,0,-0.16803628533,0.985780810734,0,59.9587249756,14.8732662201,76.6851119995,84.6253356934,42.0758094788,42.0758094788,59.9587249756,59.9587249756,39.812877655,-2.30874228477,0,0.00513188820332,0.143631532788,0.0959425643086,0.0908106788993,2.67421150208,0.152398630977,1.52602386475,0.0177132878453,0.639652252197,0.0149747245014,4.46443939209,0.100829042494,17.54747772218,86.15135955815,42.715461730997,44.27731704709,1700
1.64952408813425E+018,50,1.64952408813425E+018,r2002313a3/base_footprint,0,1.64952408813425E+018,v/m1vw10zy74w/map,1.5377880489,4.98581923102,0,0,0,-0.232779152993,0.972529622136,0,59.9819755554,10.5882349014,75.8994293213,87.0402908325,41.7634277344,41.7634277344,59.9819755554,59.9819755554,44.7145309448,-1.77192509174,0,0.00601268652827,0.146363854408,0.111743487418,0.105730801821,5.52888011932,0.343044042587,-0.503105163574,-0.00581374531612,0.918701171875,0.0215242579579,-0.243495941162,-0.00547538278624,16.11711502072,86.537185668926,42.682128906275,44.471035003638,1568
1.64952408823419E+018,51,1.64952408823419E+018,r2002313a3/base_footprint,0,1.64952408823419E+018,v/m1vw10zy74w/map,1.65376647128,4.9197310268,0,0,0,-0.296055145197,0.955170849117,0,59.2210617065,5.51181125641,75.8994293213,86.6674041748,41.235118866,41.235118866,59.2210617065,59.2210617065,51.3628578186,-2.00996518135,0,0.00683997897431,0.146874323487,0.116545267403,0.109705291688,9.84605789185,0.641108334064,0.310386657715,0.00356857362203,1.30744934082,0.0307327322662,-6.6231842041,-0.14803828299,15.35786914826,86.977790832515,42.54256820682,44.7396736145,1542
1.64952408833381E+018,52,1.64952408833381E+018,r2002313a3/base_footprint,0,1.64952408833381E+018,v/m1vw10zy74w/map,1.76161576419,4.83293894655,0,0,0,-0.366043579762,0.930597709924,0,59.4023170471,7.9696393013,75.8994293213,86.8400192261,40.9261207581,40.9261207581,59.4023170471,59.4023170471,45.384475708,-2.5769841671,0,0.00704647693783,0.147330358624,0.110913313925,0.103866837919,6.76520967484,0.45912989974,0.92440032959,0.0105327460915,1.44198989868,0.0340347923338,-0.318851470947,-0.00707527017221,14.73484897614,87.76441955569,42.36811065678,45.065624237053,1634
1.64952408843429E+018,53,1.64952408843429E+018,r2002313a3/base_footprint,0,1.64952408843429E+018,v/m1vw10zy74w/map,1.85128331238,4.7545383593,0,0,0,-0.417448435091,0.908700612985,0,58.7276649475,7.63247442245,77.238822937,86.4611740112,40.7194595337,40.7194595337,58.7276649475,58.7276649475,53.9324188232,-1.10143101215,0,0.00693911546841,0.147794619203,0.107619151473,0.100680038333,7.05545663834,0.480357408524,1.8695526123,0.0211653709412,1.49795913696,0.0354820154607,-8.86856460571,-0.196799963713,14.68793106079,88.3307266235,42.21741867066,45.06385421749,1655
1.64952408853387E+018,54,1.64952408853387E+018,r2002313a3/base_footprint,0,1.64952408853387E+018,v/m1vw10zy74w/map,1.94323624389,4.6251430042,0,0,0,-0.488892253802,0.872344177589,0,59.1910934448,9.27218341827,76.0678329468,89.3932952881,40.4848022461,40.4848022461,59.1910934448,59.1910934448,53.6120300293,-1.23411273956,0,0.00696990033612,0.148515924811,0.109369397163,0.102399498224,5.95748329163,0.391176223755,-0.629203796387,-0.00708849495277,1.58666610718,0.0377135910094,-8.8353843689,-0.197321265936,15.2296667099,88.764091491713,42.07146835328,44.7766456604,1750
1.64952408863414E+018,55,1.64952408863414E+018,r2002313a3/base_footprint,0,1.64952408863414E+018,v/m1vw10zy74w/map,1.94323624389,4.6251430042,0,0,0,-0.488892253802,0.872344177589,0,59.3960533142,5.6795129776,76.0678329468,89.3932952881,40.222530365,40.222530365,59.3960533142,59.3960533142,47.0902175903,-1.26401531696,0,0.00689365481958,0.151010856032,0.107818543911,0.100924894214,9.5501537323,0.62707567215,-0.629203796387,-0.00708849495277,1.84893798828,0.0439475513995,-2.31357192993,-0.0516691654921,15.2296667099,88.764091491713,42.07146835328,44.77664566037,1750
1.64952408873379E+018,56,1.64952408873379E+018,r2002313a3/base_footprint,0,1.6495240887338E+018,v/m1vw10zy74w/map,2.01010957654,4.49515945944,0,0,0,-0.547134811323,0.837044501946,0,59.424571991,7.92838859558,75.9043045044,90.318572998,40.0707130432,40.0707130432,59.424571991,59.424571991,48.2682952881,-1.34500527382,0,0.00583279365674,0.158810198307,0.107929974794,0.102097183466,7.76332187653,0.494740307331,-1.47476959229,-0.0165995769203,1.92080307007,0.0457426458597,-3.67394256592,-0.0823858231306,15.69171047211,88.84380340571,41.99151611327,44.59435272218,1765
1.64952408883355E+018,57,1.64952408883355E+018,r2002313a3/base_footprint,0,1.64952408883355E+018,v/m1vw10zy74w/map,2.06501883943,4.33469901266,0,0,0,-0.603158510607,0.797621345679,0,59.8534011841,18.3889770508,73.837310791,89.8954391479,39.9978752136,39.9978752136,59.8534011841,59.8534011841,38.2394447327,0.449251145124,0,0.00512858945876,0.172746270895,0.108110830188,0.102982237935,-0.998773574829,-0.0574331171811,-1.36557769775,-0.0154250515625,1.97470855713,0.0470475815237,5.7696762085,0.131101831794,17.390203475971,88.52986145015,41.97258377073,44.0091209412,1806
1.64952408893421E+018,58,1.64952408893421E+018,r2002313a3/base_footprint,0,1.64952408893421E+018,v/m1vw10zy74w/map,2.11240177708,4.14850810002,0,0,0,-0.652343975631,0.75792304191,0,59.2659378052,21.2184867859,71.3302764893,87.4003448486,40.2900505066,40.2900505066,59.2659378052,59.2659378052,42.9868888855,2.68466567993,0,0.00460779573768,0.187790557742,0.105019420385,0.100411623716,-2.19948959351,-0.115646980703,0.652931213379,0.00741518381983,1.72511291504,0.0410592928529,0.319599151611,0.00737993698567,19.01899719239,88.053276061979,42.01516342164,43.306488037111,1786
1.64952408903475E+018,59,1.64952408903475E+018,r2002313a3/base_footprint,0,1.64952408903475E+018,v/m1vw10zy74w/map,2.11240177708,4.14850810002,0,0,0,-0.652343975631,0.75792304191,0,59.7118835449,24.8366012573,71.3302764893,87.4003448486,40.5045661926,40.5045661926,59.7118835449,59.7118835449,37.276638031,2.87551760674,0,0.00401864014566,0.201609566808,0.102274276316,0.0982556417584,-5.81760406494,-0.305883854628,0.652931213379,0.00741518381983,1.510597229,0.0359536185861,6.0298500061,0.13923664391,19.01899719236,88.053276061979,42.0151634216,43.3064880371,1786
1.64952408913388E+018,60,1.64952408913388E+018,r2002313a3/base_footprint,0,1.64952408913388E+018,v/m1vw10zy74w/map,2.11240177708,4.14850810002,0,0,0,-0.652343975631,0.75792304191,0,59.8070106506,20.47930336,70.9648132324,87.4003448486,40.6281814575,40.6281814575,59.8070106506,59.8070106506,36.8994102478,2.81710410118,0,0.0034847704228,0.212272316217,0.0973205566406,0.093835785985,-1.4603061676,-0.0767814517021,0.652931213379,0.00741518381983,1.38698196411,0.0330114625394,6.40707778931,0.1479472965,19.0189971924,88.053276061979,42.01516342161,43.30648803711,1786
1.64952408933365E+018,61,1.64952408933365E+018,r2002313a3/base_footprint,0,1.64952408933365E+018,v/m1vw10zy74w/map,2.11240177708,4.14850810002,0,0,0,-0.652343975631,0.75792304191,0,59.8531951904,23.7472763062,70.9648132324,87.4003448486,40.7514762878,40.7514762878,59.8531951904,59.8531951904,37.3996772766,2.85601258278,0,0.0031752337236,0.217030882835,0.0956852436066,0.0925100073218,-4.72827911377,-0.248608216643,0.652931213379,0.00741518381983,1.26368713379,0.0300769302994,5.9068107605,0.136395514011,19.01899719243,88.053276061979,42.01516342159,43.3064880371,1786
1.64952408943364E+018,62,1.64952408943364E+018,r2002313a3/base_footprint,0,1.64952408943364E+018,v/m1vw10zy74w/map,2.13597269655,3.91834441417,0,0,0,-0.687845236731,0.725857376009,0,59.8679542542,21.5686283112,70.9648132324,87.2850723267,40.9892921448,40.9892921448,59.8679542542,59.8679542542,39.2874679565,2.6056034565,0,0.00245669553988,0.233033969998,0.0909352526069,0.0884785577655,0.2913646698,0.0133286714554,-0.656814575195,-0.00758198974654,1.27565765381,0.0301824007183,2.36262893677,0.0567256510258,21.859992981,86.628257751505,42.26494979861,41.65009689327,1678
1.649524089734E+018,63,1.649524089734E+018,r2002313a3/base_footprint,0,1.649524089734E+018,v/m1vw10zy74w/map,2.14133429251,3.68555177634,0,0,0,-0.701138891477,0.713024722473,0,59.9906768799,27.0152511597,72.3718643188,85.4764328003,41.3320274353,41.3320274353,59.9906768799,59.9906768799,34.2689056396,2.78719472885,0,0.00112613814417,0.281160593033,0.0740476027131,0.072921462357,-3.64537239075,-0.155985936522,-0.359069824219,-0.00421852618456,1.19199371338,0.0280310679227,6.14122009277,0.151972308755,23.36987876895,85.117362976081,42.52402114868,40.41012573237,1630
1.64952408983469E+018,64,1.64952408983469E+018,r2002313a3/base_footprint,0,1.64952408983469E+018,v/m1vw10zy74w/map,2.14399596677,3.48317822653,0,0,0,-0.696474358184,0.717581680642,0,59.4871330261,25.5261745453,72.3718643188,82.0195846558,41.5639610291,41.5639610291,59.4871330261,59.4871330261,33.3928794861,2.86566567421,0,0.000172924497747,0.341885060072,0.0425764061511,0.0427493304014,-1.67195892334,-0.0700907111168,2.17999267578,0.0258907787502,1.14716339111,0.0268586557359,6.38998794556,0.160621598363,23.85421562196,84.19957733158,42.71112442021,39.78286743166,1616
1.64952408993383E+018,65,1.64952408993383E+018,r2002313a3/base_footprint,0,1.64952408993383E+018,v/m1vw10zy74w/map,2.14404313391,3.44932473462,0,0,0,-0.693456631932,0.720498368929,0,59.8856430054,28.5321598053,72.3718643188,83.4749450684,41.8701820374,41.8701820374,59.8856430054,59.8856430054,34.7661972046,2.62703180313,0,0.00126001646277,0.394704252481,0.026823123917,0.0280831400305,-4.67794418335,-0.1961055547,0.724632263184,0.00860612746328,0.840942382812,0.0196890719235,5.01667022705,0.126101270318,23.85421562195,84.199577331584,42.711124420212,39.78286743165,1616
1.64952409003414E+018,66,1.64952409003414E+018,r2002313a3/base_footprint,0,1.64952409003414E+018,v/m1vw10zy74w/map,2.15355765895,3.21044951344,0,0,0,-0.677811929949,0.735235328054,0,60.0657043457,21.5686283112,70.0668869019,81.1607894897,42.0543365479,42.0543365479,60.0657043457,60.0657043457,25.1829776764,-3.04016780853,0,0.0014661088353,0.467427641153,0.013138611801,0.0146047212183,2.77041244507,0.11382586509,2.14227294922,0.0257166177034,0.888530731201,0.0206909961998,13.8176822662,0.354293555021,24.33904075627,83.30306243892,42.942867279101,39.0006599426,1537
1.64952409013363E+018,67,1.64952409013363E+018,r2002313a3/base_footprint,0,1.64952409013363E+018,v/m1vw10zy74w/map,2.17760229532,2.99384435837,0,0,0,-0.663035213643,0.748588208209,0,59.5047950745,26.2032089233,70.0668869019,80.4451522827,42.3298110962,42.3298110962,59.5047950745,59.5047950745,35.6781997681,-3.10688591003,0,0.00197366205975,0.606072545052,0.0295642521232,0.0275905914605,-1.04048919678,-0.041350428015,1.54429626465,0.018835304305,0.769569396973,0.0178556945175,2.22914123535,0.058805000037,25.16271972652,81.98944854735,43.099380493173,37.90734100345,1371
1.64952409023389E+018,68,1.64952409023389E+018,r2002313a3/base_footprint,0,1.64952409023389E+018,v/m1vw10zy74w/map,2.2103914293,2.75990300556,0,0,0,-0.650610671003,0.759411452888,0,59.7365875244,25.6965942383,70.4440307617,80.4735488892,42.4863052368,42.4863052368,59.7365875244,59.7365875244,33.298286438,-2.87760543823,0,0.00351247633807,0.701509654522,0.0762461647391,0.0727336853743,2.64496994019,0.0933247730136,-1.43534851074,-0.018160186708,1.06493377686,0.0244524329901,1.28561401367,0.0371737703681,28.34156417849,79.03820037846,43.55123901366,34.58390045167,953
1.64952409033417E+018,69,1.64952409033417E+018,r2002313a3/base_footprint,0,1.64952409033417E+018,v/m1vw10zy74w/map,2.25050288408,2.53937182746,0,0,0,-0.639266153058,0.768985556141,0,61.1274185181,24.3697471619,70.4440307617,83.3481445312,42.6653518677,42.6653518677,61.1274185181,61.1274185181,20.5455684662,-2.98229932785,0,0.00449234014377,0.788997113705,0.106813631952,0.10232128948,4.7158164978,0.162135988474,-5.01371765137,-0.0640040114522,1.14212417603,0.0260714441538,13.8137073517,0.402037203312,29.0855636597,78.33442687983,43.80747604373,34.3592758179,967
1.64952409043373E+018,70,1.64952409043373E+018,r2002313a3/base_footprint,0,1.64952409043373E+018,v/m1vw10zy74w/map,2.25050288408,2.53937182746,0,0,0,-0.639266153058,0.768985556141,0,60.8151931763,26.080165863,67.8929290771,83.3481445312,42.9430656433,42.9430656433,60.8151931763,60.8151931763,29.1649227142,-3.03068137169,0,0.00472320755944,0.863501548767,0.136469662189,0.131746456027,3.00539779663,0.103329539299,-5.01371765137,-0.0640040114522,0.864410400391,0.0197320301086,5.19435310364,0.151177600026,29.08556365963,78.33442687983,43.807476043691,34.35927581784,967
1.64952409053428E+018,71,1.64952409053428E+018,r2002313a3/base_footprint,0,1.64952409053428E+018,v/m1vw10zy74w/map,2.29850517785,2.31935309814,0,0,0,-0.61498026666,0.788542498296,0,61.1680107117,21.5686283112,67.8929290771,84.7980575562,43.031665802,43.031665802,61.1680107117,61.1680107117,28.9907798767,-3.12997865677,0,0.00552986143157,0.940913081169,0.178934380412,0.17340451479,8.33438682556,0.278713941574,-6.73388671875,-0.0862609148026,1.13301849365,0.0256543997675,5.51056289673,0.159720242023,29.90301513676,78.06417083745,44.16468429565,34.50134277343,998
1.64952409063474E+018,72,1.64952409063474E+018,r2002313a3/base_footprint,0,1.64952409063474E+018,v/m1vw10zy74w/map,2.29850517785,2.31935309814,0,0,0,-0.61498026666,0.788542498296,0,61.1038742065,27.5210075378,64.1259155273,84.7980575562,43.2999267578,43.2999267578,61.1038742065,61.1038742065,33.0424957275,3.10923624039,0,0.00670376140624,1.02278864384,0.209273815155,0.202570050955,2.38200759888,0.0796577706933,-6.73388671875,-0.0862609148026,0.864757537842,0.0195802953094,1.4588470459,0.0422837771475,29.90301513668,78.06417083745,44.164684295642,34.5013427734,998
1.64952409073351E+018,73,1.64952409073351E+018,r2002313a3/base_footprint,0,1.64952409073351E+018,v/m1vw10zy74w/map,2.36169575628,2.09652954836,0,0,0,-0.593973459782,0.804484635698,0,60.5226020813,23.9979171753,64.1259155273,81.8850402832,43.6150665283,43.6150665283,60.5226020813,60.5226020813,36.4220123291,2.78609323502,0,0.00731604360044,1.08610808849,0.225372344255,0.218056306243,6.55472946167,0.21453884244,-3.79046630859,-0.0485368706286,0.90355682373,0.0202961545438,-2.08888626099,-0.0608417131007,30.55264663697,78.09457397461,44.51862335203,34.33312606811,994
1.6495240908356E+018,74,1.6495240908356E+018,r2002313a3/base_footprint,0,1.64952409083561E+018,v/m1vw10zy74w/map,2.36169575628,2.09652954836,0,0,0,-0.593973459782,0.804484635698,0,61.030002594,22.5741577148,61.5201339722,81.8850402832,43.841594696,43.841594696,61.030002594,61.030002594,29.7353286743,2.7129638195,0,0.00743929482996,1.17478609085,0.238241225481,0.230801939964,7.97848892212,0.261139035225,-3.79046630859,-0.0485368706286,0.677028656006,0.01520776283,4.5977973938,0.133917242289,30.55264663692,78.09457397461,44.518623352006,34.3331260681,994
1.64952409093375E+018,75,1.64952409093375E+018,r2002313a3/base_footprint,0,1.64952409093375E+018,v/m1vw10zy74w/map,2.43042658431,1.87681597855,0,0,0,-0.574266401448,0.818668492229,0,61.5195617676,28.6403083801,61.2966804504,83.686958313,44.1402206421,44.1402206421,61.5195617676,61.5195617676,30.6353111267,2.95803332329,0,0.0073458510451,1.26729249954,0.249473944306,0.24212808907,2.65419387817,0.0848134234548,-5.23474884033,-0.0667253211141,0.818626403809,0.0182083491236,3.58275604248,0.104703634977,31.29450225827,78.45220947267,44.958847045909,34.21806716918,934
1.64952409103358E+018,76,1.64952409103358E+018,r2002313a3/base_footprint,0,1.64952409103358E+018,v/m1vw10zy74w/map,2.43042658431,1.87681597855,0,0,0,-0.574266401448,0.818668492229,0,61.4472389221,35.2941169739,61.2966804504,83.686958313,44.4911994934,44.4911994934,61.4472389221,61.4472389221,35.727722168,-2.58824157715,0,0.00701445294544,1.35866236687,0.266776412725,0.259761959314,-3.99961471558,-0.127805665135,-5.23474884033,-0.0667253211141,0.46764755249,0.0104016801342,-1.50965499878,-0.0441186502576,31.29450225832,78.45220947267,44.95884704589,34.21806716922,934
1.64952409113381E+018,77,1.64952409113381E+018,r2002313a3/base_footprint,0,1.64952409113381E+018,v/m1vw10zy74w/map,2.52887744854,1.61420586409,0,0,0,-0.55609302332,0.831120057161,0,62.0875511169,37.319190979,61.2966804504,84.4370727539,44.7756843567,44.7756843567,62.0875511169,62.0875511169,29.9749584198,-2.80450367928,0,0.00650285137817,1.4374871254,0.280285298824,0.273782432079,-5.43143081665,-0.170329645276,-5.48841094971,-0.0695187300444,0.641216278076,0.0141184506938,4.14229011536,0.121413372457,31.88776016235,78.94866180419,45.416900634776,34.11724853516,843
1.64952409123432E+018,78,1.64952409123432E+018,r2002313a3/base_footprint,0,1.64952409123432E+018,v/m1vw10zy74w/map,2.52887744854,1.61420586409,0,0,0,-0.55609302332,0.831120057161,0,62.4392585754,31.9397182465,61.9617004395,84.4370727539,45.0865478516,45.0865478516,62.4392585754,62.4392585754,27.0014953613,-3.13284254074,0,0.00550791574642,1.50342381001,0.309356838465,0.303848922253,-0.0519580841064,-0.00162940530572,-5.48841094971,-0.0695187300444,0.330352783203,0.00727378530428,7.11575317383,0.208567619324,31.8877601623936,78.94866180419,45.416900634803,34.11724853513,843
1.64952409133469E+018,79,1.64952409133469E+018,r2002313a3/base_footprint,0,1.64952409133469E+018,v/m1vw10zy74w/map,2.64309648681,1.34975364756,0,0,0,-0.539966498168,0.841686509846,0,61.9774246216,38.2835083008,61.9617004395,81.7490463257,45.3262519836,45.3262519836,61.9774246216,61.9774246216,28.2264099121,-2.85899949074,0,0.0051927655004,1.51782608032,0.322974920273,0.31778216362,-6.29602241516,-0.196827679873,-1.99809265137,-0.025054153055,0.528217315674,0.0115194292739,5.31466293335,0.158452376723,31.98748588564,79.75095367433,45.854469299274,33.54107284545,702
1.64952409143355E+018,80,1.64952409143355E+018,r2002313a3/base_footprint,0,1.64952409143355E+018,v/m1vw10zy74w/map,2.77773248384,1.06665257037,0,0,0,-0.520630651395,0.853782012477,0,62.7317733765,31.5332698822,61.9617004395,82.8487548828,45.6157608032,45.6157608032,62.7317733765,62.7317733765,21.7338447571,-2.95349144936,0,0.00553000671789,1.52358412743,0.352590441704,0.347060441971,0.842088699341,0.0260101743042,-2.20336151123,-0.0273216050118,0.624019622803,0.0134952981025,11.1054954529,0.338176578283,32.375358581541,80.64539337157,46.239780426003,32.83934021,628
1.64952409153384E+018,81,1.64952409153384E+018,r2002313a3/base_footprint,0,1.64952409153384E+018,v/m1vw10zy74w/map,2.77773248384,1.06665257037,0,0,0,-0.520630651395,0.853782012477,0,62.9195365906,33.3024559021,61.9617004395,82.8487548828,45.7620582581,45.7620582581,62.9195365906,62.9195365906,19.9340724945,-2.84670758247,0,0.00554744666442,1.51028549671,0.341097444296,0.335550010204,-0.927097320557,-0.0286358930171,-2.20336151123,-0.0273216050118,0.477722167969,0.0103314109147,12.9052677155,0.392981946468,32.375358581543,80.64539337157,46.239780426069,32.83934021,628
1.64952409163418E+018,82,1.64952409163418E+018,r2002313a3/base_footprint,0,1.64952409163418E+018,v/m1vw10zy74w/map,2.94239642622,0.780975009412,0,0,0,-0.482840636264,0.875708239068,0,63.1829719543,37.8823547363,61.9617004395,84.1911697388,46.0386505127,46.0386505127,63.1829719543,63.1829719543,23.0121421814,-2.85815739632,0,0.00401272671297,1.48852539062,0.320919156075,0.316906422377,-5.20009994507,-0.159110814333,-2.78689575195,-0.0342352502048,0.427383422852,0.00919775944203,9.43840408325,0.290855020285,32.68225479123,81.40427398685,46.466033935552,32.45054626465,592
1.6495240917338E+018,83,1.6495240917338E+018,r2002313a3/base_footprint,0,1.6495240917338E+018,v/m1vw10zy74w/map,3.10559983907,0.534065985989,0,0,0,-0.450657415919,0.89269697741,0,63.6251144409,40.7132949829,61.3126144409,85.6307678223,46.2993545532,46.2993545532,63.6251144409,63.6251144409,23.0517711639,-2.8550028801,0,0.0025141867809,1.46226549149,0.307193487883,0.304679304361,-7.10829162598,-0.211524799466,-3.85863494873,-0.0471876524389,0.401882171631,0.00860538613051,8.62111854553,0.272192358971,33.60500335692,81.77213287357,46.701236724831,31.67288970943,574
1.64952409183425E+018,84,1.64952409183425E+018,r2002313a3/base_footprint,0,1.64952409183425E+018,v/m1vw10zy74w/map,3.32541958313,0.257960784034,0,0,0,-0.420802157092,0.907152437348,0,63.436706543,34.2288093567,61.3126144409,84.8408966064,46.5552444458,46.5552444458,63.436706543,63.436706543,26.3631877899,-2.7364962101,0,0.00164445396513,1.43193018436,0.296408057213,0.294763594866,0.51155090332,0.0147249735892,-2.53489685059,-0.0307984463871,0.549709320068,0.0116698835045,4.99187278748,0.159204691648,34.74036026002,82.30599975581,47.104953765868,31.35506057738,561
1.6495240919335E+018,85,1.6495240919335E+018,r2002313a3/base_footprint,0,1.6495240919335E+018,v/m1vw10zy74w/map,3.53084970142,0.0278655614427,0,0,0,-0.39848321854,0.917175623609,0,62.405128479,39.3382339478,60.6992263794,80.2822647095,46.9067497253,46.9067497253,62.405128479,62.405128479,32.3167762756,-2.80297780037,0,0.000995196169242,1.39895403385,0.280235439539,0.279240250587,-3.43423843384,-0.0956505909562,2.27337646484,0.0275375060737,0.622856140137,0.0131045933813,-1.19099617004,-0.0382639765739,35.90399551396,82.55564117434,47.529605865437,31.12578010556,543
1.64952409203556E+018,86,1.64952409203556E+018,r2002313a3/base_footprint,0,1.64952409203556E+018,v/m1vw10zy74w/map,3.56212928925,-0.0047356309758,0,0,0,-0.395348525956,0.918531187835,0,62.8554878235,37.5,61.2299995422,81.6768264771,47.144203186,47.144203186,62.8554878235,62.8554878235,31.7951869965,-2.96257710457,0,0.000678699172568,1.3611779213,0.262608796358,0.26193010807,-1.59600448608,-0.0444520004094,0.878814697266,0.0106451194733,0.385402679443,0.00810868665576,-0.669406890869,-0.0215065088123,35.90399551392,82.555641174366,47.529605865443,31.125780105631,543
1.64952409213427E+018,87,1.64952409213427E+018,r2002313a3/base_footprint,0,1.64952409213427E+018,v/m1vw10zy74w/map,3.56212928925,-0.0047356309758,0,0,0,-0.395348525956,0.918531187835,0,62.8781852722,34.7426452637,61.2299995422,81.6768264771,47.3610305786,47.3610305786,62.8781852722,62.8781852722,33.7283782959,3.11475539207,0,0.000460596493213,1.35068035126,0.257855415344,0.257394790649,1.16135025024,0.0323459878564,0.878814697266,0.0106451194733,0.168575286865,0.00354674272239,-2.60259819031,-0.0836155191064,35.90399551394,82.555641174366,47.529605865465,31.12578010559,543
1.64952409223444E+018,88,1.64952409223444E+018,r2002313a3/base_footprint,0,1.64952409223444E+018,v/m1vw10zy74w/map,3.78926157265,-0.23454060215,0,0,0,-0.376829437286,0.926282664846,0,61.6171112061,38.8964881897,61.2299995422,74.8680343628,47.735004425,47.735004425,61.6171112061,61.6171112061,35.9549560547,-2.86880517006,0,0.000216953994823,1.34028995037,0.253689736128,0.253472775221,-2.38904190063,-0.0654398500919,7.92598724365,0.0957313925028,0.120719909668,0.0025225803256,-4.23744773865,-0.133599638939,36.50744628907,82.79402160645,47.855724334668,31.71750831605,564
1.6495240924339E+018,89,1.6495240924339E+018,r2002313a3/base_footprint,0,1.6495240924339E+018,v/m1vw10zy74w/map,3.82129758755,-0.267880435247,0,0,0,-0.373789085146,0.927513730263,0,63.1818618774,40.7132949829,61.2299995422,79.935295105,48.1591415405,48.1591415405,63.1818618774,63.1818618774,30.6122951508,-3.00208306313,0,0.000145455938764,1.31796908379,0.24488003552,0.245025485754,-3.89956283569,-0.105926856399,2.90692901611,0.035089943558,-0.274635314941,-0.00573536893353,1.06879425049,0.0337360315025,36.81373214721,82.84222412111,47.884506225559,31.68108940129,569
1.64952409253376E+018,90,1.64952409253376E+018,r2002313a3/base_footprint,0,1.64952409253376E+018,v/m1vw10zy74w/map,3.82129758755,-0.267880435247,0,0,0,-0.373789085146,0.927513730263,0,63.1347732544,36.0815200806,61.2299995422,79.935295105,48.488899231,48.488899231,63.1347732544,63.1347732544,35.0212440491,-2.95727348328,0,0.000333083211444,1.29493653774,0.236421436071,0.236754506826,0.73221206665,0.0198896452785,2.90692901611,0.035089943558,-0.604393005371,-0.0126218907535,-3.34015464783,-0.105430550873,36.81373214725,82.84222412111,47.884506225629,31.68108940127,569
1.64952409263398E+018,91,1.64952409263398E+018,r2002313a3/base_footprint,0,1.64952409263398E+018,v/m1vw10zy74w/map,3.82129758755,-0.267880435247,0,0,0,-0.373789085146,0.927513730263,0,63.4915809631,40.7132949829,61.614276886,79.935295105,48.7061500549,48.7061500549,63.4915809631,63.4915809631,30.9450397491,3.05884790421,0,0.000408431224059,1.28296995163,0.23263554275,0.233043968678,-3.89956283569,-0.105926856399,2.90692901611,0.035089943558,-0.821643829346,-0.0171588659286,0.7360496521,0.0232330914587,36.81373214721,82.84222412111,47.884506225554,31.6810894012,569
1.64952409273397E+018,92,1.64952409273397E+018,r2002313a3/base_footprint,0,1.64952409273397E+018,v/m1vw10zy74w/map,4.08527245908,-0.510754747645,0,0,0,-0.360894824556,0.932606522392,0,63.9878005981,43.014705658,61.614276886,81.149559021,48.8472518921,48.8472518921,63.9878005981,63.9878005981,27.9083347321,3.01777291298,0,0.000509164121468,1.2714407444,0.228908911347,0.229418084025,-6.25384521484,-0.170122385025,1.51203918457,0.0182919185609,-0.723560333252,-0.0150354290381,4.13231468201,0.128970995545,36.76086044316,82.66159820557,48.123691558848,32.04064941411,565
1.64952409283364E+018,93,1.64952409283364E+018,r2002313a3/base_footprint,0,1.64952409283364E+018,v/m1vw10zy74w/map,4.31942897793,-0.717618963695,0,0,0,-0.35828348018,0.933612846864,0,64.4880065918,39.7417488098,61.614276886,84.2323455811,49.1259422302,49.1259422302,64.4880065918,64.4880065918,33.012550354,3.0997607708,0,0.000747310463339,1.22106313705,0.207829415798,0.208576723933,-3.45526504517,-0.0952218174934,-1.77124023438,-0.0214797053486,-0.834606170654,-0.0172827318311,-1.38589668274,-0.0438205301762,36.28648376463,82.46110534672,48.291336059546,31.62665367126,573
1.64952409293457E+018,94,1.64952409293457E+018,r2002313a3/base_footprint,0,1.64952409293457E+018,v/m1vw10zy74w/map,4.56195336368,-0.93993962061,0,0,0,-0.36075291187,0.932661426552,0,64.5964126587,38.8235282898,61.614276886,83.6621856689,49.3045501709,49.3045501709,64.5964126587,64.5964126587,30.9375324249,2.89982485771,0,0.0018449324416,1.13727641106,0.174016594887,0.175861537457,-2.89706420898,-0.0806387215853,-1.32508087158,-0.0160933621228,-0.814598083496,-0.0167993176728,0.431072235107,0.0137421553954,35.92646408082,82.33710479732,48.489952087404,31.368604660007,566
1.64952409303408E+018,95,1.64952409303408E+018,r2002313a3/base_footprint,0,1.64952409303408E+018,v/m1vw10zy74w/map,5.03046093139,-1.38709372693,0,0,0,-0.386567812522,0.922260986013,0,64.2993469238,42.1252365112,61.6150131226,81.139175415,49.4079627991,49.4079627991,64.2993469238,64.2993469238,28.3187732697,3.02291369438,0,0.00235101836734,0.958556771278,0.149408325553,0.151759341359,-5.00945663452,-0.1349683851,1.17164611816,0.0142344115302,-0.0789108276367,-0.00159968261141,2.71732521057,0.0875536948442,37.11577987668,82.31082153316,49.3290519714633,31.03609848027,665
1.64952409313356E+018,96,1.64952409313356E+018,r2002313a3/base_footprint,0,1.64952409313356E+018,v/m1vw10zy74w/map,5.03046093139,-1.38709372693,0,0,0,-0.386567812522,0.922260986013,0,64.3483428955,40.6982307434,61.6150131226,81.139175415,49.4224510193,49.4224510193,64.3483428955,64.3483428955,27.5933418274,2.89830780029,0,0.00158301508054,0.717436552048,0.125603556633,0.127186581492,-3.5824508667,-0.0965209677815,1.17164611816,0.0142344115302,-0.0933990478516,-0.00189338822383,3.44275665283,0.11092749238,37.1157798767,82.31082153316,49.3290519714484,31.03609848023,665
1.64952409323431E+018,97,1.64952409323431E+018,r2002313a3/base_footprint,0,1.64952409323431E+018,v/m1vw10zy74w/map,5.27584594656,-1.64054670461,0,0,0,-0.40056700915,0.916267467053,0,64.1780700684,41.1764717102,63.1659622192,79.3477630615,49.4834327698,49.4834327698,64.1780700684,64.1780700684,24.8677654266,2.92753529549,0,0.00214451365173,0.466416239738,0.113680370152,0.115824878216,-1.20857620239,-0.0302386749536,3.42700958252,0.041401617229,0.574939727783,0.0114853857085,5.78505516052,0.188728317618,39.96789550781,82.77477264402,50.058372497583,30.65282058712,1066
1.64952409333372E+018,98,1.64952409333372E+018,r2002313a3/base_footprint,0,1.64952409333372E+018,v/m1vw10zy74w/map,5.46423874117,-1.85486732194,0,0,0,-0.423546117325,0.905874542362,0,65.026763916,35.0588226318,62.823387146,84.1889877319,49.575088501,49.575088501,65.026763916,65.026763916,28.0095405579,-2.89198470116,0,0.00186998746358,0.21416054666,0.107729285955,0.109599277377,6.15662002563,0.149376541376,-0.915405273438,-0.0109927449375,0.986263275146,0.0195062682033,2.51210975647,0.0823058262467,41.21544265743,83.273582458462,50.561351776146,30.52165031437,1468
1.64952409343389E+018,99,1.64952409343389E+018,r2002313a3/base_footprint,0,1.64952409343389E+018,v/m1vw10zy74w/map,5.46423874117,-1.85486732194,0,0,0,-0.423546117325,0.905874542362,0,65.0390625,42.1101760864,61.6121749878,84.1889877319,49.6882171631,49.6882171631,65.0390625,65.0390625,29.0099220276,3.12195634842,0,0.00104935909621,0.0288952644914,0.0983829051256,0.0994322672486,-0.894733428955,-0.0217086933553,-0.915405273438,-0.0109927449375,0.873134613037,0.0172688141465,1.51172828674,0.0495297051966,41.215442657445,83.273582458462,50.561351776137,30.52165031434,1468
1.6495240935346E+018,100,1.6495240935346E+018,r2002313a3/base_footprint,0,1.6495240935346E+018,v/m1vw10zy74w/map,5.62501651099,-2.05976835507,0,0,0,-0.444532596395,0.895762675457,0,64.8955688477,43.4923591614,60.3406600952,82.3756256104,49.8910484314,49.8910484314,64.8955688477,64.8955688477,27.2553920746,2.73250198364,0,0.000245253118919,0.225392282009,0.0593923926353,0.0596376471221,-0.0384407043457,-0.000884631474037,3.410987854,0.0397613085806,1.51399993896,0.0294523593038,2.84120941162,0.0944029986858,43.4539184570543,85.7866134644,51.40504837036,30.09660148622,2316
1.6495240936341E+018,101,1.6495240936341E+018,r2002313a3/base_footprint,0,1.6495240936341E+018,v/m1vw10zy74w/map,5.63603734978,-2.07206698597,0,0,0,-0.445989143253,0.895038370183,0,65.0387039185,46.3529396057,60.3406600952,83.0692672729,50.145942688,50.145942688,65.0387039185,65.0387039185,29.9289207458,2.93093895912,0,8.24057278805E-05,0.377658694983,0.024416424334,0.02433401905,-2.89902114868,-0.0667148381472,2.71734619141,0.0316756442189,1.25910568237,0.0244938135147,0.167680740356,0.00557141797617,43.45391845702,85.78661346431,51.40504837037,30.096601486156,2316
