%time,field.header.seq,field.header.stamp,field.header.frame_id,field.pose.header.seq,field.pose.header.stamp,field.pose.header.frame_id,field.pose.pose.position.x,field.pose.pose.position.y,field.pose.pose.position.z,field.pose.pose.orientation.x,field.pose.pose.orientation.y,field.pose.pose.orientation.z,field.pose.pose.orientation.w,field.label,field.main_output,field.scan_score,field.pose_score,field.cov_score,field.lhood_map_score,field.lhood_robot_score,field.lhood_map_score_all,field.lhood_robot_score_all,field.point_angle_diff,field.average_orientation,field.map_average_orientation,field.sensor_div,field.odom_div_x,field.odom_div_w,field.imu_div_w,field.kdtree_div,field.kdtree_div_p,field.cov_div,field.cov_div_p,field.likelihood_div,field.likelihood_div_p,field.normal_diff_div,field.normal_diff_div_p,field.kdtree_average,field.cov_average,field.likelihood_average,field.normal_diff_average,field.map_update_count
1630857065273204064,0,1630857065273204064,r200131356/base_footprint,0,1630857065273204369,alta/m1vW10zy74W/map,-1.71803495,5.1475007595,0.0,0.0,0.0,0.00115692484994,0.999999330762,0,67.0597686768,25.0390415192,100.0,95.7146530151,50.0,50.0,67.0597686768,67.0597686768,37.4968681335,-1.45373404026,0.0,0.000397874042392,4.11070823669,0.00267791561782,0.00307578966022,-0.913957595825,-0.0378841198981,0.109718322754,0.00114499393385,-2.29570770264,-0.0481237135828,7.96991348267,0.17529091239,24.1250839233,95.8243713379,47.7042922974,45.4667816162,271
1630857065373011907,1,1630857065373011907,r200131356/base_footprint,0,1630857065373012224,alta/m1vW10zy74W/map,-1.57132513118,5.14768774461,0.0,0.0,0.0,0.00203217581185,0.999997935129,0,65.9762268066,16.6666660309,61.5967674255,95.8500823975,49.5808334351,49.5808334351,65.9762268066,65.9762268066,52.9612541199,-1.4485514164,0.0,0.00292913499288,4.10606765747,0.000100944882433,0.002828190336,6.63819122314,0.284841537476,-0.0583190917969,-0.000608811154962,-2.14711761475,-0.0452656410635,-6.9732093811,-0.151630923152,23.304857254,95.7917633057,47.4337158203,45.9880447388,241
1630857065473888712,2,1630857065473888712,r200131356/base_footprint,0,1630857065473890510,alta/m1vW10zy74W/map,-1.47292658946,5.14709450322,0.0,0.0,0.0,0.00123427414333,0.999999238283,0,66.0785293579,23.8187084198,72.3705062866,95.8240356445,49.3801269531,49.3801269531,66.0785293579,66.0785293579,48.8583106995,-2.45850920677,0.0,0.00215088296682,4.11006689072,0.000764513504691,0.00291539658792,-0.18906211853,-0.00800105556846,-0.0360946655273,-0.000376818468794,-1.95099639893,-0.0411349795759,-2.92503356934,-0.0636800527573,23.6296463013,95.787940979,47.4291305542,45.9332771301,241
1630857065573834654,3,1630857065573834654,r200131356/base_footprint,0,1630857065573835284,alta/m1vW10zy74W/map,-1.32493874651,5.14850091127,0.0,0.0,0.0,0.00150471018248,0.999998867923,0,66.0009689331,19.9209098816,78.870262146,96.4707107544,49.3496780396,49.3496780396,66.0009689331,66.0009689331,52.2536811829,-2.06303071976,0.0,0.00158506177831,4.10722017288,0.00552137056366,0.00393630890176,4.13084602356,0.171748206019,-0.65901184082,-0.00687819812447,-1.89755249023,-0.0399887785316,-5.9395980835,-0.128246054053,24.0517559052,95.8116989136,47.4521255493,46.3140830994,231
1630857065672765710,4,1630857065672765710,r200131356/base_footprint,0,1630857065672765996,alta/m1vW10zy74W/map,-1.23669296133,5.14782950685,0.0,0.0,0.0,0.00289673453401,0.999995804456,0,66.1360626221,23.5796890259,77.6702270508,96.3192520142,49.1420593262,49.1420593262,66.1360626221,66.1360626221,47.0343666077,-1.1190148592,0.0,0.00372775038704,4.1008810997,0.00441479822621,0.00814254861325,-0.00301170349121,-0.000127740800963,-0.523704528809,-0.00546689843759,-1.86487197876,-0.0394454933703,-0.636184692383,-0.0137114142999,23.5766773224,95.7955474854,47.2771873474,46.3981819153,227
1630857065772803282,5,1630857065772803282,r200131356/base_footprint,0,1630857065772803550,alta/m1vW10zy74W/map,-1.04339028237,5.15098337984,0.0,0.0,0.0,0.00436675282956,0.999990465689,0,66.4726333618,22.9208927155,79.6627502441,96.143661499,48.8088874817,48.8088874817,66.4726333618,66.4726333618,36.7457389832,-2.16051411629,0.0,0.00442244810984,4.09678173065,0.00688710715622,0.0113095557317,1.48474502563,0.0608361512423,-0.199867248535,-0.00208317022771,-1.56803131104,-0.0331922695041,9.37866210938,0.203334063292,24.4056377411,95.9437942505,47.2408561707,46.1244010925,265
1630857065872805372,6,1630857065872805372,r200131356/base_footprint,0,1630857065872805631,alta/m1vW10zy74W/map,-0.949471567387,5.15031464923,0.0,0.0,0.0,0.00425516847724,0.99999094673,0,65.4223022461,25.2243270874,82.4849395752,96.0498046875,48.6441001892,48.6441001892,65.4223022461,65.4223022461,53.5341033936,-1.92985165119,0.0,0.00357062416151,4.10246372223,0.00800278224051,0.0115734068677,-0.88850402832,-0.0365101285279,-0.0870742797852,-0.000907376001123,-1.44177627563,-0.0305446032435,-7.36608123779,-0.159549415112,24.3358230591,95.9627304077,47.2023239136,46.1680221558,275
1630857065972706226,7,1630857065972706226,r200131356/base_footprint,0,1630857065972706486,alta/m1vW10zy74W/map,-0.766278271037,5.15135240452,0.0,0.0,0.0,0.0058613581395,0.999982822093,0,65.2635574341,23.9350910187,78.9329147339,95.4048309326,48.4245185852,48.4245185852,65.2635574341,65.2635574341,51.6981201172,-1.3963162899,0.0,0.00472301663831,4.11677932739,0.00617001438513,0.0108930310234,0.475067138672,0.0194618627429,0.479164123535,0.00499733164907,-1.2211265564,-0.0258694663644,-6.51292800903,-0.144138544798,24.4101581573,95.8839950562,47.2033920288,45.1851921082,366
1630857066072961501,8,1630857066072961501,r200131356/base_footprint,0,1630857066072961675,alta/m1vW10zy74W/map,-0.673510571588,5.15152697031,0.0,0.0,0.0,0.00600306621781,0.999981981436,0,65.7940750122,24.509803772,68.5416412354,96.2541122437,48.2728996277,48.2728996277,65.7940750122,65.7940750122,43.5687484741,-1.09272074699,0.0,0.00827601924539,4.11297225952,0.00262217689306,0.0108981961384,0.416959762573,0.0167273934931,-0.374099731445,-0.003901748918,-1.3597869873,-0.0289852228016,1.45386505127,0.0322918854654,24.9267635345,95.8800125122,46.9131126404,45.0226135254,453
1630857066172777088,9,1630857066172777088,r200131356/base_footprint,0,1630857066172777330,alta/m1vW10zy74W/map,-0.57944996363,5.15365628676,0.0,0.0,0.0,0.00678738380244,0.999976965445,0,65.8433914185,22.9208927155,63.2415847778,96.2328491211,48.1257820129,48.1257820129,65.8433914185,65.8433914185,41.0156555176,-1.01162016392,0.0,0.00424718856812,4.11341094971,0.00388255319558,0.00812974199653,1.87246704102,0.0755229219794,-0.358123779297,-0.00373533042148,-1.1817741394,-0.0251741204411,3.96951675415,0.0882405564189,24.7933597565,95.8747253418,46.9440078735,44.9851722717,480
1630857066272834409,10,1630857066272834409,r200131356/base_footprint,0,1630857066272834794,alta/m1vW10zy74W/map,-0.431548369283,5.1530273067,0.0,0.0,0.0,0.00177882381223,0.999998417892,0,65.4241256714,25.8526935577,57.1178627014,95.257774353,47.8644638062,47.8644638062,65.4241256714,65.4241256714,42.2299194336,-0.837172627449,0.0,0.00646454375237,4.1098651886,0.00578057719395,0.00068396696588,-1.48343849182,-0.060873363167,0.60693359375,0.00633114716038,-0.880393981934,-0.0187381375581,3.00135421753,0.066355727613,24.3692550659,95.8647079468,46.9840698242,45.2312736511,415
1630857066373607475,11,1630857066373607475,r200131356/base_footprint,0,1630857066373610271,alta/m1vW10zy74W/map,-0.321684427824,5.15451979219,0.0,0.0,0.0,0.000220421853921,0.999999975707,0,64.8433837891,19.607843399,49.6599845886,96.4551086426,47.6205177307,47.6205177307,64.8433837891,64.8433837891,54.3590393066,-1.39921545982,0.0,0.00581091968343,4.11078691483,0.00985858496279,0.00404766527936,3.89950561523,0.165884539485,-0.520172119141,-0.00542213441804,-0.426918029785,-0.00904610008001,-8.84875488281,-0.194434180856,23.5073490143,95.9349365234,47.1935997009,45.5102844238,405
1630857066472837843,12,1630857066472837843,r200131356/base_footprint,0,1630857066472838053,alta/m1vW10zy74W/map,-0.241004228551,5.15296929517,0.0,0.0,0.0,-0.00474659829358,0.999988734839,0,65.1777648926,18.9971065521,49.6599845886,96.4872970581,47.4002685547,47.4002685547,65.1777648926,65.1777648926,46.0773506165,-0.630149960518,0.0,0.00719980010763,4.11468601227,0.0164335779846,0.00923377741128,4.74143028259,0.199735566974,-0.535552978516,-0.00558148231357,-0.216133117676,-0.00458063092083,-0.573272705078,-0.0125982705504,23.7385368347,95.9517440796,47.184135437,45.5040779114,399
1630857066572598123,13,1630857066572598123,r200131356/base_footprint,0,1630857066572598370,alta/m1vW10zy74W/map,-0.149221317929,5.15102173051,0.0,0.0,0.0,-0.010484431005,0.999945036843,0,64.8888931274,21.8900680542,49.7982521057,95.375793457,47.0897521973,47.0897521973,64.8888931274,64.8888931274,43.9220848083,-1.14768004417,0.0,0.0120630729944,4.10984182358,0.0217402987182,0.00967722572386,1.13027000427,0.0490987561643,0.461608886719,0.00481658382341,-0.0283355712891,-0.000602097716182,2.24270248413,0.0485803708434,23.0203380585,95.8374023438,47.061416626,46.1647872925,341
1630857066672847041,14,1630857066672847041,r200131356/base_footprint,0,1630857066672847230,alta/m1vW10zy74W/map,0.0394361262675,5.1434646627,0.0,0.0,0.0,-0.0254289132651,0.999676632902,0,64.1391448975,20.9257469177,53.3327980042,93.5427398682,46.8455314636,46.8455314636,64.1391448975,64.1391448975,48.1810073853,-1.35264539719,0.0,0.00855403672904,4.11160469055,0.0203020982444,0.0117480615154,2.14418983459,0.0929430276155,2.25396728516,0.023528650403,0.165382385254,0.00351795717143,-1.71224212646,-0.0368471629918,23.0699367523,95.7967071533,47.0109138489,46.4687652588,336
1630857066772726700,15,1630857066772726700,r200131356/base_footprint,0,1630857066772727182,alta/m1vW10zy74W/map,0.134170466426,5.1381294994,0.0,0.0,0.0,-0.0328432591725,0.999460514641,0,63.6680641174,18.627450943,49.8976898193,93.9051818848,46.4818115234,46.4818115234,63.6680641174,63.6680641174,54.0370674133,-0.884733557701,0.0,0.00983965303749,4.10007619858,0.0271333921701,0.0172937382013,4.11427116394,0.180912911892,1.91779327393,0.0200139191002,0.485973358154,0.0103469509631,-7.32214355469,-0.156740993261,22.7417221069,95.8229751587,46.9677848816,46.7149238586,304
1630857066872814879,16,1630857066872814879,r200131356/base_footprint,0,1630857066872815139,alta/m1vW10zy74W/map,0.222003157071,5.13112449353,0.0,0.0,0.0,-0.0423955297748,0.999100905342,0,64.2174377441,21.5686283112,48.9869270325,94.3268890381,46.2527961731,46.2527961731,64.2174377441,64.2174377441,43.1931343079,-1.02375519276,0.0,0.0131725827232,4.09231519699,0.0348992608488,0.0217266790569,0.89503288269,0.0398435890675,1.53466796875,0.0160092115402,0.578998565674,0.01236336492,3.67415237427,0.0783948153257,22.4636611938,95.8615570068,46.8317947388,46.8672866821,296
1630857066972735315,17,1630857066972735315,r200131356/base_footprint,0,1630857066972735575,alta/m1vW10zy74W/map,0.363369377887,5.11610258105,0.0,0.0,0.0,-0.0622618381901,0.998059849661,0,64.1887817383,17.248254776,48.9839897156,94.3273696899,45.9436187744,45.9436187744,64.1887817383,64.1887817383,40.3715133667,-0.592570126057,0.0,0.0138176698238,4.05147790909,0.0319486930966,0.0181310214102,4.84787940979,0.219399437308,1.502784729,0.0156817529351,0.645797729492,0.0138614680618,6.61163330078,0.140723511577,22.0961341858,95.8301544189,46.5894165039,46.9831466675,304
1630857067072940215,18,1630857067072940215,r200131356/base_footprint,0,1630857067072940767,alta/m1vW10zy74W/map,0.496699429242,5.09647985284,0.0,0.0,0.0,-0.0798707634715,0.996805227285,0,63.5683441162,22.5741577148,48.9118690491,94.4498138428,45.6612205505,45.6612205505,63.5683441162,63.5683441162,48.9303245544,-0.777587711811,0.0,0.0167095772922,4.02705001831,0.0331496410072,0.0164400618523,-0.561901092529,-0.0255267377943,1.33910369873,0.0139797348529,0.848217010498,0.0182375237346,-1.86450576782,-0.0396148599684,22.0122566223,95.7889175415,46.509437561,47.0658187866,304
1630857067173367498,19,1630857067173367498,r200131356/base_footprint,0,1630857067173369185,alta/m1vW10zy74W/map,0.677664806332,5.06466164689,0.0,0.0,0.0,-0.0987475198012,0.995112519936,0,63.4126968384,26.080165863,48.8302536011,95.1846160889,45.3552780151,45.3552780151,63.4126968384,63.4126968384,51.0730895996,-1.00631833076,0.0,0.0136474361643,3.96156334877,0.0256083495915,0.0119609143585,-5.00774002075,-0.237644210458,0.427238464355,0.00446846755221,0.586353302002,0.0127630056813,-3.52698898315,-0.0741804018617,21.0724258423,95.6118545532,45.9416313171,47.5461006165,266
1630857067272740625,20,1630857067272740625,r200131356/base_footprint,0,1630857067272740815,alta/m1vW10zy74W/map,0.685450039426,5.06321977524,0.0,0.0,0.0,-0.0995053828645,0.995037023824,0,63.7346000671,16.7100467682,48.7323608398,94.9533843994,45.0905456543,45.0905456543,63.7346000671,63.7346000671,41.5872879028,-0.87425339222,0.0,0.0134522514418,3.94756865501,0.0247276965529,0.0112754460424,4.3623790741,0.207018360496,0.658470153809,0.00688690925017,0.851085662842,0.0185253694654,5.95881271362,0.125327050686,21.0724258423,95.6118545532,45.9416313171,47.5461006165,266
1630857067372742101,21,1630857067372742101,r200131356/base_footprint,0,1630857067372742423,alta/m1vW10zy74W/map,0.87425890205,5.0226744453,0.0,0.0,0.0,-0.12433095035,0.992240804838,0,63.1777076721,19.5046443939,48.7323608398,95.5419769287,44.8113174438,44.8113174438,63.1777076721,63.1777076721,50.7145729065,-0.756087720394,0.0,0.0147116733715,3.86477851868,0.0368335843086,0.0221219118685,1.1355381012,0.0550158955157,0.0353546142578,0.000369905843399,0.908939361572,0.019880451262,-3.58171463013,-0.0759918838739,20.6401824951,95.577331543,45.7202568054,47.1328582764,297
1630857067472606855,22,1630857067472606855,r200131356/base_footprint,0,1630857067472607103,alta/m1vW10zy74W/map,0.968620981269,4.99663729696,0.0,0.0,0.0,-0.14280216704,0.989751252128,0,63.2962799072,21.5686283112,48.6190109253,95.2552719116,44.6653175354,44.6653175354,63.2962799072,63.2962799072,45.9713401794,-0.577372729778,0.0,0.0192564036697,3.80734968185,0.0490340590477,0.0297776535153,-0.994255065918,-0.0483249276876,0.308486938477,0.00322807463817,0.996799468994,0.0218299012631,0.909912109375,0.0194088686258,20.5743732452,95.5637588501,45.6621170044,46.8812522888,297
1630857067572985883,23,1630857067572985883,r200131356/base_footprint,0,1630857067572986125,alta/m1vW10zy74W/map,1.05663406316,4.96850537822,0.0,0.0,0.0,-0.163613999568,0.986524434135,0,63.1161499023,24.5852184296,48.6412239075,95.5106124878,44.5406684875,44.5406684875,63.1161499023,63.1161499023,48.7867622375,-1.68547391891,0.0,0.0225334018469,3.69864368439,0.076521217823,0.0539878159761,-4.19371986389,-0.20566020906,0.0158233642578,0.000165643825312,1.10723495483,0.0242559872568,-1.74561309814,-0.0371082164347,20.3914985657,95.5264358521,45.6479034424,47.0411491394,287
1630857067672637464,24,1630857067672637464,r200131356/base_footprint,0,1630857067672637989,alta/m1vW10zy74W/map,1.13875708321,4.93573511886,0.0,0.0,0.0,-0.189547889393,0.981871477143,0,63.2118492126,26.2213363647,48.5632781982,95.3478775024,44.3976173401,44.3976173401,63.2118492126,63.2118492126,44.9333114624,-1.19417083263,0.0,0.0331279113889,3.64358115196,0.0957640334964,0.0626361221075,-5.50869560242,-0.265958160162,0.114555358887,0.00120000459719,1.24547576904,0.0272872783244,2.18795776367,0.0464324876666,20.7126407623,95.4624328613,45.6430931091,47.1212692261,288
1630857067772646049,25,1630857067772646049,r200131356/base_footprint,0,1630857067772646266,alta/m1vW10zy74W/map,1.22068249385,4.89918663811,0.0,0.0,0.0,-0.220398648094,0.975409880983,0,63.3676757812,23.2303085327,48.4684677124,95.4863128662,44.2841262817,44.2841262817,63.3676757812,63.3676757812,41.4011268616,-1.22595655918,0.0,0.0464023165405,3.5774512291,0.118988223374,0.0725859105587,-2.85823440552,-0.140301585197,-0.129211425781,-0.0013550267322,1.43698883057,0.0314294360578,6.2253036499,0.130711108446,20.3720741272,95.3571014404,45.7211151123,47.6264305115,276
1630857067872599898,26,1630857067872599898,r200131356/base_footprint,0,1630857067872600134,alta/m1vW10zy74W/map,1.36864646544,4.80840387368,0.0,0.0,0.0,-0.296633320786,0.954991451794,0,62.4147605896,17.4573059082,48.4020118713,95.4629974365,44.0903930664,44.0903930664,62.4147605896,62.4147605896,56.3773574829,-1.08596909046,0.0,0.0514373667538,3.52105808258,0.121313676238,0.0698763132095,2.84342384338,0.140065103769,-0.108406066895,-0.00113687303383,1.54911422729,0.0339423976839,-8.68547439575,-0.182116404176,20.3007297516,95.3545913696,45.6395072937,47.6918830872,270
1630857067973674886,27,1630857067973674886,r200131356/base_footprint,0,1630857067973675210,alta/m1vW10zy74W/map,1.45773823701,4.74456766448,0.0,0.0,0.0,-0.340819731327,0.940128667119,0,63.055519104,20.6121463776,48.3010292053,96.21534729,43.9463920593,43.9463920593,63.055519104,63.055519104,45.9969787598,-1.4628508091,0.0,0.050863802433,3.45707321167,0.11969153583,0.0688277333975,-0.261222839355,-0.0128359207883,-0.879325866699,-0.00922343786806,1.66576766968,0.0365202538669,1.54471969604,0.0324918925762,20.3509235382,95.3360214233,45.612159729,47.5416984558,263
1630857068072719305,28,1630857068072719305,r200131356/base_footprint,0,1630857068072719533,alta/m1vW10zy74W/map,1.58983768371,4.61182997765,0.0,0.0,0.0,-0.422648766492,0.906293561812,0,62.9460372925,16.6666660309,48.1522789001,96.8500366211,43.6450881958,43.6450881958,62.9460372925,62.9460372925,46.9984169006,-1.98633146286,0.0,0.0532559677958,3.37512564659,0.127011984587,0.0737560242414,3.95806503296,0.191908687353,-1.52777099609,-0.0160274300724,1.83240890503,0.0402926504612,0.454223632812,0.00957214646041,20.6247310638,95.322265625,45.4774971008,47.4526405334,268
1630857068172879083,29,1630857068172879083,r200131356/base_footprint,0,1630857068172879379,alta/m1vW10zy74W/map,1.64131760808,4.53861831882,0.0,0.0,0.0,-0.464231271806,0.885714020594,0,62.9386329651,17.849899292,48.0410652161,95.4732055664,43.5504074097,43.5504074097,62.9386329651,62.9386329651,41.152557373,-1.47021102905,0.0,0.0491722859442,3.29775857925,0.107768125832,0.0585958398879,2.98525238037,0.143279612064,-0.172897338867,-0.00181423698086,1.96946716309,0.043266095221,6.22064590454,0.131311491132,20.8351516724,95.3003082275,45.5198745728,47.3732032776,261
1630857068272622938,30,1630857068272622938,r200131356/base_footprint,0,1630857068272623172,alta/m1vW10zy74W/map,1.70012774327,4.44390571262,0.0,0.0,0.0,-0.503167327195,0.864189007593,0,62.9447746277,16.8356990814,48.03515625,94.3348083496,43.4514007568,43.4514007568,62.9447746277,62.9447746277,35.8745231628,-2.06411075592,0.0,0.0447885990143,3.24916863441,0.0886199399829,0.0438313372433,3.79816627502,0.184074401855,0.923080444336,0.00969033036381,1.97034835815,0.0433789640665,11.355140686,0.24042391777,20.6338653564,95.2578887939,45.421749115,47.2296638489,263
1630857068372609106,31,1630857068372609106,r200131356/base_footprint,0,1630857068372609407,alta/m1vW10zy74W/map,1.74077678321,4.36243449806,0.0,0.0,0.0,-0.53746785488,0.843284237354,0,62.6272621155,23.9350910187,48.0400924683,94.2224502563,43.2709159851,43.2709159851,62.6272621155,62.6272621155,39.236000061,-2.003647089,0.0,0.0421732254326,3.20512866974,0.0690583884716,0.0268851611763,-2.76021957397,-0.130353540182,0.96183013916,0.010104926303,2.14165878296,0.0471600368619,7.50603866577,0.160584330559,21.1748714447,95.1842803955,45.4125747681,46.7420387268,256
1630857068472569776,32,1630857068472569776,r200131356/base_footprint,0,1630857068472569928,alta/m1vW10zy74W/map,1.77142163665,4.28599544704,0.0,0.0,0.0,-0.560864741699,0.827907447435,0,62.298160553,17.4406604767,48.0270881653,93.9098052979,43.1868057251,43.1868057251,62.298160553,62.298160553,43.1259078979,-1.79946100712,0.0,0.0300467088819,3.15805697441,0.0436992421746,0.0136525342241,4.02837753296,0.187636613846,1.18292236328,0.0124396719038,2.15934753418,0.0476192012429,2.84488296509,0.0618845783174,21.4690380096,95.0927276611,45.3461532593,45.970790863,267
1630857068572630429,33,1630857068572630429,r200131356/base_footprint,0,1630857068572630954,alta/m1vW10zy74W/map,1.84159104157,4.10497341198,0.0,0.0,0.0,-0.593774738788,0.804631319038,0,62.6257133484,18.4726524353,48.0222206116,94.7455673218,43.0453186035,43.0453186035,62.6257133484,62.6257133484,38.7106513977,-2.6120660305,0.0,0.0231796186417,3.11260008812,0.0222537480295,0.000925870728679,3.74837493896,0.168685942888,0.123634338379,0.00130320840981,2.27880096436,0.0502778887749,5.53247833252,0.125047177076,22.2210273743,94.8692016602,45.3241195679,44.2431297302,248
1630857068673539627,34,1630857068673539627,r200131356/base_footprint,0,1630857068673541426,alta/m1vW10zy74W/map,1.86993750535,4.02025195852,0.0,0.0,0.0,-0.601521692633,0.798856466014,0,62.8662185669,23.632610321,47.8656845093,94.9759292603,43.1302604675,43.1302604675,62.8662185669,62.8662185669,36.1282272339,-1.52773439884,0.0,0.0214270427823,3.06701779366,0.0126713383943,0.00875570531934,-1.13335609436,-0.0503730513155,-0.274322509766,-0.0028967037797,2.10160827637,0.0464629977942,7.37294387817,0.169488400221,22.4992542267,94.7016067505,45.2318687439,43.5011711121,257
1630857068773444704,35,1630857068773444704,r200131356/base_footprint,0,1630857068773445096,alta/m1vW10zy74W/map,1.89859555357,3.9315114388,0.0,0.0,0.0,-0.606415933594,0.795147606098,0,62.0281600952,21.9066944122,47.8327178955,94.1622543335,43.188785553,43.188785553,62.0281600952,62.0281600952,48.9160957336,-1.75979816914,0.0,0.0185594633222,3.04831004143,0.00646125758067,0.0120982052758,0.902786254883,0.0395794287324,0.373840332031,0.00395447202027,1.99345016479,0.0441202186048,-5.58141708374,-0.128797933459,22.8094806671,94.5360946655,45.1822357178,43.3346786499,248
1630857068872616964,36,1630857068872616964,r200131356/base_footprint,0,1630857068872617199,alta/m1vW10zy74W/map,1.94638656258,3.74506096244,0.0,0.0,0.0,-0.612073681462,0.790800738784,0,61.7000236511,18.5520362854,47.7206344604,93.8742141724,43.0699081421,43.0699081421,61.7000236511,61.7000236511,52.5017662048,-1.52073466778,0.0,0.0151322595775,3.00273633003,0.00414912868291,0.0192813873291,4.44228553772,0.193190544844,0.537170410156,0.00568967824802,2.08602142334,0.0461959578097,-9.45529937744,-0.219653323293,22.9943218231,94.4113845825,45.1559295654,43.0464668274,252
1630857068972781196,37,1630857068972781196,r200131356/base_footprint,0,1630857068972781493,alta/m1vW10zy74W/map,1.97333513359,3.63643933438,0.0,0.0,0.0,-0.614376581676,0.789012937719,0,61.9723320007,19.5575656891,47.6882820129,94.9281845093,42.9458236694,42.9458236694,61.9723320007,61.9723320007,50.054359436,-2.83274102211,0.0,0.01054233592,2.94318842888,0.0166213717312,0.0271637085825,3.75648498535,0.161125361919,-0.655715942383,-0.00695554027334,2.11535263062,0.0469440184534,-7.39316558838,-0.17329955101,23.3140506744,94.2724685669,45.0611763,42.6611938477,229
1630857069072645705,38,1630857069072645705,r200131356/base_footprint,0,1630857069072645917,alta/m1vW10zy74W/map,2.02797876106,3.46463604013,0.0,0.0,0.0,-0.615776285411,0.787921040667,0,61.9140586853,18.1585674286,47.7698173523,93.8681945801,42.9529800415,42.9529800415,61.9140586853,61.9140586853,47.3646354675,-1.81505513191,0.0,0.00559432338923,2.90506720543,0.0211818516254,0.0267761740834,4.96743774414,0.214798778296,0.276626586914,0.00293830921873,1.96694564819,0.0437878221273,-5.18433761597,-0.122908987105,23.1260051727,94.144821167,44.9199256897,42.1802978516,222
1630857069172751949,39,1630857069172751949,r200131356/base_footprint,0,1630857069172752107,alta/m1vW10zy74W/map,2.03131188286,3.46148385839,0.0,0.0,0.0,-0.616345111201,0.787476160845,0,62.1628494263,12.2632102966,47.8881111145,93.6982955933,42.9983596802,42.9983596802,62.1628494263,62.1628494263,42.7648353577,-2.47858333588,0.0,0.00672431616113,2.89278364182,0.0176828298718,0.0244071464986,10.8627948761,0.469722062349,0.44652557373,0.00474296463653,1.92156600952,0.0427775867283,-0.584537506104,-0.0138580696657,23.1260051727,94.144821167,44.9199256897,42.1802978516,222
1630857069272572700,40,1630857069272572700,r200131356/base_footprint,0,1630857069272572941,alta/m1vW10zy74W/map,2.08202726606,3.25985655512,0.0,0.0,0.0,-0.617497082907,0.786573170532,0,62.0259742737,23.632610321,48.0173530579,93.1974182129,42.945892334,42.945892334,62.0259742737,62.0259742737,42.858833313,-2.57833909988,0.0,0.00514089595526,2.87827515602,0.0230653118342,0.0282062087208,-0.538360595703,-0.0233114566654,0.791053771973,0.0084164980799,1.8528213501,0.0413588061929,-1.42841339111,-0.0344774052501,23.0942497253,93.9884719849,44.7987136841,41.4304199219,185
1630857069372759541,41,1630857069372759541,r200131356/base_footprint,0,1630857069372759795,alta/m1vW10zy74W/map,2.12112746948,3.08881690215,0.0,0.0,0.0,-0.616842193877,0.78708684899,0,62.8184890747,24.9492893219,48.1389846802,93.4166259766,43.0918197632,43.0918197632,62.8184890747,62.8184890747,30.958738327,-3.02500128746,0.0,0.00160461070482,2.88786530495,0.0316684357822,0.0300638247281,-1.52835273743,-0.0652558356524,0.563903808594,0.00600021937862,1.53728485107,0.0344457924366,9.28980827332,0.230811029673,23.4209365845,93.9805297852,44.6291046143,40.2485466003,149
1630857069473637053,42,1630857069473637053,r200131356/base_footprint,0,1630857069473637563,alta/m1vW10zy74W/map,2.14146881989,2.9933440703,0.0,0.0,0.0,-0.617291399976,0.786734597889,0,62.9342536926,25.9634895325,48.2954101562,94.3698806763,43.175743103,43.175743103,62.9342536926,62.9342536926,33.2129974365,-2.81911754608,0.0,0.00429036235437,2.90310811996,0.0368384793401,0.0325481183827,-2.74068069458,-0.118016764522,-0.381462097168,-0.00405860738829,1.39036560059,0.0311978235841,6.68398284912,0.167531043291,23.2228088379,93.9884185791,44.5661087036,39.8969802856,144
1630857069573318700,43,1630857069573318700,r200131356/base_footprint,0,1630857069573320782,alta/m1vW10zy74W/map,2.15895092845,2.90243950665,0.0,0.0,0.0,-0.612157828755,0.790735602268,0,62.8373985291,22.2506389618,48.5461082458,94.7904434204,43.2277336121,43.2277336121,62.8373985291,62.8373985291,37.0319404602,-2.00852036476,0.0,0.0105469049886,2.92736053467,0.0461425967515,0.0355956889689,1.10630989075,0.0473653413355,-0.698867797852,-0.0074275280349,1.3088722229,0.0293886829168,2.66026687622,0.0670223981142,23.3569488525,94.0915756226,44.536605835,39.6922073364,143
1630857069673627101,44,1630857069673627101,r200131356/base_footprint,0,1630857069673627324,alta/m1vW10zy74W/map,2.18089912495,2.82217445213,0.0,0.0,0.0,-0.607366865934,0.794421481435,0,62.6929473877,23.2736568451,48.7247848511,94.4418182373,43.2753944397,43.2753944397,62.6929473877,62.6929473877,38.8917312622,-2.7252407074,0.0,0.00820442009717,2.95863509178,0.0452288649976,0.0370244458318,-0.0199012756348,-0.000855830614455,-0.328323364258,-0.00348858954385,1.18973922729,0.0267566777766,0.047191619873,0.00121193949599,23.2537555695,94.113494873,44.465133667,38.9389228821,139
1630857069773418595,45,1630857069773418595,r200131356/base_footprint,0,1630857069773419644,alta/m1vW10zy74W/map,2.22486114018,2.68926409183,0.0,0.0,0.0,-0.5967286759,0.802443074217,0,62.6646537781,23.5796890259,48.7247848511,94.0320892334,43.1828956604,43.1828956604,62.6646537781,62.6646537781,36.9270477295,-2.94636797905,0.0,0.00861246231943,3.03518676758,0.0516481921077,0.0430357307196,-0.198987960815,-0.00851077865809,0.0715484619141,0.000760315568186,1.28769683838,0.0289561431855,1.27270889282,0.0333172008395,23.3807010651,94.1036376953,44.4705924988,38.1997566223,134
1630857069872807916,46,1630857069872807916,r200131356/base_footprint,0,1630857069872808192,alta/m1vW10zy74W/map,2.26206127497,2.56504170385,0.0,0.0,0.0,-0.586631685653,0.809853854339,0,62.5635948181,24.8640632629,48.8664093018,93.9168319702,43.1629257202,43.1629257202,62.5635948181,62.5635948181,38.1154632568,-2.55371069908,0.0,0.0142383119091,3.10004043579,0.0616116970778,0.0473733842373,-1.87483787537,-0.0815528929234,0.211273193359,0.00224452838302,1.17295837402,0.0264561846852,-0.215293884277,-0.00568055221811,22.9892253876,94.1281051636,44.3358840942,37.9001693726,137
1630857069972912496,47,1630857069972912496,r200131356/base_footprint,0,1630857069972912760,alta/m1vW10zy74W/map,2.26200491159,2.56382396685,0.0,0.0,0.0,-0.586698772666,0.809805254461,0,62.5437660217,20.9095401764,50.4233512878,94.0482940674,43.2743644714,43.2743644714,62.5437660217,62.5437660217,40.1492385864,-2.42541432381,0.0,0.0175016820431,3.13742256165,0.0681167840958,0.0506151020527,2.07968521118,0.0904634743929,0.0798110961914,0.000847898656502,1.0615196228,0.0239426735789,-2.24906921387,-0.059341929853,22.9892253876,94.1281051636,44.3358840942,37.9001693726,137
1630857070072633125,48,1630857070072633125,r200131356/base_footprint,0,1630857070072633386,alta/m1vW10zy74W/map,2.31638180583,2.40727892399,0.0,0.0,0.0,-0.574376142785,0.818591501666,0,62.1172943115,22.8543872833,53.8159446716,92.6837844849,43.3403701782,43.3403701782,62.1172943115,62.1172943115,43.6263656616,-2.86387181282,0.0,0.0221898220479,3.21259593964,0.0839497670531,0.0617599450052,-0.286191940308,-0.0126812066883,1.48698425293,0.0157902948558,0.955883026123,0.0215793196112,-6.26742553711,-0.16776239872,22.568195343,94.1707687378,44.2962532043,37.3589401245,126
1630857070172831949,49,1630857070172831949,r200131356/base_footprint,0,1630857070172832220,alta/m1vW10zy74W/map,2.35750669843,2.29391038451,0.0,0.0,0.0,-0.568706998743,0.822540181134,0,62.6063537598,18.7675075531,51.8936004639,93.3717422485,43.446018219,43.446018219,62.6063537598,62.6063537598,38.4409179688,2.84074950218,0.0,0.0300888009369,3.30940127373,0.108203299344,0.0781144946814,3.71188163757,0.165123775601,0.778045654297,0.00826391298324,0.883331298828,0.0199265573174,-1.47228622437,-0.0398252829909,22.4793891907,94.1497879028,44.3293495178,36.9686317444,131
1630857070272865793,50,1630857070272865793,r200131356/base_footprint,0,1630857070272866068,alta/m1vW10zy74W/map,2.39335498376,2.20935532445,0.0,0.0,0.0,-0.56688541976,0.823796650189,0,62.2200813293,23.8187084198,48.9850349426,91.287689209,43.4096107483,43.4096107483,62.2200813293,62.2200813293,37.4980354309,-3.06501030922,0.0,0.0385044589639,3.35398101807,0.122306659818,0.0838022008538,-1.27950668335,-0.0567680560052,2.79576873779,0.0297158379108,0.945167541504,0.0213092602789,-0.478233337402,-0.0129183111712,22.5392017365,94.0834579468,44.3547782898,37.0198020935,123
1630857070373614928,51,1630857070373614928,r200131356/base_footprint,0,1630857070373616030,alta/m1vW10zy74W/map,2.45973138152,2.04086909084,0.0,0.0,0.0,-0.561971486499,0.827156604496,0,63.0014610291,20.9257469177,48.8472175598,92.6131362915,43.500617981,43.500617981,63.0014610291,63.0014610291,29.1876678467,3.14104008675,0.0,0.0415966361761,3.42619395256,0.123677715659,0.082081079483,1.45790100098,0.0651324093342,1.46159362793,0.0155365169048,0.820251464844,0.0185071155429,6.97467422485,0.192871198058,22.3836479187,94.0747299194,44.3208694458,36.1623420715,123
1630857070472673552,52,1630857070472673552,r200131356/base_footprint,0,1630857070472673825,alta/m1vW10zy74W/map,2.49990422889,1.94297327495,0.0,0.0,0.0,-0.560008796244,0.828486661407,0,63.0872650146,20.6349201202,48.7143363953,92.5683364868,43.4823036194,43.4823036194,63.0872650146,63.0872650146,27.2841053009,-3.02546858788,0.0,0.0453163832426,3.48802065849,0.131913274527,0.086596891284,1.85206222534,0.0823615267873,1.42986297607,0.015211599879,0.826011657715,0.0186423622072,8.14614295959,0.229920566082,22.4869823456,93.9981994629,44.3083152771,35.4302482605,120
1630857070572787849,53,1630857070572787849,r200131356/base_footprint,0,1630857070572788163,alta/m1vW10zy74W/map,2.53969983652,1.84391156631,0.0,0.0,0.0,-0.555067302309,0.831805439936,0,62.9676704407,25.3945484161,48.71717453,93.9130630493,43.6080551147,43.6080551147,62.9676704407,62.9676704407,35.6359596252,2.99860644341,0.0,0.0469313487411,3.55119609833,0.145865425467,0.0989340767264,-2.67702102661,-0.117839455605,0.0404052734375,0.0004300562141,0.627136230469,0.0141773149371,-0.839431762695,-0.0241240095347,22.7175273895,93.9534683228,44.2351913452,34.7965278625,114
1630857070672713013,54,1630857070672713013,r200131356/base_footprint,0,1630857070672713241,alta/m1vW10zy74W/map,2.61253146488,1.6759889551,0.0,0.0,0.0,-0.537741773351,0.843109592635,0,63.1949729919,26.2371616364,48.6961555481,92.8015441895,43.78931427,43.78931427,63.1949729919,63.1949729919,29.5006256104,3.01392507553,0.0,0.0489871278405,3.6051492691,0.141091644764,0.0921045169234,-3.16312217712,-0.137085750699,1.20901489258,0.0128604155034,0.559547424316,0.0126169510186,3.75897598267,0.113019272685,23.0740394592,94.010559082,44.3488616943,33.259601593,102
1630857070772878541,55,1630857070772878541,r200131356/base_footprint,0,1630857070772878758,alta/m1vW10zy74W/map,2.66184852774,1.57208907179,0.0,0.0,0.0,-0.524087259759,0.851664572563,0,63.4872550964,24.632352829,48.7670288086,93.5936355591,44.0556945801,44.0556945801,63.4872550964,63.4872550964,29.9679927826,2.96034765244,0.0,0.04844712466,3.69202470779,0.0877067968249,0.0392596721649,-1.3506565094,-0.0580136626959,0.404747009277,0.00430589355528,0.316566467285,0.00713433278725,2.88286018372,0.0877560228109,23.2816963196,93.9983825684,44.3722610474,32.8508529663,98
1630857070872846110,56,1630857070872846110,r200131356/base_footprint,0,1630857070872846369,alta/m1vW10zy74W/map,2.71063215058,1.47504427525,0.0,0.0,0.0,-0.51484184232,0.857285178571,0,63.9052886963,19.4570140839,48.7623443604,94.0859832764,44.2332038879,44.2332038879,63.9052886963,63.9052886963,26.1329288483,2.85368156433,0.0,0.0491533130407,3.71252131462,0.0722737237811,0.023120412603,3.87466430664,0.166068822145,-0.0610885620117,-0.000649706227705,0.128059387207,0.00288673886098,6.36062431335,0.195750340819,23.3316783905,94.0248947144,44.3612632751,32.4935531616,96
1630857070972813331,57,1630857070972813331,r200131356/base_footprint,0,1630857070972813552,alta/m1vW10zy74W/map,2.86740729335,1.19933212841,0.0,0.0,0.0,-0.494158090882,0.869372061442,0,63.8708648682,25.4602603912,48.7982940674,94.9186630249,44.435836792,44.435836792,63.8708648682,63.8708648682,31.9386386871,-2.99737811089,0.0,0.0416040681303,3.71602654457,0.0486754477024,0.00707137770951,-2.51263427734,-0.109494298697,-0.80184173584,-0.00851964298636,-0.100250244141,-0.00226116878912,0.0108375549316,0.000339209160302,22.9476261139,94.1168212891,44.3355865479,31.9494762421,68
1630857071072904108,58,1630857071072904108,r200131356/base_footprint,0,1630857071072904434,alta/m1vW10zy74W/map,2.91979950983,1.1120186067,0.0,0.0,0.0,-0.489282964464,0.872125094631,0,63.6593093872,16.3398685455,48.7639007568,95.8829803467,44.3789176941,44.3789176941,63.6593093872,63.6593093872,38.603477478,-3.11902928352,0.0,0.0304434671998,3.67776942253,0.00530901085585,0.0251344572753,5.60865974426,0.255536943674,-1.69197845459,-0.0179632697254,-0.0478973388672,-0.00108044745866,-6.29514694214,-0.194845929742,21.9485282898,94.1910018921,44.3310203552,32.3083305359,63
1630857071173845109,59,1630857071173845109,r200131356/base_footprint,0,1630857071173849697,alta/m1vW10zy74W/map,3.07722418615,0.855348053942,0.0,0.0,0.0,-0.47851207074,0.878080974715,0,63.4249610901,14.5969495773,48.8261642456,94.8797225952,44.3721389771,44.3721389771,63.4249610901,63.4249610901,39.1368179321,2.78631496429,0.0,0.0296564977616,3.6485888958,0.000966279185377,0.0286902189255,5.1772069931,0.261816829443,-0.612670898438,-0.00649931095541,-0.0574951171875,-0.0012974293204,-4.70943832397,-0.136793404818,19.7741565704,94.2670516968,44.3146438599,34.4273796082,59
1630857071272866061,60,1630857071272866061,r200131356/base_footprint,0,1630857071272866329,alta/m1vW10zy74W/map,3.21173907465,0.647680420552,0.0,0.0,0.0,-0.472300338484,0.881437683712,0,63.6777076721,9.16954994202,48.7792472839,95.0437164307,44.4069824219,44.4069824219,63.6777076721,63.6777076721,35.5540924072,-3.01519656181,0.0,0.0201520416886,3.53380227089,0.00412920676172,0.0242812484503,8.53235244751,0.482002019882,-0.880981445312,-0.00935594551265,-0.0156364440918,-0.000352240807842,0.252342224121,0.00704739894718,17.7019023895,94.1627349854,44.3913459778,35.8064346313,50
1630857071372859728,61,1630857071372859728,r200131356/base_footprint,0,1630857071372859902,alta/m1vW10zy74W/map,3.35483026277,0.436597776676,0.0,0.0,0.0,-0.463045301635,0.886334614372,0,63.0285263062,16.0899658203,48.7112846375,92.7317962646,44.4206962585,44.4206962585,63.0285263062,63.0285263062,39.0644798279,-3.10749912262,0.0,0.0174110140651,3.39197063446,0.00961773563176,0.00779327796772,-1.05369281769,-0.070076726377,1.18717956543,0.0126404650509,-0.127658843994,-0.00288214255124,-2.4048538208,-0.0655995160341,15.0362730026,93.9189758301,44.2930374146,36.6596260071,52
1630857071472734217,62,1630857071472734217,r200131356/base_footprint,0,1630857071472734514,alta/m1vW10zy74W/map,3.62360117038,0.0607188920673,0.0,0.0,0.0,-0.440415395789,0.897794118466,0,62.7054138184,17.4714660645,48.6772689819,92.9721908569,44.3629570007,44.3629570007,62.7054138184,62.7054138184,45.1223640442,3.11478924751,0.0,0.0267888270319,3.20237994194,0.0154110183939,0.0113778086379,-2.4862279892,-0.16591180861,0.511276245117,0.00546916201711,0.0723152160645,0.00162742822431,-6.95211791992,-0.182134479284,14.9852380753,93.4834671021,44.4352722168,38.1702461243,52
1630857071572837403,63,1630857071572837403,r200131356/base_footprint,0,1630857071572837674,alta/m1vW10zy74W/map,3.77904603896,-0.133821264553,0.0,0.0,0.0,-0.423395103403,0.905945134329,0,62.9820556641,22.7941169739,48.6658363342,92.8697967529,44.2907218933,44.2907218933,62.9820556641,62.9820556641,38.9940490723,2.60369753838,0.0,0.024338806048,3.13484764099,0.0119861792773,0.0123526258394,-6.93518829346,-0.437304973602,0.498886108398,0.00534318480641,-0.0867958068848,-0.00196353159845,-1.81120681763,-0.0487108230591,15.8589286804,93.3686828613,44.2039260864,37.1828422546,48
1630857071672599110,64,1630857071672599110,r200131356/base_footprint,0,1630857071672599391,alta/m1vW10zy74W/map,4.01839843932,-0.402717630031,0.0,0.0,0.0,-0.398571789568,0.91713713727,0,63.2452163696,19.7446422577,48.6256752014,93.2529067993,44.3120384216,44.3120384216,63.2452163696,63.2452163696,35.8665847778,2.61296105385,0.0,0.021803945303,3.0646674633,0.00757179269567,0.0142321512103,-0.517795562744,-0.0269308630377,0.188117980957,0.00201322697103,0.136405944824,0.00306885759346,0.127635955811,0.00354601256549,19.2268466949,93.4410247803,44.4484443665,35.9942207336,49
1630857071772675182,65,1630857071772675182,r200131356/base_footprint,0,1630857071772675444,alta/m1vW10zy74W/map,4.02680942476,-0.414161080386,0.0,0.0,0.0,-0.39898937802,0.916955547574,0,63.4446716309,29.7765617371,48.7096862793,93.8805541992,44.5188179016,44.5188179016,63.4446716309,63.4446716309,36.7691459656,2.62712669373,0.0,0.0250183567405,2.91945171356,0.00507489033043,0.0300932470709,-10.5828704834,-0.551372349262,-0.45524597168,-0.00487283337861,-0.0436668395996,-0.000981825520284,-0.762462615967,-0.0211755856872,19.1936912537,93.4253082275,44.475151062,36.0066833496,50
1630857071872906852,66,1630857071872906852,r200131356/base_footprint,0,1630857071872907268,alta/m1vW10zy74W/map,4.26563165561,-0.664711066995,0.0,0.0,0.0,-0.380961458898,0.924590918641,0,63.0407333374,24.632352829,48.8122329712,90.5225753784,44.61302948,44.61302948,63.0407333374,63.0407333374,32.9687843323,2.70326519012,0.0,0.0154027165845,2.78844666481,0.0249270293862,0.040329746902,-3.40100669861,-0.160187989473,3.0251083374,0.0323376096785,-0.241386413574,-0.00544010521844,0.655986785889,0.0195090342313,21.2313461304,93.5476837158,44.3716430664,33.6247711182,50
1630857071973358056,67,1630857071973358056,r200131356/base_footprint,0,1630857071973360834,alta/m1vW10zy74W/map,4.60357902001,-0.994242985614,0.0,0.0,0.0,-0.373627404926,0.927578871196,0,62.9093208313,17.8337993622,48.6849136353,90.3003234863,44.6279182434,44.6279182434,62.9093208313,62.9093208313,34.6949157715,2.77937102318,0.0,0.00735215423629,2.59587192535,0.061408508569,0.068760663271,7.5627822876,0.2977873981,4.16179656982,0.0440578348935,0.39771270752,0.00883302930743,-5.44306755066,-0.186076015234,25.3965816498,94.4621200562,45.0256309509,29.2518482208,81
1630857072073068859,68,1630857072073068859,r200131356/base_footprint,0,1630857072073069121,alta/m1vW10zy74W/map,4.81550906529,-1.20601431361,0.0,0.0,0.0,-0.379559826614,0.925167194631,0,63.4084434509,17.8337993622,48.5780029297,92.4425125122,44.6270294189,44.6270294189,63.4084434509,63.4084434509,33.4129905701,2.67294931412,0.0,0.000714564695954,2.42565822601,0.0745111703873,0.0752257332206,8.46912193298,0.32198408246,2.14862823486,0.0227148998529,0.385368347168,0.00856138207018,-4.94917869568,-0.173876166344,26.3029212952,94.5911407471,45.0123977661,28.4638118744,75
1630857072172827540,69,1630857072172827540,r200131356/base_footprint,0,1630857072172828003,alta/m1vW10zy74W/map,5.06419469734,-1.46205592242,0.0,0.0,0.0,-0.393305185398,0.919407978614,0,63.3546295166,23.1125526428,48.5780029297,90.9232940674,44.6777153015,44.6777153015,63.3546295166,63.3546295166,29.4598579407,2.71429347992,0.0,0.0121151935309,2.14412546158,0.077868938446,0.0657537430525,2.03176879883,0.0808042809367,3.2170791626,0.0341732129455,0.0625228881836,0.00139746430796,0.0743751525879,0.00251826923341,25.1443214417,94.14037323,44.7402381897,29.5342330933,61
1630857072272595639,70,1630857072272595639,r200131356/base_footprint,0,1630857072272595910,alta/m1vW10zy74W/map,5.35375157255,-1.77996438619,0.0,0.0,0.0,-0.412875609111,0.910787423827,0,63.7275314331,23.4815883636,48.6674194336,89.3163909912,44.7953071594,44.7953071594,63.7275314331,63.7275314331,18.2327461243,2.78639173508,0.0,0.00660298252478,1.81813001633,0.0537830926478,0.047180108726,4.38793563843,0.157445654273,4.87945556641,0.0518011748791,-0.0645370483398,-0.00144278863445,10.9289779663,0.37477132678,27.8695240021,94.1958465576,44.7307701111,29.1617240906,65
1630857072372874658,71,1630857072372874658,r200131356/base_footprint,0,1630857072372875206,alta/m1vW10zy74W/map,5.42496547818,-1.86481792437,0.0,0.0,0.0,-0.418090678547,0.908405297493,0,63.5113525391,28.8425045013,48.6534881592,91.6124420166,44.9633560181,44.9633560181,63.5113525391,63.5113525391,32.2046775818,2.90283846855,0.0,0.00900665763766,1.47713303566,0.0331949517131,0.0241882950068,-0.146863937378,-0.00511798774824,2.72756958008,0.0289121177047,-0.26789855957,-0.00599386543036,-3.51222038269,-0.122409187257,28.695640564,94.3400115967,44.6954574585,28.6924571991,70
1630857072472794694,72,1630857072472794694,r200131356/base_footprint,0,1630857072472794895,alta/m1vW10zy74W/map,5.58336701534,-2.04987025235,0.0,0.0,0.0,-0.427505593375,0.904012703247,0,64.1480331421,32.6375694275,48.6197471619,93.1231307983,45.229927063,45.229927063,64.1480331421,64.1480331421,29.061914444,2.78589868546,0.0,0.00984598882496,1.22371172905,0.0141210136935,0.00427502486855,-4.26054382324,-0.150140613317,1.66743469238,0.0175907239318,-0.546531677246,-0.0122312027961,-1.35273742676,-0.0488191135228,28.3770256042,94.7905654907,44.6833953857,27.7091770172,92
1630857072572743853,73,1630857072572743853,r200131356/base_footprint,0,1630857072572744080,alta/m1vW10zy74W/map,5.67157969992,-2.16031884345,0.0,0.0,0.0,-0.436572755427,0.899668955349,0,64.4868240356,34.0028686523,48.5450439453,94.7631759644,45.58335495,45.58335495,64.4868240356,64.4868240356,32.6848716736,2.77693533897,0.0,0.00864449422807,0.82121437788,0.0384597964585,0.0471042916179,-7.54375076294,-0.285109698772,0.595756530762,0.00624751672149,-0.51619720459,-0.0114539554343,-4.58514976501,-0.163174197078,26.4591178894,95.3589324951,45.0671577454,28.0997219086,219
1630857072872767092,74,1630857072872767092,r200131356/base_footprint,0,1630857072872767303,alta/m1vW10zy74W/map,5.89174264256,-2.45152720098,0.0,0.0,0.0,-0.46036589753,0.88772926075,0,65.1933059692,28.6403083801,48.447063446,94.2771072388,45.998790741,45.998790741,65.1933059692,65.1933059692,22.7050037384,3.01344680786,0.0,0.00361747015268,0.0867121741176,0.0641064122319,0.067723877728,-0.855379104614,-0.030785722658,1.36363220215,0.0142578594387,-0.496829986572,-0.010918869637,3.52324676514,0.134330227971,27.7849292755,95.6407394409,45.5019607544,26.2282505035,349
1630857072972747831,75,1630857072972747831,r200131356/base_footprint,0,1630857072972748046,alta/m1vW10zy74W/map,5.93101050808,-2.5075350441,0.0,0.0,0.0,-0.467195113937,0.884154243056,0,65.141746521,17.7427062988,48.2195777893,95.2491836548,46.2517585754,46.2517585754,65.141746521,65.141746521,29.864648819,3.02515292168,0.0,0.00518788350746,0.402474611998,0.0125848064199,0.0177726894617,10.3265647888,0.367895722389,0.415000915527,0.00433810101822,-0.70764541626,-0.0155375823379,-3.85285186768,-0.148119404912,28.0692710876,95.6641845703,45.5441131592,26.0117969513,359
1630857073072559371,76,1630857073072559371,r200131356/base_footprint,0,1630857073072559651,alta/m1vW10zy74W/map,5.97339759095,-2.57234633874,0.0,0.0,0.0,-0.47614011091,0.879369430207,0,65.2619247437,20.0,48.0122070312,96.0367889404,46.4025802612,46.4025802612,65.2619247437,65.2619247437,32.1656608582,2.84355688095,0.0,0.00777403078973,0.685717880726,0.0470749102533,0.0393008776009,8.67350769043,0.302492022514,-0.353729248047,-0.00369688472711,-0.737651824951,-0.0161535739899,-6.32416534424,-0.244729071856,28.6735076904,95.6830596924,45.6649284363,25.8414955139,379
1630857073172759008,77,1630857073172759008,r200131356/base_footprint,0,1630857073172759257,alta/m1vW10zy74W/map,5.99829112012,-2.61344175396,0.0,0.0,0.0,-0.506625278058,0.862166357284,0,65.0551834106,16.235294342,47.832572937,96.9073181152,46.4983215332,46.4983215332,65.0551834106,65.0551834106,40.0548934937,2.89867687225,0.0,0.0178693588823,0.87244784832,0.0526491887867,0.0347798317671,12.8757667542,0.442298084497,-1.22902679443,-0.0128454091027,-0.782794952393,-0.0171231739223,-14.3086643219,-0.555757641792,29.1110610962,95.6782913208,45.7155265808,25.7462291718,390
1630857073272627645,78,1630857073272627645,r200131356/base_footprint,0,1630857073272627830,alta/m1vW10zy74W/map,5.99187485542,-2.61277627908,0.0,0.0,0.0,-0.50933581751,0.860567850318,0,65.2367172241,9.43043899536,47.7263374329,97.1992034912,46.6588096619,46.6588096619,65.2367172241,65.2367172241,39.5713691711,3.11589789391,0.0,0.0231279022992,0.955595731735,0.0467226542532,0.0235947500914,19.6806221008,0.67605304718,-1.52091217041,-0.0158961042762,-0.943283081055,-0.0206337571144,-13.8251399994,-0.536977291107,29.1110610962,95.6782913208,45.7155265808,25.7462291718,390
1630857074373173321,79,1630857074373173321,r200131356/base_footprint,0,1630857074373175089,alta/m1vW10zy74W/map,5.98281609055,-2.60659824526,0.0,0.0,0.0,-0.567395767819,0.823445227481,0,65.5725326538,11.764705658,47.722694397,96.8271102905,46.7499580383,46.7499580383,65.5725326538,65.5725326538,33.1714744568,2.86729764938,0.0,0.00262092566118,1.40881073475,0.0473339110613,0.0499548353255,16.9088020325,0.58970117569,-1.14405059814,-0.0119566684589,-1.08502960205,-0.023760676384,-7.32997894287,-0.28365150094,28.6735076904,95.6830596924,45.6649284363,25.8414955139,379
1630857074472671648,80,1630857074472671648,r200131356/base_footprint,0,1630857074472671874,alta/m1vW10zy74W/map,5.97649668505,-2.6005151868,0.0,0.0,0.0,-0.58965585774,0.807654610234,0,66.0380172729,17.9206562042,47.528301239,96.6851730347,46.9951171875,46.9951171875,66.0380172729,66.0380172729,26.9295101166,2.91131711006,0.0,0.00381327327341,1.40941047668,0.0457890592515,0.0496023334563,10.7528514862,0.375009983778,-1.00211334229,-0.010473257862,-1.33018875122,-0.0291293300688,-1.08801460266,-0.0421033911407,28.6735076904,95.6830596924,45.6649284363,25.8414955139,379
1630857074572937114,81,1630857074572937114,r200131356/base_footprint,0,1630857074572937370,alta/m1vW10zy74W/map,5.97649668505,-2.6005151868,0.0,0.0,0.0,-0.58965585774,0.807654610234,0,65.763961792,15.3297681808,47.528301239,96.6851730347,47.1160621643,47.1160621643,65.763961792,65.763961792,33.1687850952,3.132147789,0.0,0.00132818520069,1.31806623936,0.0481780171394,0.0495062023401,13.3437395096,0.465368241072,-1.00211334229,-0.010473257862,-1.45113372803,-0.0317778587341,-7.3272895813,-0.283547431231,28.6735076904,95.6830596924,45.6649284363,25.8414955139,379
1630857074672768507,82,1630857074672768507,r200131356/base_footprint,0,1630857074672768749,alta/m1vW10zy74W/map,5.97567045426,-2.60547016466,0.0,0.0,0.0,-0.61435601724,0.789028950091,0,66.17237854,14.9321269989,47.528301239,97.1175994873,47.179069519,47.179069519,66.17237854,66.17237854,28.0544300079,2.99641299248,0.0,0.00106643117033,1.08934831619,0.0241553056985,0.0230888742954,13.7413806915,0.479236125946,-1.43453979492,-0.014992620796,-1.51414108276,-0.0331576354802,-2.21293449402,-0.0856349244714,28.6735076904,95.6830596924,45.6649284363,25.8414955139,379
1630857074772577956,83,1630857074772577956,r200131356/base_footprint,0,1630857074772578198,alta/m1vW10zy74W/map,5.97499352951,-2.62264913021,0.0,0.0,0.0,-0.635824060519,0.771834026242,0,66.4876708984,19.1737766266,47.4152641296,96.6344909668,47.4603996277,47.4603996277,66.4876708984,66.4876708984,23.6783695221,2.93758797646,0.0,0.00144827237818,0.945515334606,0.00901556946337,0.0104638412595,9.9372844696,0.341357678175,-0.956199645996,-0.00999390427023,-1.74487304688,-0.0381680615246,2.06785964966,0.0803169906139,29.1110610962,95.6782913208,45.7155265808,25.7462291718,390
1630857074872879981,84,1630857074872879981,r200131356/base_footprint,0,1630857074872880309,alta/m1vW10zy74W/map,5.97499352951,-2.62264913021,0.0,0.0,0.0,-0.635824060519,0.771834026242,0,66.5593795776,23.0769233704,47.4152641296,96.6344909668,47.585899353,47.585899353,66.5593795776,66.5593795776,23.7430400848,2.96631145477,0.0,0.0043841637671,0.766109824181,0.00805608090013,0.0036719169002,6.03413772583,0.207279890776,-0.956199645996,-0.00999390427023,-1.87037277222,-0.0409132950008,2.00318908691,0.077805146575,29.1110610962,95.6782913208,45.7155265808,25.7462291718,390
1630857074972607583,85,1630857074972607583,r200131356/base_footprint,0,1630857074972607841,alta/m1vW10zy74W/map,5.97870573068,-2.65553288807,0.0,0.0,0.0,-0.655113748519,0.755530261804,0,66.089012146,27.0405845642,47.3665542603,96.5396652222,47.7009506226,47.7009506226,66.089012146,66.089012146,33.1107826233,2.90255522728,0.0,0.0028797283303,0.638048112392,0.013629771769,0.0165094994009,2.07047653198,0.0711233615875,-0.861373901367,-0.00900281406939,-1.98542404175,-0.0434299707413,-7.36455345154,-0.286043971777,29.1110610962,95.6782913208,45.7155265808,25.7462291718,390
1630857075072530889,86,1630857075072530889,r200131356/base_footprint,0,1630857075072531127,alta/m1vW10zy74W/map,5.97870573068,-2.65553288807,0.0,0.0,0.0,-0.655113748519,0.755530261804,0,66.5534515381,28.6706809998,47.3234672546,96.5396652222,47.9190444946,47.9190444946,66.5534515381,66.5534515381,27.1064109802,2.77825117111,0.0,0.00592306861654,0.409950077534,0.0513862259686,0.0573092959821,0.440380096436,0.0151275862008,-0.861373901367,-0.00900281406939,-2.20351791382,-0.0482006445527,-1.36018180847,-0.0528303310275,29.1110610962,95.6782913208,45.7155265808,25.7462291718,390
1630857075173853706,87,1630857075173853706,r200131356/base_footprint,0,1630857075173854110,alta/m1vW10zy74W/map,5.98496716328,-2.71052405847,0.0,0.0,0.0,-0.666192974104,0.745779405223,0,66.697845459,38.4191169739,47.3193283081,96.9751052856,48.1185455322,48.1185455322,66.697845459,66.697845459,28.2293834686,2.75684189796,0.0,0.0066142086871,0.322771906853,0.0566959418356,0.0633101537824,-8.66021347046,-0.291012525558,-1.3111038208,-0.0137053001672,-2.33296966553,-0.0509542487562,-2.67747497559,-0.104785710573,29.7589035034,95.6640014648,45.7855758667,25.551908493,411
1630857075272977047,88,1630857075272977047,r200131356/base_footprint,0,1630857075272977288,alta/m1vW10zy74W/map,5.98496716328,-2.71052405847,0.0,0.0,0.0,-0.666192974104,0.745779405223,0,66.9494018555,35.2485198975,47.4509620667,96.9751052856,48.2896385193,48.2896385193,66.9494018555,66.9494018555,25.5492210388,2.66385340691,0.0,0.0125659527257,0.187532454729,0.046532291919,0.0590982437134,-5.48961639404,-0.184469714761,-1.3111038208,-0.0137053001672,-2.50406265259,-0.054691080004,0.00268745422363,0.00010517625924,29.7589035034,95.6640014648,45.7855758667,25.551908493,411
1630857075372621546,89,1630857075372621546,r200131356/base_footprint,0,1630857075372621751,alta/m1vW10zy74W/map,5.98947386844,-2.7635107766,0.0,0.0,0.0,-0.665242560098,0.746627307453,0,66.9627075195,39.8084831238,47.4509620667,97.0915145874,48.4692001343,48.4692001343,66.9627075195,66.9627075195,27.6681404114,2.72493934631,0.0,0.01019538939,0.0510107055306,0.0137662831694,0.0239616725594,-9.56313705444,-0.316185414791,-1.46431732178,-0.0153127703816,-2.61308670044,-0.0569844767451,-2.17634391785,-0.0853742882609,30.2453460693,95.6271972656,45.8561134338,25.4917964935,428
1630857075472722051,90,1630857075472722051,r200131356/base_footprint,0,1630857075472722267,alta/m1vW10zy74W/map,5.99386163698,-2.82379675708,0.0,0.0,0.0,-0.662217727075,0.749311471918,0,67.0632247925,36.1605110168,47.5116004944,97.3912353516,48.6842956543,48.6842956543,67.0632247925,67.0632247925,29.260766983,2.7141764164,0.0,0.0109059037641,0.0334835201502,0.0294679496437,0.0185620449483,-5.40333175659,-0.175677090883,-1.76332092285,-0.0184393953532,-2.75227355957,-0.0599205829203,-3.93524932861,-0.155386731029,30.7571792603,95.6279144287,45.9320220947,25.3255176544,428
1630857075572732972,91,1630857075572732972,r200131356/base_footprint,0,1630857075572733258,alta/m1vW10zy74W/map,6.0012266263,-2.88380770176,0.0,0.0,0.0,-0.657785871913,0.753204983196,0,67.409362793,34.7426452637,47.6586608887,97.9410705566,48.9822731018,48.9822731018,67.409362793,67.409362793,28.2278938293,2.74903464317,0.0,0.0135014085099,0.083392329514,0.0656325444579,0.0521311350167,-3.73989295959,-0.12063100189,-2.31771087646,-0.0242379158735,-2.99145126343,-0.065044529736,-3.00086212158,-0.118954226375,31.0027523041,95.6233596802,45.9908218384,25.2270317078,422
1630857075672671672,92,1630857075672671672,r200131356/base_footprint,0,1630857075672671887,alta/m1vW10zy74W/map,6.00942002476,-2.94051258076,0.0,0.0,0.0,-0.652562685185,0.757734743762,0,67.4939117432,35.2485198975,47.6586608887,97.7535400391,49.0383110046,49.0383110046,67.4939117432,67.4939117432,26.636133194,2.71299695969,0.0,0.0209497101605,0.106489248574,0.0766694918275,0.055719781667,-3.86455535889,-0.123137898743,-2.11512756348,-0.0221158787608,-2.96635055542,-0.0643851608038,-1.48225021362,-0.0589272938669,31.3839645386,95.6384124756,46.0719604492,25.1538829803,421
1630857075772747209,93,1630857075772747209,r200131356/base_footprint,0,1630857075772747400,alta/m1vW10zy74W/map,6.01027944958,-2.94334134262,0.0,0.0,0.0,-0.652375301378,0.757896078728,0,67.8103561401,42.0955886841,48.1144599915,98.0919570923,49.2211990356,49.2211990356,67.8103561401,67.8103561401,24.133638382,2.79310202599,0.0,0.0252852700651,0.122961618006,0.0716490074992,0.0463637374341,-10.7116241455,-0.341308832169,-2.4535446167,-0.0256543848664,-3.14923858643,-0.0683547779918,1.02024459839,0.0405601225793,31.3839645386,95.6384124756,46.0719604492,25.1538829803,421
1630857075872943460,94,1630857075872943460,r200131356/base_footprint,0,1630857075872943686,alta/m1vW10zy74W/map,6.02198881023,-3.01342799109,0.0,0.0,0.0,-0.645588063968,0.76368583309,0,67.8677139282,36.5808830261,48.1144599915,97.8866577148,49.4022026062,49.4022026062,67.8677139282,67.8677139282,24.3169326782,2.82224178314,0.0,0.0233057457954,0.128691360354,0.0568881109357,0.033582367003,-3.52976608276,-0.10679718107,-2.29857635498,-0.024046683684,-3.09829330444,-0.0669121295214,0.0838375091553,0.00343585503288,33.0511169434,95.5880813599,46.3039093018,24.4007701874,381
1630857075973915176,95,1630857075973915176,r200131356/base_footprint,0,1630857075973916221,alta/m1vW10zy74W/map,6.03304740961,-3.08264729159,0.0,0.0,0.0,-0.639346010199,0.768919163009,0,68.0579452515,42.5660018921,48.5416984558,97.2309799194,49.7005653381,49.7005653381,68.0579452515,68.0579452515,21.7545642853,2.75037646294,0.0,0.00770655088127,0.142064347863,0.00136822776403,0.00633832300082,-7.7297668457,-0.221888691187,-1.63483428955,-0.0171014666557,-3.23739242554,-0.0696765258908,2.01807022095,0.0848904773593,34.8362350464,95.5961456299,46.4631729126,23.7726345062,343
1630857076072642712,96,1630857076072642712,r200131356/base_footprint,0,1630857076072642926,alta/m1vW10zy74W/map,6.05876802481,-3.2112732569,0.0,0.0,0.0,-0.627664471482,0.778483982648,0,67.8686904907,45.4117660522,48.7628898621,97.5065765381,49.8313102722,49.8313102722,67.8686904907,67.8686904907,27.5654392242,2.71365761757,0.0,0.00297334929928,0.152185559273,0.00045539526036,0.00251795421354,-6.66662216187,-0.172063425183,-2.05446624756,-0.0215235296637,-2.88292312622,-0.0614062212408,-4.33271789551,-0.186492055655,38.7451438904,95.4521102905,46.948387146,23.2327213287,281
1630857076172790441,97,1630857076172790441,r200131356/base_footprint,0,1630857076172790960,alta/m1vW10zy74W/map,6.05832231873,-3.21299029047,0.0,0.0,0.0,-0.627751180672,0.778414064085,0,68.2970199585,47.2941169739,48.7628898621,97.4865951538,50.0297775269,50.0297775269,68.2970199585,68.2970199585,21.9269714355,2.75347590446,0.0,0.00251275114715,0.156850472093,8.39101048768e-05,0.00242884107865,-8.5489730835,-0.220646306872,-2.03448486328,-0.0213141944259,-3.08139038086,-0.065633572638,1.30574989319,0.0562030524015,38.7451438904,95.4521102905,46.948387146,23.2327213287,281
1630857076272666919,98,1630857076272666919,r200131356/base_footprint,0,1630857076272667130,alta/m1vW10zy74W/map,6.08323948708,-3.32362981166,0.0,0.0,0.0,-0.621671376139,0.78327817542,0,68.264175415,48.6461257935,49.0999755859,96.3600769043,50.2458457947,50.2458457947,68.264175415,68.264175415,20.7962379456,2.72069811821,0.0,0.00189000333194,0.165424048901,0.0003150452103,0.00220504845493,-7.82846069336,-0.191790997982,-1.09185791016,-0.0114608826116,-3.03357315063,-0.064253911376,2.60488128662,0.111314386129,40.8176651001,95.2682189941,47.212272644,23.4011192322,254
1630857076372782721,99,1630857076372782721,r200131356/base_footprint,0,1630857076372782993,alta/m1vW10zy74W/map,6.09739257744,-3.38088265799,0.0,0.0,0.0,-0.618214132267,0.786009724282,0,67.9938812256,42.5882339478,56.0670394897,95.5402374268,50.4276618958,50.4276618958,67.9938812256,67.9938812256,24.67370224,2.74718904495,0.0,0.00183304643724,0.172704622149,0.000111520159408,0.0019445666112,-1.29393768311,-0.0313345380127,-0.310211181641,-0.00325749348849,-3.13062286377,-0.066190674901,-1.18529510498,-0.0504629835486,41.2942962646,95.2300262451,47.297039032,23.488407135,239
1630857076472843857,100,1630857076472843857,r200131356/base_footprint,0,1630857076472844095,alta/m1vW10zy74W/map,6.09814486411,-3.3848444634,0.0,0.0,0.0,-0.618532286149,0.785759384921,0,68.3487091064,40.2427635193,63.6047325134,95.6733169556,50.5221977234,50.5221977234,68.3487091064,68.3487091064,19.7869720459,2.76155376434,0.0,0.00145905278623,0.177858486772,0.000269686221145,0.00172873900738,1.05153274536,0.0254643578082,-0.443290710449,-0.00465494673699,-3.22515869141,-0.0681894421577,3.70143508911,0.15758562088,41.2942962646,95.2300262451,47.297039032,23.488407135,239
1630857076572858259,101,1630857076572858259,r200131356/base_footprint,0,1630857076572858470,alta/m1vW10zy74W/map,6.12763231731,-3.51956032055,0.0,0.0,0.0,-0.614689804449,0.78876894228,0,67.8698730469,48.124130249,67.9218292236,94.1439590454,50.6046257019,50.6046257019,67.8698730469,67.8698730469,23.7904682159,2.64625954628,0.0,0.00113584194332,0.191469848156,0.000454905879451,0.000680936034769,-5.46562576294,-0.128125116229,0.977104187012,0.0102722169831,-3.12035369873,-0.0657134130597,-0.300626754761,-0.0127981603146,42.6585044861,95.1210632324,47.4842720032,23.4898414612,224
