%time,field.header.seq,field.header.stamp,field.header.frame_id,field.pose.header.seq,field.pose.header.stamp,field.pose.header.frame_id,field.pose.pose.position.x,field.pose.pose.position.y,field.pose.pose.position.z,field.pose.pose.orientation.x,field.pose.pose.orientation.y,field.pose.pose.orientation.z,field.pose.pose.orientation.w,field.label,field.main_output,field.scan_score,field.pose_score,field.cov_score,field.lhood_map_score,field.lhood_robot_score,field.lhood_map_score_all,field.lhood_robot_score_all,field.point_angle_diff,field.average_orientation,field.map_average_orientation,field.sensor_div,field.odom_div_x,field.odom_div_w,field.imu_div_w,field.kdtree_div,field.kdtree_div_p,field.cov_div,field.cov_div_p,field.likelihood_div,field.likelihood_div_p,field.normal_diff_div,field.normal_diff_div_p,field.kdtree_average,field.cov_average,field.likelihood_average,field.normal_diff_average,field.map_update_count
1630861009096299634,0,1630861009096299634,r200131356/base_footprint,0,1630861009096299889,alta/m1vW10zy74W/map,14.0421746548,-7.57154408984,0.0,0.0,0.0,-0.714802097498,0.699326791574,0,66.2194213867,5.7265291214,100.0,96.4756393433,47.1125831604,47.1125831604,66.2194213867,66.2194213867,24.1786251068,2.59541893005,0.0,0.000697768700775,0.136057898402,0.00635691639036,0.00705468514934,32.233795166,0.849144399166,-0.875633239746,-0.00915934331715,5.53300476074,0.105099119246,3.35067176819,0.121712945402,37.9603233337,95.6000061035,52.6455879211,27.529296875,31
1630861009196407856,1,1630861009196407856,r200131356/base_footprint,0,1630861009196408124,alta/m1vW10zy74W/map,14.0461308389,-7.50343203468,0.0,0.0,0.0,-0.714299500612,0.699840141336,0,66.1671447754,0.0,44.8681106567,96.2452163696,47.5618515015,47.5618515015,66.1671447754,66.1671447754,29.1421012878,2.79309082031,0.0,0.000848408089951,0.0984361544251,0.00577297387645,0.00662138173357,37.4770622253,1.0,-0.545028686523,-0.0056951683946,5.06031417847,0.0961631685495,-1.30606651306,-0.0469199903309,37.4770622253,95.7001876831,52.6221656799,27.8360347748,33
1630861009296247519,2,1630861009296247519,r200131356/base_footprint,0,1630861009296247703,alta/m1vW10zy74W/map,14.0460361121,-7.51055461244,0.0,0.0,0.0,-0.714338019675,0.699800824269,0,66.2947387695,0.272691845894,45.1100120544,96.4044647217,47.9672546387,47.9672546387,66.2947387695,66.2947387695,31.7970905304,3.13536047935,0.0,0.00100713060237,0.0372524410486,0.00632373662665,0.0073308669962,37.693862915,0.992817521095,-0.662811279297,-0.00692291464657,4.5705909729,0.0869961604476,-3.87377357483,-0.138728991151,37.9665565491,95.7416534424,52.5378456116,27.9233169556,33
1630861009396163690,3,1630861009396163690,r200131356/base_footprint,0,1630861009396163962,alta/m1vW10zy74W/map,14.0470134312,-7.4451553557,0.0,0.0,0.0,-0.714850130868,0.699277691907,0,66.3065719604,0.0,45.867351532,96.3093490601,48.2725028992,48.2725028992,66.3065719604,66.3065719604,34.538394928,2.68381476402,0.0,0.00101314694621,0.0293591823429,0.00676961801946,0.0077827651985,37.4770622253,1.0,-0.609161376953,-0.00636530993506,4.34966278076,0.0826583728194,-6.7023601532,-0.240779995918,37.4770622253,95.7001876831,52.6221656799,27.8360347748,33
1630861009496460101,4,1630861009496460101,r200131356/base_footprint,0,1630861009496460360,alta/m1vW10zy74W/map,14.0469288104,-7.4489272965,0.0,0.0,0.0,-0.714707595535,0.699423371703,0,67.0915374756,0.807381749153,45.867351532,96.5130615234,48.5857772827,48.5857772827,67.0915374756,67.0915374756,24.5257358551,2.63907456398,0.0,0.000812825164758,0.0166653096676,0.00606149388477,0.00687431916595,36.6696815491,0.978456676006,-0.812873840332,-0.00849396269768,4.03638839722,0.0767050981522,3.31029891968,0.118921354413,37.4770622253,95.7001876831,52.6221656799,27.8360347748,33
1630861009596137711,5,1630861009596137711,r200131356/base_footprint,0,1630861009596137939,alta/m1vW10zy74W/map,14.0526127835,-7.37197629457,0.0,0.0,0.0,-0.715911532986,0.698191003191,0,67.0474243164,0.0,46.539604187,96.4520950317,48.8594360352,48.8594360352,67.0474243164,67.0474243164,28.0558643341,2.77878427505,0.0,0.000496700697113,0.00594608159736,0.00605821842328,0.00655491929501,37.0018959045,1.0,-0.774948120117,-0.00809961557388,3.91509246826,0.0741852670908,-0.370639801025,-0.0133876390755,37.0018959045,95.6771469116,52.7745285034,27.6852245331,35
1630861009696543130,6,1630861009696543130,r200131356/base_footprint,0,1630861009696544270,alta/m1vW10zy74W/map,14.0526127835,-7.37197629457,0.0,0.0,0.0,-0.715911532986,0.698191003191,0,67.134727478,0.15479876101,46.9816741943,96.4520950317,49.0721740723,49.0721740723,67.134727478,67.134727478,28.7819633484,-3.13599514961,0.0,0.000562014000025,0.004340226762,0.00511437002569,0.00567638408393,36.8470954895,0.995816409588,-0.774948120117,-0.00809961557388,3.70235443115,0.0701541900635,-1.09673881531,-0.0396145880222,37.0018959045,95.6771469116,52.7745285034,27.6852245331,35
1630861009796084693,7,1630861009796084693,r200131356/base_footprint,0,1630861009796085014,alta/m1vW10zy74W/map,14.0516123078,-7.31146321844,0.0,0.0,0.0,-0.715694253142,0.698413728402,0,67.4474411011,1.70278632641,46.9816741943,96.4535980225,49.2294311523,49.2294311523,67.4474411011,67.4474411011,24.8568744659,2.74757504463,0.0,0.000234921317315,0.00325238751248,0.00435200007632,0.0045869210735,35.3217658997,0.95400929451,-0.756652832031,-0.00790676102042,3.5662689209,0.0675484761596,2.75086593628,0.0996411144733,37.0245513916,95.6969451904,52.7957000732,27.6077404022,34
1630861009896594690,8,1630861009896594690,r200131356/base_footprint,0,1630861009896594886,alta/m1vW10zy74W/map,14.048210056,-7.25248454252,0.0,0.0,0.0,-0.715518955764,0.698593317991,0,67.4404525757,0.272691845894,47.3200798035,96.3438873291,49.4376144409,49.4376144409,67.4404525757,67.4404525757,26.8361282349,2.91520524025,0.0,5.3532054153e-05,0.00114537996706,0.00259111751802,0.0025375855621,36.9841880798,0.992680728436,-0.765197753906,-0.00800594501197,3.48204421997,0.0657986924052,1.05681419373,0.0378882288933,37.2568817139,95.5786895752,52.9196586609,27.8929424286,36
1630861009996365039,9,1630861009996365039,r200131356/base_footprint,0,1630861009996365262,alta/m1vW10zy74W/map,14.048210056,-7.25248454252,0.0,0.0,0.0,-0.715518955764,0.698593317991,0,67.4209671021,4.50725746155,47.5478973389,96.3438873291,49.7074890137,49.7074890137,67.4209671021,67.4209671021,30.1014251709,2.54924201965,0.0,0.000166953788721,0.0031280585099,0.000166953788721,0.0,32.7496261597,0.879022181034,-0.765197753906,-0.00800594501197,3.21216964722,0.0606989860535,-2.20848274231,-0.0791771188378,37.2568817139,95.5786895752,52.9196586609,27.8929424286,36
1630861010096849922,10,1630861010096849922,r200131356/base_footprint,0,1630861010096850280,alta/m1vW10zy74W/map,14.0517555084,-7.17757838857,0.0,0.0,0.0,-0.7154548834,0.698658936691,0,67.8162918091,0.68754774332,47.5478973389,96.383605957,49.8607673645,49.8607673645,67.8162918091,67.8162918091,24.7839851379,2.38980579376,0.0,0.000376303505618,0.00069084687857,0.000376303505618,0.0,36.2793006897,0.98140090704,-0.842514038086,-0.00881834235042,3.19668197632,0.0602494478226,3.27319717407,0.116661652923,36.9668502808,95.5410919189,53.0574493408,28.057182312,37
1630861010196257476,11,1630861010196257476,r200131356/base_footprint,0,1630861010196257695,alta/m1vW10zy74W/map,14.0517555084,-7.17757838857,0.0,0.0,0.0,-0.7154548834,0.698658936691,0,67.9342422485,1.70278632641,47.7559394836,96.383605957,50.0911369324,50.0911369324,67.9342422485,67.9342422485,25.148897171,3.08393216133,0.0,0.000349923910107,0.00443606870249,0.000349923910107,0.0,35.2640647888,0.953937530518,-0.842514038086,-0.00881834235042,2.96631240845,0.0559075586498,2.90828514099,0.103655636311,36.9668502808,95.5410919189,53.0574493408,28.057182312,37
1630861011096163132,12,1630861011096163132,r200131356/base_footprint,0,1630861011096163350,alta/m1vW10zy74W/map,14.0550354237,-6.99277522221,0.0,0.0,0.0,-0.71526972291,0.698848498237,0,67.8401794434,4.02476787567,47.7559394836,96.0161056519,50.2570228577,50.2570228577,67.8401794434,67.8401794434,27.3105792999,2.61766433716,0.0,0.00421581743285,0.136030495167,0.0525351688266,0.0483193509281,37.4592819214,0.902980327606,-1.92849731445,-0.0204968266189,3.81647491455,0.0705793946981,1.31015777588,0.0457765199244,41.4840507507,94.0876083374,54.0734977722,28.6207370758,55
1630861011196148821,13,1630861011196148821,r200131356/base_footprint,0,1630861011196149124,alta/m1vW10zy74W/map,14.0594612232,-6.96813695515,0.0,0.0,0.0,-0.737375315161,0.67548326744,0,67.5831375122,18.7306499481,48.5818901062,96.0876998901,50.53855896,50.53855896,67.5831375122,67.5831375122,35.235710144,2.19475507736,0.0,0.00833985675126,0.137643098831,0.0737620219588,0.0654221624136,22.7534008026,0.548485517502,-2.00009155273,-0.0212577581406,3.53493881226,0.0653728544712,-6.61497306824,-0.231125175953,41.4840507507,94.0876083374,54.0734977722,28.6207370758,55
1630861011296837761,14,1630861011296837761,r200131356/base_footprint,0,1630861011296838789,alta/m1vW10zy74W/map,14.0594612232,-6.96813695515,0.0,0.0,0.0,-0.737375315161,0.67548326744,0,67.8818283081,20.7843132019,48.5818901062,96.0876998901,50.799369812,50.799369812,67.8818283081,67.8818283081,32.6760025024,2.2701151371,0.0,0.0108274063095,0.139665946364,0.0767722055316,0.0659447982907,20.6997375488,0.498980611563,-2.00009155273,-0.0212577581406,3.27412796021,0.0605495870113,-4.05526542664,-0.141689762473,41.4840507507,94.0876083374,54.0734977722,28.6207370758,55
1630861011396063106,15,1630861011396063106,r200131356/base_footprint,0,1630861011396063299,alta/m1vW10zy74W/map,14.0612063681,-6.96515866162,0.0,0.0,0.0,-0.781879691081,0.623429345375,0,67.6775283813,15.5151996613,48.5818901062,95.6923980713,51.0409088135,51.0409088135,67.6775283813,67.6775283813,37.538898468,2.11494040489,0.0,0.0121380379423,0.138657644391,0.0777055323124,0.0655674934387,25.9688510895,0.625996053219,-1.60478973389,-0.0170563347638,3.03258895874,0.0560827217996,-8.91816139221,-0.311597883701,41.4840507507,94.0876083374,54.0734977722,28.6207370758,55
1630861011496347682,16,1630861011496347682,r200131356/base_footprint,0,1630861011496347973,alta/m1vW10zy74W/map,14.0416800446,-6.94483338015,0.0,0.0,0.0,-0.784665280455,0.619919670319,0,67.9124603271,18.9715614319,48.5818901062,95.9694747925,51.2447662354,51.2447662354,67.9124603271,67.9124603271,36.5093231201,2.25986170769,0.0,0.0117968181148,0.138455867767,0.0776966735721,0.0658998563886,22.6719398499,0.544429242611,-2.35528564453,-0.0251594949514,2.77816772461,0.0514257103205,-7.94588470459,-0.278183758259,41.6435012817,93.6141891479,54.02293396,28.5634384155,58
1630861011596389928,17,1630861011596389928,r200131356/base_footprint,0,1630861011596390190,alta/m1vW10zy74W/map,14.0581725845,-6.94927083032,0.0,0.0,0.0,-0.80946194285,0.587172345293,0,67.8949890137,19.5046443939,48.5818901062,95.9983596802,51.5038414001,51.5038414001,67.8949890137,67.8949890137,39.725856781,2.13321995735,0.0,0.0116172013804,0.139690741897,0.0772995427251,0.0656823441386,22.1388568878,0.531628131866,-2.38417053223,-0.0254680458456,2.51909255981,0.0466300584376,-11.1624183655,-0.390793919563,41.6435012817,93.6141891479,54.02293396,28.5634384155,58
1630861011696405900,18,1630861011696405900,r200131356/base_footprint,0,1630861011696406145,alta/m1vW10zy74W/map,14.0581725845,-6.94927083032,0.0,0.0,0.0,-0.80946194285,0.587172345293,0,68.1071090698,25.4133033752,50.1450805664,95.9983596802,51.7495346069,51.7495346069,68.1071090698,68.1071090698,38.5610847473,2.05133080482,0.0,0.0122136268765,0.1386462152,0.0774673223495,0.0652536898851,16.2301979065,0.389741420746,-2.38417053223,-0.0254680458456,2.27339935303,0.0420821160078,-9.99764633179,-0.350015491247,41.6435012817,93.6141891479,54.02293396,28.5634384155,58
1630861011796321521,19,1630861011796321521,r200131356/base_footprint,0,1630861011796321765,alta/m1vW10zy74W/map,14.0439729802,-6.93266400052,0.0,0.0,0.0,-0.843873914013,0.536541533572,0,68.5756454468,25.4133033752,50.1450805664,96.0312423706,51.9654312134,51.9654312134,68.5756454468,68.5756454468,32.5775527954,2.14105296135,0.0,0.0124052148312,0.137997612357,0.0776012614369,0.0651960447431,16.2301979065,0.389741420746,-2.41705322266,-0.0258193034679,2.05750274658,0.0380857288837,-4.01411437988,-0.140533298254,41.6435012817,93.6141891479,54.02293396,28.5634384155,58
1630861011896456843,20,1630861011896456843,r200131356/base_footprint,0,1630861011896457115,alta/m1vW10zy74W/map,14.0439729802,-6.93266400052,0.0,0.0,0.0,-0.843873914013,0.536541533572,0,68.6073760986,32.0091667175,48.0175971985,96.0312423706,52.1305770874,52.1305770874,68.6073760986,68.6073760986,33.7900085449,1.91346466541,0.0,0.0125705236569,0.13883857429,0.0775776877999,0.0650071576238,9.63433456421,0.23135265708,-2.41705322266,-0.0258193034679,1.89235687256,0.035028770566,-5.22657012939,-0.182981133461,41.6435012817,93.6141891479,54.02293396,28.5634384155,58
1630861011996290783,21,1630861011996290783,r200131356/base_footprint,0,1630861011996291122,alta/m1vW10zy74W/map,14.0402951393,-6.92999643602,0.0,0.0,0.0,-0.860401508712,0.5096167617,0,68.7348480225,33.1026535034,48.7688941956,95.986618042,52.2475852966,52.2475852966,68.7348480225,68.7348480225,32.5985298157,2.02447772026,0.0,0.0126007404178,0.139254257083,0.0776439458132,0.0650432035327,8.54084777832,0.205094367266,-2.37242889404,-0.0253426209092,1.77534866333,0.0328628718853,-4.03509140015,-0.141267701983,41.6435012817,93.6141891479,54.02293396,28.5634384155,58
1630861012097154725,22,1630861012097154725,r200131356/base_footprint,0,1630861012097155284,alta/m1vW10zy74W/map,14.0407124179,-6.9275501566,0.0,0.0,0.0,-0.876098534921,0.482132095084,0,68.678604126,34.7248573303,51.7544898987,96.1168136597,52.3434715271,52.3434715271,68.678604126,68.678604126,35.115196228,1.95337796211,0.0,0.012008657679,0.139005869627,0.0770361125469,0.0650274604559,6.91864395142,0.166139826179,-2.50262451172,-0.0267333891243,1.67946243286,0.0310879535973,-6.5517578125,-0.229375675321,41.6435012817,93.6141891479,54.02293396,28.5634384155,58
1630861012196562491,23,1630861012196562491,r200131356/base_footprint,0,1630861012196562733,alta/m1vW10zy74W/map,14.0436606711,-6.92775007413,0.0,0.0,0.0,-0.888008763066,0.459826528941,0,68.8318405151,40.4223213196,54.2360877991,96.1581497192,52.4007911682,52.4007911682,68.8318405151,68.8318405151,33.1248054504,1.89745771885,0.0,0.0119538931176,0.139695480466,0.0772755667567,0.0653216689825,1.22117996216,0.0293246228248,-2.54396057129,-0.0271749459207,1.62214279175,0.030026929453,-4.56136703491,-0.159692510962,41.6435012817,93.6141891479,54.02293396,28.5634384155,58
1630861012296470353,24,1630861012296470353,r200131356/base_footprint,0,1630861012296470548,alta/m1vW10zy74W/map,14.0415558484,-6.92619137441,0.0,0.0,0.0,-0.904133622923,0.427249800351,0,69.2208328247,42.3149909973,56.8957862854,96.3636550903,52.4510345459,52.4510345459,69.2208328247,69.2208328247,27.4053249359,1.81758475304,0.0,0.0126595841721,0.140169262886,0.0779829025269,0.0653233230114,-0.671489715576,-0.0161247178912,-2.74946594238,-0.0293701831251,1.57189941406,0.0290968902409,1.15811347961,0.0405453108251,41.6435012817,93.6141891479,54.02293396,28.5634384155,58
1630861012396314531,25,1630861012396314531,r200131356/base_footprint,0,1630861012396314782,alta/m1vW10zy74W/map,14.0343059622,-6.90829820756,0.0,0.0,0.0,-0.915591566808,0.402109540785,0,69.1129989624,48.0519485474,59.0926780701,96.2949523926,52.5176200867,52.5176200867,69.1129989624,69.1129989624,29.8181018829,1.88738429546,0.0,0.0123470388353,0.139188349247,0.0779719650745,0.065624922514,-5.74348831177,-0.13575270772,-3.03620910645,-0.0325568318367,1.51393127441,0.0280193928629,-1.66591262817,-0.0591752417386,42.3084602356,93.2587432861,54.0315513611,28.1521892548,66
1630861012497218022,26,1630861012497218022,r200131356/base_footprint,0,1630861012497218269,alta/m1vW10zy74W/map,14.0291495884,-6.91046961171,0.0,0.0,0.0,-0.927684841715,0.373364211532,0,69.3263168335,45.7601203918,59.0926780701,96.2821273804,52.6411819458,52.6411819458,69.3263168335,69.3263168335,27.2667789459,1.79129624367,0.0,0.012477632612,0.140240162611,0.0781624913216,0.0656848624349,-4.11661911011,-0.0988538190722,-2.66793823242,-0.0284992940724,1.38175201416,0.0255771372467,1.2966594696,0.0453957766294,41.6435012817,93.6141891479,54.02293396,28.5634384155,58
1630861012596451662,27,1630861012596451662,r200131356/base_footprint,0,1630861012596451922,alta/m1vW10zy74W/map,14.02653341,-6.90815790407,0.0,0.0,0.0,-0.93897467772,0.343986270948,0,69.3873214722,47.2880058289,59.0926780701,96.3380203247,52.744594574,52.744594574,69.3873214722,69.3873214722,27.4867076874,1.84522163868,0.0,0.0120133012533,0.142280369997,0.0778439491987,0.0658306479454,-4.97954559326,-0.117696210742,-3.07927703857,-0.0330186411738,1.28695678711,0.023818615824,0.665481567383,0.0236387141049,42.3084602356,93.2587432861,54.0315513611,28.1521892548,66
1630861012696213291,28,1630861012696213291,r200131356/base_footprint,0,1630861012696213621,alta/m1vW10zy74W/map,14.0207484321,-6.90635094239,0.0,0.0,0.0,-0.951420620901,0.3078941411,0,69.4141159058,46.7965545654,60.471572876,96.3635101318,52.8274612427,52.8274612427,69.4141159058,69.4141159058,27.9911613464,1.84099340439,0.0,0.0130418250337,0.140412077308,0.0789489746094,0.065907150507,-4.48809432983,-0.106080301106,-3.1047668457,-0.033291965723,1.20409011841,0.0222849436104,0.161027908325,0.00571990711614,42.3084602356,93.2587432861,54.0315513611,28.1521892548,66
1630861012797075121,29,1630861012797075121,r200131356/base_footprint,0,1630861012797076779,alta/m1vW10zy74W/map,14.0212728377,-6.90397059993,0.0,0.0,0.0,-0.958954797377,0.283558982556,0,69.5382995605,52.9411773682,60.7075271606,96.2227554321,52.8853607178,52.8853607178,69.5382995605,69.5382995605,25.874464035,1.83389270306,0.0,0.0129825668409,0.139283850789,0.0788517817855,0.0658692196012,-10.6327171326,-0.25131419301,-2.964012146,-0.0317826718092,1.14619064331,0.0212133582681,2.27772521973,0.0809075683355,42.3084602356,93.2587432861,54.0315513611,28.1521892548,66
1630861012896494983,30,1630861012896494983,r200131356/base_footprint,0,1630861012896495654,alta/m1vW10zy74W/map,14.0212844454,-6.90629712478,0.0,0.0,0.0,-0.968900496553,0.247450657261,0,69.3731079102,52.9411773682,61.6218719482,96.2848052979,52.9871482849,52.9871482849,69.3731079102,69.3731079102,30.1705970764,1.77781128883,0.0,0.0123671293259,0.139957278967,0.0782412961125,0.0658741667867,-10.6327171326,-0.25131419301,-3.02606201172,-0.0324480235577,1.04440307617,0.0193295031786,-2.01840782166,-0.0716963037848,42.3084602356,93.2587432861,54.0315513611,28.1521892548,66
1630861012996908379,31,1630861012996908379,r200131356/base_footprint,0,1630861012996908739,alta/m1vW10zy74W/map,14.0212844454,-6.90629712478,0.0,0.0,0.0,-0.968900496553,0.247450657261,0,69.4847564697,54.6328353882,75.1081466675,96.2848052979,53.0191497803,53.0191497803,69.4847564697,69.4847564697,28.5064506531,1.7871376276,0.0,0.0127884978428,0.140159785748,0.0786449611187,0.0658564642072,-12.3243751526,-0.291298121214,-3.02606201172,-0.0324480235577,1.01240158081,0.0187372304499,-0.354261398315,-0.0125837959349,42.3084602356,93.2587432861,54.0315513611,28.1521892548,66
1630861013096807230,32,1630861013096807230,r200131356/base_footprint,0,1630861013096807960,alta/m1vW10zy74W/map,14.0151279646,-6.90735254162,0.0,0.0,0.0,-0.977082697984,0.212860050974,0,69.487159729,52.1821632385,73.523727417,96.0012359619,53.046913147,53.046913147,69.487159729,69.487159729,27.7422924042,1.76302838326,0.0,0.0131096793339,0.139917820692,0.0788346454501,0.0657249689102,-10.0015640259,-0.237112894654,-2.77058410645,-0.0297175236046,0.963920593262,0.0178468003869,0.432136535645,0.015337898396,42.1805992126,93.2306518555,54.0108337402,28.1744289398,67
1630861013197019853,33,1630861013197019853,r200131356/base_footprint,0,1630861013197020487,alta/m1vW10zy74W/map,14.0168727298,-6.90209205251,0.0,0.0,0.0,-0.983207560948,0.182490800029,0,69.494972229,54.163482666,72.1067276001,96.085357666,53.0896263123,53.0896263123,69.494972229,69.494972229,28.3658123016,1.75431263447,0.0,0.0131215853617,0.139923974872,0.0789316743612,0.0658100917935,-11.8550224304,-0.280204534531,-2.82661437988,-0.0303093772382,0.941925048828,0.0174328703433,-0.213623046875,-0.00758815044537,42.3084602356,93.2587432861,54.0315513611,28.1521892548,66
1630861013296234454,34,1630861013296234454,r200131356/base_footprint,0,1630861013296234727,alta/m1vW10zy74W/map,14.0190819756,-6.89650829507,0.0,0.0,0.0,-0.992189766885,0.12473759052,0,69.4566650391,52.9411773682,70.7227401733,95.9460296631,53.0425987244,53.0425987244,69.4566650391,69.4566650391,28.0458374023,1.77628159523,0.0,0.0135081065819,0.139453664422,0.0791668370366,0.0656587332487,-10.6327171326,-0.25131419301,-2.68728637695,-0.0288153830916,0.988952636719,0.0183032434434,0.106351852417,0.00377774704248,42.3084602356,93.2587432861,54.0315513611,28.1521892548,66
1630861013396202228,35,1630861013396202228,r200131356/base_footprint,0,1630861013396202650,alta/m1vW10zy74W/map,14.0177418587,-6.89658412151,0.0,0.0,0.0,-0.995147138642,0.0983980307311,0,69.4216079712,53.7001914978,69.5380935669,95.75415802,52.9925308228,52.9925308228,69.4216079712,69.4216079712,27.4453468323,1.76517868042,0.0,0.013019178994,0.0742724910378,0.0769871622324,0.063967987895,-11.3917312622,-0.269254207611,-2.49541473389,-0.0267579704523,1.03902053833,0.0192298851907,0.706842422485,0.025107903406,42.3084602356,93.2587432861,54.0315513611,28.1521892548,66
1630861013496148380,36,1630861013496148380,r200131356/base_footprint,0,1630861013496148662,alta/m1vW10zy74W/map,14.0224205534,-6.89819608345,0.0,0.0,0.0,-0.99798666428,0.063424111505,0,69.4247436523,55.691368103,63.3236541748,95.5533294678,52.9296417236,52.9296417236,69.4247436523,69.4247436523,25.9866847992,1.7396697998,0.0,0.0134949367493,0.0360686816275,0.0798856988549,0.0663907602429,-13.3829078674,-0.316317528486,-2.29458618164,-0.0246045161039,1.10190963745,0.0203938186169,2.16550445557,0.076921351254,42.3084602356,93.2587432861,54.0315513611,28.1521892548,66
1630861013596352572,37,1630861013596352572,r200131356/base_footprint,0,1630861013596353030,alta/m1vW10zy74W/map,14.0071793281,-6.89601371555,0.0,0.0,0.0,-0.999547633235,0.0300753868636,0,69.3254013062,53.9969825745,63.3236541748,95.2814712524,52.8129615784,52.8129615784,69.3254013062,69.3254013062,25.5360774994,1.75162780285,0.0,0.0141297969967,0.0121145779267,0.0775310918689,0.0634012892842,-11.8163833618,-0.280137866735,-2.05081939697,-0.0219972655177,1.19787216187,0.0221783686429,2.63835144043,0.0936434715986,42.1805992126,93.2306518555,54.0108337402,28.1744289398,67
1630861013697110292,38,1630861013697110292,r200131356/base_footprint,0,1630861013697110720,alta/m1vW10zy74W/map,14.024688339,-6.89488775156,0.0,0.0,0.0,-0.999879853097,0.0155009474105,0,69.4349517822,49.9051246643,63.0279998779,95.3118972778,52.763923645,52.763923645,69.4349517822,69.4349517822,23.1440505981,1.7745950222,0.0,0.0135493651032,0.0042312098667,0.0781491696835,0.0645998045802,-7.59666442871,-0.179554268718,-2.0531539917,-0.0220156721771,1.26762771606,0.0234608799219,5.00813865662,0.17789517343,42.3084602356,93.2587432861,54.0315513611,28.1521892548,66
1630861013796119246,39,1630861013796119246,r200131356/base_footprint,0,1630861013796119441,alta/m1vW10zy74W/map,14.011715601,-6.89158220739,0.0,0.0,0.0,0.998793321866,0.0491111005364,0,69.2806396484,53.9969825745,62.8026275635,95.1428985596,52.7727851868,52.7727851868,69.2806396484,69.2806396484,25.4089565277,1.81519448757,0.0,0.0138898799196,0.0013631938491,0.0784450545907,0.0645551756024,-11.8163833618,-0.280137866735,-1.9122467041,-0.0205109231174,1.23804855347,0.0229222271591,2.76547241211,0.0981554016471,42.1805992126,93.2306518555,54.0108337402,28.1744289398,67
1630861013896862418,40,1630861013896862418,r200131356/base_footprint,0,1630861013896862871,alta/m1vW10zy74W/map,14.011715601,-6.89158220739,0.0,0.0,0.0,0.998793321866,0.0491111005364,0,69.584526062,54.7511329651,58.749042511,95.1428985596,52.8128166199,52.8128166199,69.584526062,69.584526062,20.3713150024,1.80186748505,0.0,0.013741501607,0.000245935050771,0.0782941877842,0.0645526871085,-12.5705337524,-0.298016965389,-1.9122467041,-0.0205109231174,1.19801712036,0.0221810527146,7.80311393738,0.276957303286,42.1805992126,93.2306518555,54.0108337402,28.1744289398,67
1630861013996519501,41,1630861013996519501,r200131356/base_footprint,0,1630861013996520028,alta/m1vW10zy74W/map,14.0129810299,-6.88905431826,0.0,0.0,0.0,0.996784180442,0.080132999567,0,69.4327087402,55.2182159424,50.7075157166,94.9023590088,52.8470191956,52.8470191956,69.4327087402,69.4327087402,22.6075668335,1.7674202919,0.0,0.0139062171802,0.000202596362215,0.0785363987088,0.0646301805973,-13.0376167297,-0.3090903759,-1.67170715332,-0.017930874601,1.16381454468,0.0215477980673,5.56686210632,0.197585627437,42.1805992126,93.2306518555,54.0108337402,28.1744289398,67
1630861014096362125,42,1630861014096362125,r200131356/base_footprint,0,1630861014096362557,alta/m1vW10zy74W/map,14.0142845781,-6.88786035285,0.0,0.0,0.0,0.993843362436,0.110794273053,0,69.3778915405,54.4592018127,49.7716636658,94.9398803711,52.7868309021,52.7868309021,69.3778915405,69.3778915405,23.0793533325,1.81063497066,0.0,0.0134669272229,0.000632895797025,0.0681341812015,0.0546672493219,-12.2786026001,-0.291095972061,-1.70922851562,-0.0183333326131,1.22400283813,0.022662172094,5.0950756073,0.180840417743,42.1805992126,93.2306518555,54.0108337402,28.1744289398,67
1630861014196321579,43,1630861014196321579,r200131356/base_footprint,0,1630861014196321792,alta/m1vW10zy74W/map,14.015974086,-6.88641347041,0.0,0.0,0.0,0.989732268981,0.142933676009,0,69.548034668,52.1821632385,49.7716636658,94.8906478882,52.8268585205,52.8268585205,69.548034668,69.548034668,20.2717342377,1.7941634655,0.0,0.0115534728393,0.000595171411987,0.0490180775523,0.0374646037817,-9.87370300293,-0.233374193311,-1.63190460205,-0.0174986775964,1.20469284058,0.0222960989922,7.88045501709,0.279923349619,42.3084602356,93.2587432861,54.0315513611,28.1521892548,66
1630861014296483236,44,1630861014296483236,r200131356/base_footprint,0,1630861014296483511,alta/m1vW10zy74W/map,14.0166393835,-6.88641657637,0.0,0.0,0.0,0.978926593995,0.204212447146,0,69.4014358521,53.7001914978,49.7716636658,95.0742340088,52.8828811646,52.8828811646,69.4014358521,69.4014358521,24.1765098572,1.79868376255,0.0,0.01083613839,0.000544557871763,0.0405745767057,0.0297384373844,-11.3917312622,-0.269254207611,-1.81549072266,-0.0194672439247,1.14867019653,0.0212592482567,3.97567939758,0.141220971942,42.3084602356,93.2587432861,54.0315513611,28.1521892548,66
1630861014396318494,45,1630861014396318494,r200131356/base_footprint,0,1630861014396318723,alta/m1vW10zy74W/map,14.0181637511,-6.88815692137,0.0,0.0,0.0,0.972233853572,0.234011397092,0,69.7590332031,49.7939300537,49.7716636658,95.0239105225,52.8742103577,52.8742103577,69.7590332031,69.7590332031,17.4649505615,1.76429235935,0.0,0.0076395762153,0.000281446002191,0.0210604351014,0.0134208593518,-7.48546981812,-0.176926076412,-1.76516723633,-0.0189276318997,1.15734100342,0.0214197263122,10.6872386932,0.379623711109,42.3084602356,93.2587432861,54.0315513611,28.1521892548,66
1630861014497419682,46,1630861014497419682,r200131356/base_footprint,0,1630861014497420111,alta/m1vW10zy74W/map,14.0146423202,-6.88819782301,0.0,0.0,0.0,0.964220484605,0.265101597633,0,69.5806427002,49.4720954895,49.7716636658,94.9928970337,52.8784561157,52.8784561157,69.5806427002,69.5806427002,20.6101779938,1.80265593529,0.0,0.004153218586,1.21683542602e-05,0.00562143465504,0.00146821606904,-7.29149627686,-0.172863736749,-1.76224517822,-0.0189019944519,1.13237762451,0.0209657493979,7.56425094604,0.268479287624,42.1805992126,93.2306518555,54.0108337402,28.1744289398,67
1630861014596300047,47,1630861014596300047,r200131356/base_footprint,0,1630861014596300233,alta/m1vW10zy74W/map,14.0118054821,-6.88727352998,0.0,0.0,0.0,0.955297684726,0.295645621575,0,69.6189422607,52.7913093567,53.0409965515,95.0389633179,52.9855155945,52.9855155945,69.6189422607,69.6189422607,21.2428684235,1.79199123383,0.0,0.00207835598849,0.000501720409375,0.00348159298301,0.00140323699452,-10.610710144,-0.251554280519,-1.8083114624,-0.0193961039186,1.02531814575,0.0189835652709,6.93156051636,0.246023103595,42.1805992126,93.2306518555,54.0108337402,28.1744289398,67
1630861014696452421,48,1630861014696452421,r200131356/base_footprint,0,1630861014696452629,alta/m1vW10zy74W/map,14.0118443608,-6.88377906265,0.0,0.0,0.0,0.94581545381,0.324704677105,0,69.9161987305,52.7913093567,56.2697372437,95.1087493896,53.0780487061,53.0780487061,69.9161987305,69.9161987305,17.1429157257,1.8516535759,0.0,0.00279138516635,0.000558651168831,0.00459796050563,0.00180657510646,-10.610710144,-0.251554280519,-1.87809753418,-0.0201446358114,0.93278503418,0.0172703322023,11.0315132141,0.391543447971,42.1805992126,93.2306518555,54.0108337402,28.1744289398,67
1630861014796368298,49,1630861014796368298,r200131356/base_footprint,0,1630861014796368574,alta/m1vW10zy74W/map,14.0106437236,-6.88397617091,0.0,0.0,0.0,0.934853501608,0.355033703375,0,69.8408660889,49.7939300537,56.2697372437,95.1707839966,53.1543197632,53.1543197632,69.8408660889,69.8408660889,19.5458335876,1.78794765472,0.0,0.00236144661903,3.48508947354e-05,0.00418058456853,0.0018191379495,-7.61333084106,-0.180493667722,-1.94013214111,-0.0208100248128,0.856513977051,0.0158581882715,8.62859535217,0.306256264448,42.1805992126,93.2306518555,54.0108337402,28.1744289398,67
1630861014896328879,50,1630861014896328879,r200131356/base_footprint,0,1630861014896329119,alta/m1vW10zy74W/map,14.0093851389,-6.88534482829,0.0,0.0,0.0,0.910025598739,0.414552059022,0,69.8787231445,52.1821632385,58.0142936707,95.3187866211,53.2582435608,53.2582435608,69.8787231445,69.8787231445,20.5196037292,1.78456604481,0.0,0.00161123787984,3.19320170092e-05,0.00386717543006,0.00225593778305,-10.0015640259,-0.237112894654,-2.08813476562,-0.02239751257,0.752590179443,0.0139340599999,7.65482521057,0.27169406414,42.1805992126,93.2306518555,54.0108337402,28.1744289398,67
1630861014996553252,51,1630861014996553252,r200131356/base_footprint,0,1630861014996553557,alta/m1vW10zy74W/map,14.0067640173,-6.89064989447,0.0,0.0,0.0,0.896503833003,0.443035977558,0,70.214225769,53.7001914978,58.0142936707,95.1098632812,53.4079017639,53.4079017639,70.214225769,70.214225769,15.3447217941,1.79223513603,0.0,0.000610032468103,6.71060770401e-05,0.00294687808491,0.00233684573323,-11.5195922852,-0.273101687431,-1.87921142578,-0.0201565828174,0.602931976318,0.0111631676555,12.8297071457,0.455367058516,42.1805992126,93.2306518555,54.0108337402,28.1744289398,67
1630861015096318703,52,1630861015096318703,r200131356/base_footprint,0,1630861015096318974,alta/m1vW10zy74W/map,14.0011901424,-6.88980463613,0.0,0.0,0.0,0.88286409711,0.469628561774,0,70.1748962402,53.2428359985,59.8789176941,94.9199371338,53.4895477295,53.4895477295,70.1748962402,70.1748962402,16.2508068085,1.83106744289,0.0,0.00145358324517,0.000290492112981,0.00365855288692,0.00220496975817,-11.0622367859,-0.262258887291,-1.68928527832,-0.0181194189936,0.521286010742,0.00965150818229,11.9236221313,0.423207223415,42.1805992126,93.2306518555,54.0108337402,28.1744289398,67
1630861015196523407,53,1630861015196523407,r200131356/base_footprint,0,1630861015196523624,alta/m1vW10zy74W/map,14.0036424577,-6.88864599032,0.0,0.0,0.0,0.853860939066,0.520501197633,0,70.2671279907,53.2428359985,60.2844772339,95.0909423828,53.5893096924,53.5893096924,70.2671279907,70.2671279907,16.2836265564,1.80975401402,0.0,0.00116581737529,0.0003472501121,0.0028177711647,0.00165195390582,-11.0622367859,-0.262258887291,-1.86029052734,-0.0199536364526,0.421524047852,0.00780443521217,11.8908023834,0.422042369843,42.1805992126,93.2306518555,54.0108337402,28.1744289398,67
1630861015297305186,54,1630861015297305186,r200131356/base_footprint,0,1630861015297305597,alta/m1vW10zy74W/map,14.0013026001,-6.88298956432,0.0,0.0,0.0,0.851088611932,0.525022070621,0,70.1607818604,54.5792999268,60.5336914062,95.119720459,53.6727828979,53.6727828979,70.1607818604,70.1607818604,19.2029361725,1.85235750675,0.0,0.0016803558683,0.00030295207398,0.00255623157136,0.000875875644851,-12.3987007141,-0.293943196535,-1.88906860352,-0.020262312144,0.338050842285,0.0062589449808,8.97149276733,0.318426787853,42.1805992126,93.2306518555,54.0108337402,28.1744289398,67
1630861015796267398,55,1630861015796267398,r200131356/base_footprint,0,1630861015796267655,alta/m1vW10zy74W/map,14.0129233097,-6.90088212157,0.0,0.0,0.0,0.761244375567,0.648465111372,1,70.2350540161,49.0445861816,63.5433197021,95.3888778687,53.61951828,53.61951828,70.2350540161,70.2350540161,18.2597694397,1.88175868988,0.0,0.062767252326,0.0339901745319,0.140532538295,0.0777652859688,-6.86398696899,-0.162728533149,-2.15822601318,-0.0231493189931,0.391315460205,0.00724512897432,9.91465950012,0.351902753115,42.1805992126,93.2306518555,54.0108337402,28.1744289398,67
1630861015996043721,56,1630861015996043721,r200131356/base_footprint,0,1630861015996043965,alta/m1vW10zy74W/map,14.0093792229,-6.85167105916,0.0,0.0,0.0,0.743387367702,0.668861137712,1,69.4785614014,34.300994873,65.3112411499,95.638710022,53.6101646423,53.6101646423,69.4785614014,69.4785614014,32.6751060486,1.92239820957,0.0,0.063941270113,0.0614408105612,0.1698872298,0.105945967138,8.78287506104,0.203855291009,-2.48863220215,-0.0267163719982,0.474479675293,0.00877290964127,-4.58084106445,-0.163052529097,43.0838699341,93.1500778198,54.0846443176,28.0942649841,68
1630861016096366248,57,1630861016096366248,r200131356/base_footprint,0,1630861016096366711,alta/m1vW10zy74W/map,14.0093792229,-6.85167105916,0.0,0.0,0.0,0.743387367702,0.668861137712,1,69.2913131714,35.48387146,66.3420639038,95.638710022,53.5381813049,53.5381813049,69.2913131714,69.2913131714,35.2681503296,1.81995773315,0.0,0.0660901516676,0.0720281973481,0.190886557102,0.124796412885,7.59999847412,0.176400095224,-2.48863220215,-0.0267163719982,0.546463012695,0.0101038478315,-7.17388534546,-0.255350530148,43.0838699341,93.1500778198,54.0846443176,28.0942649841,68
1630861016196198888,58,1630861016196198888,r200131356/base_footprint,0,1630861016196199315,alta/m1vW10zy74W/map,14.0062261889,-6.79138817499,0.0,0.0,0.0,0.743379314925,0.668870087642,1,69.4453964233,31.2452259064,66.4977340698,95.8626556396,53.5473480225,53.5473480225,69.4453964233,69.4453964233,33.3997421265,1.87489533424,0.0,0.0672676712275,0.0755258947611,0.195653989911,0.128386318684,11.7638492584,0.273520171642,-2.8596496582,-0.0307479277253,0.558921813965,0.0103300744668,-5.1713848114,-0.183198213577,43.0090751648,93.0030059814,54.1062698364,28.2283573151,71
1630861016296130346,59,1630861016296130346,r200131356/base_footprint,0,1630861016296130502,alta/m1vW10zy74W/map,14.0062261889,-6.79138817499,0.0,0.0,0.0,0.743379314925,0.668870087642,1,69.3003311157,32.0091667175,66.4977340698,95.8626556396,53.5465087891,53.5465087891,69.3003311157,69.3003311157,36.0019226074,1.83400285244,0.0,0.0689782425761,0.0836203172803,0.219556510448,0.150578260422,10.9999084473,0.255757838488,-2.8596496582,-0.0307479277253,0.559761047363,0.0103455856442,-7.77356529236,-0.275381416082,43.0090751648,93.0030059814,54.1062698364,28.2283573151,71
1630861016396207066,60,1630861016396207066,r200131356/base_footprint,0,1630861016396207374,alta/m1vW10zy74W/map,13.9868641775,-6.68211546281,0.0,0.0,0.0,0.786918684275,0.617056710797,1,69.43800354,32.4478187561,66.4977340698,95.5695114136,53.4647636414,53.4647636414,69.43800354,69.43800354,31.5855922699,1.86975073814,0.0,0.0726911425591,0.0951898097992,0.244152665138,0.171461522579,11.3972206116,0.259943217039,-2.77611541748,-0.029917165637,0.682914733887,0.0126120774075,-3.58718490601,-0.128121033311,43.8450393677,92.7933959961,54.1476783752,27.9984073639,71
1630861016496470474,61,1630861016496470474,r200131356/base_footprint,0,1630861016496470715,alta/m1vW10zy74W/map,13.9803393899,-6.65235871875,0.0,0.0,0.0,0.803381895156,0.595464130352,1,69.2155380249,27.7736415863,64.2111358643,95.3809127808,53.3625907898,53.3625907898,69.2155380249,69.2155380249,33.8075714111,1.9482460022,0.0,0.0744598656893,0.103221416473,0.259863168001,0.185403302312,16.0198879242,0.36580491066,-2.59554290771,-0.0279736220837,0.755836486816,0.0139663424343,-5.7331829071,-0.204213991761,43.7935295105,92.785369873,54.1184272766,28.074388504,70
1630861016596368259,62,1630861016596368259,r200131356/base_footprint,0,1630861016596368559,alta/m1vW10zy74W/map,13.9651992129,-6.6048009125,0.0,0.0,0.0,0.829505092081,0.558499151488,1,69.4727020264,26.5642566681,64.2111358643,95.8402099609,53.2690048218,53.2690048218,69.4727020264,69.4727020264,29.8213214874,1.83464193344,0.0,0.0773261189461,0.110384449363,0.280209034681,0.202882900834,17.4539852142,0.39651709795,-3.47561645508,-0.0376293174922,1.46355438232,0.0267401058227,-2.09365844727,-0.0755079314113,44.0182418823,92.3645935059,54.7325592041,27.7276630402,63
1630861016896550803,63,1630861016896550803,r200131356/base_footprint,0,1630861016896551162,alta/m1vW10zy74W/map,13.8577747255,-6.44320299231,0.0,0.0,0.0,0.914673612116,0.404193249943,1,69.2840652466,31.8096656799,61.2965774536,95.5636825562,53.1949729919,53.1949729919,69.2840652466,69.2840652466,31.4217815399,1.94147610664,0.0,0.0644644200802,0.0164187438786,0.103335924447,0.0388715043664,13.5772399902,0.299144417048,-3.67197418213,-0.0399597994983,1.49565505981,0.0273475572467,-3.68793869019,-0.13297611475,45.3869056702,91.891708374,54.6906280518,27.7338428497,60
1630861016996657900,64,1630861016996657900,r200131356/base_footprint,0,1630861016996658509,alta/m1vW10zy74W/map,13.8447596399,-6.4255207615,0.0,0.0,0.0,0.926934552295,0.375223048015,1,69.6320724487,43.0262680054,47.8487281799,95.8989486694,53.1943435669,53.1943435669,69.6320724487,69.6320724487,26.357881546,1.78211438656,0.0,0.0646298527718,0.0276950187981,0.109016910195,0.0443870574236,2.36063766479,0.0520114265382,-4.00724029541,-0.043608289212,1.49628448486,0.0273590665311,1.37596130371,0.0496130771935,45.3869056702,91.891708374,54.6906280518,27.7338428497,60
1630861017096411457,65,1630861017096411457,r200131356/base_footprint,0,1630861017096411782,alta/m1vW10zy74W/map,13.8453137681,-6.42584512103,0.0,0.0,0.0,0.941697999193,0.336459326391,1,69.9010391235,56.3448028564,46.8877296448,95.8226776123,53.2321395874,53.2321395874,69.9010391235,69.9010391235,21.6500854492,1.7600427866,0.0,0.067184522748,0.0398799031973,0.124467134476,0.057282615453,-10.9578971863,-0.241433009505,-3.93096923828,-0.0427782796323,1.45848846436,0.0266679786146,6.08375740051,0.219362229109,45.3869056702,91.891708374,54.6906280518,27.7338428497,60
1630861017196155574,66,1630861017196155574,r200131356/base_footprint,0,1630861017196155944,alta/m1vW10zy74W/map,13.8525379726,-6.44394941458,0.0,0.0,0.0,0.950819674264,0.309744970954,1,70.0148162842,56.0685043335,45.8229064941,95.4593658447,53.2532310486,53.2532310486,70.0148162842,70.0148162842,18.5219554901,1.73018848896,0.0,0.0669883936644,0.0406539104879,0.124248072505,0.0572596788406,-10.6815986633,-0.235345378518,-3.5676574707,-0.0388245843351,1.43739700317,0.0262823272496,9.21188735962,0.33215329051,45.3869056702,91.891708374,54.6906280518,27.7338428497,60
1630861017296349594,67,1630861017296349594,r200131356/base_footprint,0,1630861017296350117,alta/m1vW10zy74W/map,13.8600480572,-6.45443093505,0.0,0.0,0.0,0.96855554745,0.248797410565,1,69.8501281738,56.538028717,44.7042999268,95.6200256348,53.3342781067,53.3342781067,69.8501281738,69.8501281738,22.9400558472,1.74510109425,0.0,0.0677368193865,0.0419294089079,0.12482868135,0.0570918656886,-11.1511230469,-0.245690315962,-3.72831726074,-0.0405729450285,1.35634994507,0.0248004086316,4.79378700256,0.172849714756,45.3869056702,91.891708374,54.6906280518,27.7338428497,60
1630861017396373020,68,1630861017396373020,r200131356/base_footprint,0,1630861017396373292,alta/m1vW10zy74W/map,13.8543123291,-6.44910376472,0.0,0.0,0.0,0.976190296691,0.216915893023,0,70.3175888062,56.538028717,43.5912055969,95.6938476562,53.4199562073,53.4199562073,70.3175888062,70.3175888062,15.7167243958,1.70913636684,0.0,0.068052791059,0.0417470894754,0.124588757753,0.0565359741449,-11.1511230469,-0.245690315962,-3.80213928223,-0.0413763038814,1.27067184448,0.023233814165,12.017118454,0.433301597834,45.3869056702,91.891708374,54.6906280518,27.7338428497,60
1630861017796432699,69,1630861017796432699,r200131356/base_footprint,0,1630861017796432998,alta/m1vW10zy74W/map,13.8384406246,-6.4215485596,0.0,0.0,0.0,0.992678907628,0.120783220482,0,70.1563720703,51.1653709412,42.9475250244,95.2213973999,53.4238739014,53.4238739014,70.1563720703,70.1563720703,16.9602108002,1.69459784031,0.0,0.00774380750954,0.0261424444616,0.0885856971145,0.0808418914676,-5.778465271,-0.127315685153,-3.32968902588,-0.0362349227071,1.26675415039,0.0231621786952,10.7736320496,0.388465166092,45.3869056702,91.891708374,54.6906280518,27.7338428497,60
1630861017896301390,70,1630861017896301390,r200131356/base_footprint,0,1630861017896301754,alta/m1vW10zy74W/map,13.8197940065,-6.41296617367,0.0,0.0,0.0,0.995915362172,0.0902917016623,0,69.6449890137,53.7001914978,42.2022628784,94.908706665,53.4498748779,53.4498748779,69.6449890137,69.6449890137,25.3202457428,1.75906705856,0.0,0.0091239977628,0.0267290119082,0.104215912521,0.0950919166207,-8.31328582764,-0.183164849877,-3.01699829102,-0.0328321047127,1.24075317383,0.0226867608726,2.41359710693,0.0870271399617,45.3869056702,91.891708374,54.6906280518,27.7338428497,60
1630861017996115016,71,1630861017996115016,r200131356/base_footprint,0,1630861017996115205,alta/m1vW10zy74W/map,13.8027836905,-6.41335058792,0.0,0.0,0.0,0.998106096892,0.061516008873,0,70.0798187256,52.9411773682,41.2817230225,95.0074615479,53.4964981079,53.4964981079,70.0798187256,70.0798187256,18.352355957,1.81950318813,0.0,0.00900339335203,0.0282555613667,0.0993918552995,0.0903884619474,-7.25999069214,-0.158927366138,-3.25926971436,-0.0355240739882,1.16180038452,0.0212556999177,9.32826423645,0.336996227503,45.681186676,91.7481918335,54.6582984924,27.6806201935,61
1630861018096623481,72,1630861018096623481,r200131356/base_footprint,0,1630861018096623722,alta/m1vW10zy74W/map,13.8027836905,-6.41335058792,0.0,0.0,0.0,0.998106096892,0.061516008873,0,70.186668396,49.9051246643,41.2817230225,95.0074615479,53.5074958801,53.5074958801,70.186668396,70.186668396,16.5478210449,1.79670381546,0.0,0.00850114226341,0.0271036233753,0.094407774508,0.0859066322446,-4.22393798828,-0.0924655944109,-3.25926971436,-0.0355240739882,1.1508026123,0.0210544895381,11.1327991486,0.402187496424,45.681186676,91.7481918335,54.6582984924,27.6806201935,61
1630861018196246276,73,1630861018196246276,r200131356/base_footprint,0,1630861018196246471,alta/m1vW10zy74W/map,13.757193692,-6.40320938357,0.0,0.0,0.0,0.999490315202,0.0319234994576,0,70.3194274902,55.977230072,41.2817230225,95.8057174683,53.591583252,53.591583252,70.3194274902,70.3194274902,17.9399318695,1.78441131115,0.0,0.00864662230015,0.0249659884721,0.106353610754,0.0977069884539,-11.3358535767,-0.253931552172,-3.92517852783,-0.0427204556763,0.844825744629,0.0155194979161,9.82737922668,0.353918999434,44.6413764954,91.8805389404,54.4364089966,27.7673110962,59
1630861018296493897,74,1630861018296493897,r200131356/base_footprint,0,1630861018296494109,alta/m1vW10zy74W/map,13.7078132527,-6.40076823458,0.0,0.0,0.0,0.999994503298,0.00331562583536,0,70.2067337036,54.7511329651,40.6742210388,95.4911575317,53.5766563416,53.5766563416,70.2067337036,70.2067337036,18.6748580933,1.77064311504,0.0,0.0100171910599,0.0265504587442,0.126516401768,0.116499215364,-10.1239776611,-0.226856887341,-3.78753662109,-0.0413019321859,0.757606506348,0.0139434393495,8.82710266113,0.320962667465,44.627155304,91.7036209106,54.3342628479,27.5019607544,52
1630861018396478263,75,1630861018396478263,r200131356/base_footprint,0,1630861018396478554,alta/m1vW10zy74W/map,13.7078132527,-6.40076823458,0.0,0.0,0.0,0.999994503298,0.00331562583536,0,70.0887832642,54.9274253845,40.3625411987,95.4911575317,53.5592498779,53.5592498779,70.0887832642,70.0887832642,20.6099567413,1.83000791073,0.0,0.0127893742174,0.0276348851621,0.151427060366,0.138637691736,-10.3002700806,-0.230807229877,-3.78753662109,-0.0413019321859,0.775012969971,0.0142637984827,6.89200401306,0.250600457191,44.627155304,91.7036209106,54.3342628479,27.5019607544,52
1630861018497230065,76,1630861018497230065,r200131356/base_footprint,0,1630861018497231342,alta/m1vW10zy74W/map,13.6401044846,-6.43636929168,0.0,0.0,0.0,-0.999828892991,0.0184982361298,0,70.3296356201,57.4952545166,40.2327804565,96.090385437,53.6439704895,53.6439704895,70.3296356201,70.3296356201,19.3467617035,1.80274236202,0.0,0.0167198944837,0.0282076429576,0.191503226757,0.174783334136,-12.3835601807,-0.274508863688,-4.62602233887,-0.0505773201585,0.56978225708,0.0105099212378,7.727891922,0.285429030657,45.1116943359,91.4643630981,54.2137527466,27.0746536255,50
1630861018596264780,77,1630861018596264780,r200131356/base_footprint,0,1630861018596265080,alta/m1vW10zy74W/map,13.5727125193,-6.40795864663,0.0,0.0,0.0,-0.999438578457,0.03350414738,0,70.5017776489,56.7362442017,40.428062439,95.9353485107,53.7215080261,53.7215080261,70.5017776489,70.5017776489,16.5275974274,1.777998209,0.0,0.0218860823661,0.0280748959631,0.218404263258,0.196518182755,-11.8312339783,-0.263472467661,-4.53932952881,-0.0496665984392,0.0772895812988,0.0014366414398,10.0465984344,0.37805840373,44.9050102234,91.3960189819,53.7987976074,26.5741958618,41
1630861018696565993,78,1630861018696565993,r200131356/base_footprint,0,1630861018696566192,alta/m1vW10zy74W/map,13.4988286209,-6.44310345161,0.0,0.0,0.0,-0.99945822935,0.0329127298239,0,70.5365600586,56.7362442017,40.428062439,96.0168609619,53.7429046631,53.7429046631,70.5365600586,70.5365600586,16.4260082245,1.83189582825,0.0,0.024993095547,0.0248864963651,0.244848892093,0.21985578537,-11.5517234802,-0.255656659603,-4.53029632568,-0.0495187081397,-0.0312461853027,-0.000581739353947,10.4527702332,0.388885617256,45.1845207214,91.4865646362,53.7116584778,26.8787784576,39
1630861018796353910,79,1630861018796353910,r200131356/base_footprint,0,1630861018796354317,alta/m1vW10zy74W/map,13.4376465195,-6.45012026426,0.0,0.0,0.0,-0.999261133703,0.0384341862132,0,70.1196365356,50.0192222595,40.9149703979,96.1734085083,53.8352813721,53.8352813721,70.1196365356,70.1196365356,25.491815567,1.87232291698,0.0,0.0292965304106,0.000872029049788,0.243902951479,0.214606419206,-5.26542282104,-0.117653094232,-4.58139801025,-0.0500196255744,-0.323585510254,-0.00604700529948,1.45002555847,0.0538205802441,44.7537994385,91.592010498,53.5116958618,26.9418411255,39
1630861018896314208,80,1630861018896314208,r200131356/base_footprint,0,1630861018896314387,alta/m1vW10zy74W/map,13.3599198347,-6.42534601141,0.0,0.0,0.0,-0.999269369655,0.0382194566873,0,70.5139160156,56.4553108215,40.9149703979,95.7220001221,53.9517555237,53.9517555237,70.5139160156,70.5139160156,18.027639389,1.81902515888,0.0,0.0315859057009,0.0596713088453,0.122624635696,0.0910387262702,-10.6913719177,-0.233620017767,-3.97849273682,-0.0433653891087,-0.429878234863,-0.00803182274103,8.78008079529,0.327520608902,45.7639389038,91.7435073853,53.5218772888,26.8077201843,42
1630861018996449934,81,1630861018996449934,r200131356/base_footprint,0,1630861018996450166,alta/m1vW10zy74W/map,13.2788747404,-6.42966136197,0.0,0.0,0.0,-0.999449737294,0.0331696039095,0,69.8942871094,57.4952545166,41.7535858154,95.5807418823,54.081741333,54.081741333,69.8942871094,69.8942871094,30.076335907,1.85733735561,0.0,0.0247209426016,0.0857280567288,0.086012519896,0.0612915754318,-11.2493629456,-0.24325107038,-3.8702545166,-0.0422007851303,-0.521114349365,-0.00972942914814,-2.80341529846,-0.102791167796,46.245891571,91.7104873657,53.5606269836,27.2729206085,39
1630861019096356974,82,1630861019096356974,r200131356/base_footprint,0,1630861019096357128,alta/m1vW10zy74W/map,13.1681791134,-6.43499967962,0.0,0.0,0.0,-0.999517394116,0.0310641088772,0,70.0882720947,53.9969825745,42.4717559814,95.8532714844,54.1575393677,54.1575393677,70.0882720947,70.0882720947,28.384349823,1.79091393948,0.0,0.0144407497719,0.128051996231,0.0871939882636,0.0727532431483,-7.46309280396,-0.160379737616,-3.96731567383,-0.0431765168905,-0.520305633545,-0.00970045570284,-1.46948432922,-0.0545974969864,46.5338897705,91.8859558105,53.6372337341,26.9148654938,35
1630861019196180246,83,1630861019196180246,r200131356/base_footprint,0,1630861019196180485,alta/m1vW10zy74W/map,13.0769390315,-6.43564184382,0.0,0.0,0.0,-0.999355212688,0.0359048586218,0,70.2680053711,58.2542686462,43.311542511,94.6038131714,54.2521095276,54.2521095276,70.2680053711,70.2680053711,21.6724700928,1.78131306171,0.0,0.0178274679929,0.126523345709,0.0953441262245,0.0775166600943,-10.7626838684,-0.226622968912,-2.99478912354,-0.0326909832656,-0.661590576172,-0.0123452916741,4.39560508728,0.168620243669,47.4915847778,91.6090240479,53.5905189514,26.0680751801,32
1630861019296670601,84,1630861019296670601,r200131356/base_footprint,0,1630861019296671349,alta/m1vW10zy74W/map,13.0095824817,-6.4416741631,0.0,0.0,0.0,-0.999240110002,0.0389769491333,0,70.3483352661,59.5110778809,44.1678009033,94.1617431641,54.4100151062,54.4100151062,70.3483352661,70.3483352661,20.3403644562,1.86585748196,0.0,0.0172391440719,0.120623342693,0.0971800237894,0.0799408778548,-11.7593078613,-0.246259093285,-2.25137329102,-0.0244953129441,-0.939903259277,-0.0175781045109,6.07806968689,0.23006926477,47.7517700195,91.910369873,53.4701118469,26.4184341431,35
1630861019396487286,85,1630861019396487286,r200131356/base_footprint,0,1630861019396487557,alta/m1vW10zy74W/map,12.9494364679,-6.44580877316,0.0,0.0,0.0,-0.999104863165,0.0423021559639,0,70.320526123,61.0389595032,45.195098877,93.8439178467,54.5384941101,54.5384941101,70.320526123,70.320526123,21.0843734741,1.78517234325,0.0,0.0180335789919,0.11803676188,0.0997998267412,0.0817662477493,-12.9015731812,-0.268015652895,-1.69965362549,-0.0184455718845,-0.870357513428,-0.0162173975259,5.43555450439,0.204961135983,48.137386322,92.1442642212,53.6681365967,26.5199279785,35
1630861019496442925,86,1630861019496442925,r200131356/base_footprint,0,1630861019496443148,alta/m1vW10zy74W/map,12.8832882849,-6.45248219032,0.0,0.0,0.0,-0.999015312464,0.0443667157092,0,70.5076751709,62.3221855164,46.1727905273,94.1899795532,54.6251678467,54.6251678467,70.5076751709,70.5076751709,19.897567749,1.77941787243,0.0,0.0175523720682,0.115989841521,0.10009367764,0.0825413018465,-14.0088157654,-0.289957344532,-2.19794464111,-0.0238927714527,-0.957778930664,-0.0178465712816,6.74811935425,0.253253728151,48.313369751,91.9920349121,53.667388916,26.6456871033,37
1630861019596438454,87,1630861019596438454,r200131356/base_footprint,0,1630861019596438625,alta/m1vW10zy74W/map,12.8175889826,-6.46138040716,0.0,0.0,0.0,-0.998833494934,0.0482871556241,0,70.5875778198,62.0743026733,47.1101951599,94.8462524414,54.7751502991,54.7751502991,70.5875778198,70.5875778198,22.4417304993,1.80216646194,0.0,0.0172884967178,0.10914850235,0.0396512113512,0.0223627146333,-13.7694015503,-0.285051852465,-2.62944793701,-0.0285137612373,-1.00220870972,-0.0186377875507,4.5828037262,0.16957937181,48.304901123,92.2168045044,53.7729415894,27.0245342255,38
1630861025996279279,88,1630861025996279279,r200131356/base_footprint,0,1630861025996279399,alta/m1vW10zy74W/map,12.5699176869,-6.48151253023,0.0,0.0,0.0,-0.999499883922,0.0316224926151,0,70.7335662842,64.6289901733,47.4259872437,94.5917739868,54.9433860779,54.9433860779,70.7335662842,70.7335662842,20.7148227692,1.71240091324,0.0,0.000838689331431,0.0614629685879,0.00781325437129,0.00697456486523,-13.4538536072,-0.262898236513,-2.35098266602,-0.0254874508828,-0.835304260254,-0.0154376989231,6.74074363708,0.245514646173,51.1751365662,92.2407913208,54.1080818176,27.4555664062,37
1630861026096331502,89,1630861026096331502,r200131356/base_footprint,0,1630861026096331747,alta/m1vW10zy74W/map,12.5149336614,-6.48432576204,0.0,0.0,0.0,-0.999713719923,0.0239265166109,0,70.830368042,58.9783287048,47.5300827026,94.5463562012,55.116809845,55.116809845,70.830368042,70.830368042,20.6817836761,1.72034871578,0.0,0.0010176571086,0.0693099796772,0.0077821877785,0.0067645306699,-7.73676300049,-0.150986075401,-2.36177825928,-0.0256201010197,-0.962516784668,-0.0177736002952,6.58054733276,0.241378754377,51.2415657043,92.1845779419,54.1542930603,27.2623310089,41
1630861026196187411,90,1630861026196187411,r200131356/base_footprint,0,1630861026196209568,alta/m1vW10zy74W/map,12.5149336614,-6.48432576204,0.0,0.0,0.0,-0.999713719923,0.0239265166109,0,70.9622192383,60.5263175964,47.5587768555,94.5463562012,55.3196029663,55.3196029663,70.9622192383,70.9622192383,20.4985809326,1.75222396851,0.0,0.000914428732358,0.0794355869293,0.00707560777664,0.00616117892787,-9.28475189209,-0.181195706129,-2.36177825928,-0.0256201010197,-1.16530990601,-0.0215183291584,6.76375007629,0.248098745942,51.2415657043,92.1845779419,54.1542930603,27.2623310089,41
1630861026296392211,91,1630861026296392211,r200131356/base_footprint,0,1630861026296392394,alta/m1vW10zy74W/map,12.4609355539,-6.48516947896,0.0,0.0,0.0,-0.999836084934,0.0181053379828,0,70.8517913818,60.2649002075,47.5587768555,94.3707733154,55.4571800232,55.4571800232,70.8517913818,70.8517913818,23.3400745392,1.74094867706,0.0,0.000863902387209,0.0834586918354,0.00693637458608,0.00607247231528,-8.93106842041,-0.173980161548,-2.06105041504,-0.0223275553435,-1.17140960693,-0.0215785764158,4.03650093079,0.14744360745,51.3338317871,92.3097229004,54.2857704163,27.37657547,40
1630861026396345435,92,1630861026396345435,r200131356/base_footprint,0,1630861026396346086,alta/m1vW10zy74W/map,12.3994663494,-6.48753646132,0.0,0.0,0.0,-0.999907340124,0.0136129044164,0,70.8720092773,58.7066612244,47.5587768555,93.6837234497,55.6233825684,55.6233825684,70.8720092773,70.8720092773,22.297700882,1.72297799587,0.0,0.00122892891522,0.0967474505305,0.00420639058575,0.00297746178694,-7.37964630127,-0.143777042627,-1.42601013184,-0.0154568124563,-1.41164016724,-0.0260393805802,5.43496131897,0.195976898074,51.3270149231,92.2577133179,54.2117424011,27.7326622009,41
1630861026496574779,93,1630861026496574779,r200131356/base_footprint,0,1630861026496575111,alta/m1vW10zy74W/map,12.3994663494,-6.48753646132,0.0,0.0,0.0,-0.999907340124,0.0136129044164,0,71.1845855713,59.7523231506,47.6469802856,93.6837234497,55.7301216125,55.7301216125,71.1845855713,71.1845855713,17.8241271973,1.71504890919,0.0,0.0012325468706,0.106049783528,0.00424122950062,0.00300868251361,-8.42530822754,-0.164149582386,-1.42601013184,-0.0154568124563,-1.51837921143,-0.0280083082616,9.90853500366,0.357287555933,51.3270149231,92.2577133179,54.2117424011,27.7326622009,41
1630861026596342589,94,1630861026596342589,r200131356/base_footprint,0,1630861026596343292,alta/m1vW10zy74W/map,12.3310013145,-6.48845549583,0.0,0.0,0.0,-0.999958948242,0.00906100607214,0,71.0395278931,60.0,47.7025871277,93.8281478882,55.8337783813,55.8337783813,71.0395278931,71.0395278931,22.0745811462,1.71340417862,0.0,0.00062136730412,0.114055275917,0.00461626704782,0.00399489980191,-8.69491577148,-0.169474735856,-1.75001525879,-0.0190057642758,-1.50143432617,-0.0276342630386,5.49063110352,0.199186965823,51.3050842285,92.0781326294,54.3323440552,27.5652122498,39
1630861026696691393,95,1630861026696691393,r200131356/base_footprint,0,1630861026696692770,alta/m1vW10zy74W/map,12.2638715292,-6.49141995225,0.0,0.0,0.0,-0.999974524386,0.00713796740049,0,71.1474990845,59.7523231506,51.5526618958,93.3757781982,55.9332962036,55.9332962036,71.1474990845,71.1474990845,19.5774536133,1.74413561821,0.0,0.000390517554479,0.119911618531,0.00355837494135,0.00316785741597,-8.11671066284,-0.157192111015,-1.1872253418,-0.0128782298416,-1.59283447266,-0.0293121263385,8.12908935547,0.293399631977,51.6356124878,92.1885528564,54.340461731,27.7065429688,38
1630861026796314723,96,1630861026796314723,r200131356/base_footprint,0,1630861026796315665,alta/m1vW10zy74W/map,12.2638715292,-6.49141995225,0.0,0.0,0.0,-0.999974524386,0.00713796740049,0,71.106086731,59.2156867981,51.3680534363,93.3757781982,56.0412979126,56.0412979126,71.106086731,71.106086731,21.4893245697,1.71826577187,0.0,0.000663158774842,0.126990839839,0.00327494321391,0.00261178426445,-7.5800743103,-0.146799355745,-1.1872253418,-0.0128782298416,-1.70083618164,-0.0312996283174,6.21721839905,0.224395319819,51.6356124878,92.1885528564,54.340461731,27.7065429688,38
1630861026896235164,97,1630861026896235164,r200131356/base_footprint,0,1630861026896235428,alta/m1vW10zy74W/map,12.126346708,-6.49395741599,0.0,0.0,0.0,-0.999991093309,0.00422058077647,0,71.1493988037,59.2156867981,52.6558532715,93.5189971924,56.1311683655,56.1311683655,71.1493988037,71.1493988037,22.1958198547,1.71062254906,0.0,0.00084026058903,0.136837899685,0.00165171583649,0.000811455247458,-7.22260284424,-0.138914689422,-1.42908477783,-0.0155183635652,-1.79430770874,-0.0330219231546,5.41616439819,0.196152672172,51.9930839539,92.0899124146,54.3368606567,27.6119842529,41
1630861026996215740,98,1630861026996215740,r200131356/base_footprint,0,1630861026996215965,alta/m1vW10zy74W/map,12.0726519522,-6.49428697641,0.0,0.0,0.0,-0.999994133441,0.00342535903331,0,71.3532485962,58.9419670105,53.0888328552,93.8724899292,56.2589912415,56.2589912415,71.3532485962,71.3532485962,21.1795654297,1.71368598938,0.0,0.000692113419063,0.143514931202,0.00164991163183,0.000957798270974,-6.83200836182,-0.131107538939,-1.78671264648,-0.019402699545,-1.920753479,-0.0353480987251,6.64540672302,0.238828867674,52.1099586487,92.0857772827,54.3382377625,27.8249721527,41
1630861027096336480,99,1630861027096336480,r200131356/base_footprint,0,1630861027096336657,alta/m1vW10zy74W/map,12.0490020928,-6.49436921057,0.0,0.0,0.0,-0.999995865621,0.00287554169706,0,71.4065551758,58.9419670105,53.1955680847,93.9044265747,56.3619499207,56.3619499207,71.4065551758,71.4065551758,21.4469661713,1.69611930847,0.0,0.000902725558262,0.14894977212,0.0016846609069,0.000781935290433,-6.61486816406,-0.126413807273,-1.89102935791,-0.020551674068,-1.90714645386,-0.0350225567818,6.40376281738,0.229931607842,52.3270988464,92.0133972168,54.4548034668,27.8507289886,41
1630861027196865145,100,1630861027196865145,r200131356/base_footprint,0,1630861027196866243,alta/m1vW10zy74W/map,11.9977032713,-6.49315167627,0.0,0.0,0.0,-0.99999957001,0.000927351227885,0,71.5817718506,57.6470603943,53.1955680847,94.6441192627,56.4884223938,56.4884223938,71.5817718506,71.5817718506,22.3219299316,1.74027311802,0.0,0.0012851083884,0.156901597977,0.00127843359951,6.67484164296e-06,-5.04137802124,-0.0958333387971,-2.71103668213,-0.0294892396778,-1.91444778442,-0.0350798666477,5.63712882996,0.201620832086,52.605682373,91.9330825806,54.5739746094,27.9590587616,39
1630861027296894469,101,1630861027296894469,r200131356/base_footprint,0,1630861027296894903,alta/m1vW10zy74W/map,11.9329113319,-6.49114539544,0.0,0.0,0.0,0.99999761184,0.00218547811762,0,71.6013717651,58.4313735962,52.3806228638,94.0183258057,56.5902481079,56.5902481079,71.6013717651,71.6013717651,20.8159694672,1.6937212944,0.0,0.000799133442342,0.163454040885,0.000622496881988,0.000176636545802,-5.89358139038,-0.112177938223,-2.1169128418,-0.0230346061289,-2.1343460083,-0.0391940250993,6.94438743591,0.250154823065,52.5377922058,91.9014129639,54.4559020996,27.7603569031,39
1630861027396146828,102,1630861027396146828,r200131356/base_footprint,0,1630861027396147102,alta/m1vW10zy74W/map,11.8119649572,-6.48905608091,0.0,0.0,0.0,0.999999276688,0.00120275696508,0,71.7173080444,52.3052482605,51.5027885437,93.96534729,56.6258163452,56.6258163452,71.7173080444,71.7173080444,18.9225788116,1.61528813839,0.0,0.000717219721992,0.1804266572,0.00153021072038,0.00224743038416,0.27409362793,0.00521295284852,-1.89306640625,-0.0205606557429,-2.24531936646,-0.0412890538573,8.38955307007,0.307173132896,52.5793418884,92.0722808838,54.3804969788,27.3121318817,34
