%time,field.header.seq,field.header.stamp,field.header.frame_id,field.pose.header.seq,field.pose.header.stamp,field.pose.header.frame_id,field.pose.pose.position.x,field.pose.pose.position.y,field.pose.pose.position.z,field.pose.pose.orientation.x,field.pose.pose.orientation.y,field.pose.pose.orientation.z,field.pose.pose.orientation.w,field.label,field.main_output,field.scan_score,field.pose_score,field.cov_score,field.lhood_map_score,field.lhood_robot_score,field.lhood_map_score_all,field.lhood_robot_score_all,field.point_angle_diff,field.average_orientation,field.map_average_orientation,field.sensor_div,field.odom_div_x,field.odom_div_w,field.imu_div_w,field.kdtree_div,field.kdtree_div_p,field.cov_div,field.cov_div_p,field.likelihood_div,field.likelihood_div_p,field.normal_diff_div,field.normal_diff_div_p,field.kdtree_average,field.cov_average,field.likelihood_average,field.normal_diff_average,field.map_update_count
1.649533139678E+018,0,1.649533139678E+018,r200121355/base_footprint,0,1.649533139678E+018,v/m1vw10zy74w/map,-11.0532335966,3.15084455308,0,0,0,0.964058207135,0.265691123781,1,52.0562019348,0,100,77.9251022339,28.9292030334,28.9292030334,52.0562019348,52.0562019348,15.9541606903,0.37726572156,0,0.00424894457683,0.208970949054,0.148161694407,0.143912747502,26.8335361481,1,9.0009765625,0.103547483683,17.6814918518,0.379344105721,11.5152397156,0.419202446938,26.8335361481,86.9260787964,46.6106948852,27.4694004059,212
1.649533139778E+018,1,1.649533139778E+018,r200121355/base_footprint,0,1.649533139778E+018,v/m1vw10zy74w/map,-11.1751817985,3.24185996593,0,0,0,0.941740845002,0.336339383443,1,49.3110694885,0,43.5513801575,71.9821472168,28.682510376,28.682510376,49.3110694885,49.3110694885,41.3075561523,-0.302798092365,0,0.00583214266226,0.218382805586,0.204792618752,0.198960468173,27.2553882599,1,15.9201965332,0.18111230433,18.1113204956,0.387045055628,-13.467634201,-0.483752578497,27.2553882599,87.90234375,46.7938308716,27.8399219513,241
1.64953313987799E+018,2,1.64953313987799E+018,r200121355/base_footprint,0,1.64953313987799E+018,v/m1vw10zy74w/map,-11.1751817985,3.24185996593,0,0,0,0.941740845002,0.336339383443,1,49.9337310791,0,42.6229705811,71.9821472168,28.5268707275,28.5268707275,49.9337310791,49.9337310791,28.418762207,0.73672747612,0,0.00658272346482,0.218467622995,0.220676183701,0.214093461633,27.2553882599,1,15.9201965332,0.18111230433,18.266960144,0.390371114016,-0.578840255737,-0.0207917336375,27.2553882599,87.90234375,46.7938308715,27.839921951263,241
1.64953313997811E+018,3,1.64953313997811E+018,r200121355/base_footprint,0,1.64953313997811E+018,v/m1vw10zy74w/map,-11.2149589008,3.360773564,0,0,0,0.905486969982,0.424374065175,1,45.8529319763,0,41.7514762878,63.1735115051,28.3353900909,28.3353900909,45.8529319763,45.8529319763,68.0940628052,0.406749248505,0,0.00681216176599,0.216563746333,0.226373717189,0.219561561942,27.4962520599,1,25.1454429626,0.284711748362,18.4931278229,0.394911646843,-40.2400283813,-1.44467496872,27.4962520599,88.3189544677,46.8285179138,27.8540344239,261
1.64953314007792E+018,4,1.64953314007792E+018,r200121355/base_footprint,0,1.64953314007792E+018,v/m1vw10zy74w/map,-11.2149589008,3.360773564,0,0,0,0.905486969982,0.424374065175,1,45.057598114,0,41.6580162048,63.1735115051,28.1679382324,28.1679382324,45.057598114,45.057598114,80.6016159058,-0.949430882931,0,0.00692752515897,0.216053664684,0.222449630499,0.215522110462,27.4962520599,1,25.1454429626,0.284711748362,18.6605796814,0.398487508297,-52.7475814819,-1.89371407032,27.4962520599,88.3189544677,46.8285179138,27.8540344239,261
1.64953314017776E+018,5,1.64953314017776E+018,r200121355/base_footprint,0,1.64953314017776E+018,v/m1vw10zy74w/map,-11.1936807701,3.49188335327,0,0,0,0.861531116199,0.507704772305,1,47.2952880859,0,42.1783638,67.3966293335,27.9844779968,27.9844779968,47.2952880859,47.2952880859,53.5450172424,-0.397947669029,0,0.00713135674596,0.214788869023,0.205843895674,0.198712542653,28.0279750824,1,21.7378540039,0.24387703836,19.0302009583,0.404771476984,-25.8922290802,-0.936333417892,28.0279750824,89.1344833374,47.0146789551,27.6527881622,269
1.64953314027827E+018,6,1.64953314027827E+018,r200121355/base_footprint,0,1.64953314027827E+018,v/m1vw10zy74w/map,-11.1936807701,3.49188335327,0,0,0,0.861531116199,0.507704772305,1,48.2774925232,0,43.0489349365,67.3966293335,27.9075813293,27.9075813293,48.2774925232,48.2774925232,35.0348472595,0.79729115963,0,0.00712112942711,0.214184165001,0.190595567226,0.183474436402,28.0279750824,1,21.7378540039,0.24387703836,19.1070976257,0.406407058239,-7.38205909729,-0.266955316067,28.0279750824,89.1344833374,47.014678955,27.65278816221,269
1.64953314038015E+018,7,1.64953314038015E+018,r200121355/base_footprint,0,1.64953314038015E+018,v/m1vw10zy74w/map,-11.1937401402,3.59936554575,0,0,0,0.823072038568,0.567936985349,1,50.92918396,0,42.9869918823,81.822013855,27.7433204651,27.7433204651,50.92918396,50.92918396,37.461807251,0.131566256285,0,0.00717449607328,0.213694691658,0.169684112072,0.16250962019,28.2218055725,1,7.43271636963,0.0832753181458,19.360534668,0.411018043756,-10.0051136017,-0.364396154881,28.2218055725,89.25473022463,47.1038551331,27.4566936493,286
1.6495331404783E+018,8,1.6495331404783E+018,r200121355/base_footprint,0,1.6495331404783E+018,v/m1vw10zy74w/map,-11.2084624294,3.72396904268,0,0,0,0.776613594834,0.629977241111,1,51.2523422241,0,42.3217926025,87.3016586304,27.68932724,27.68932724,51.2523422241,51.2523422241,50.7885055542,-0.493727564812,0,0.0071511096321,0.214390009642,0.0862957909703,0.0791446864605,28.3409481049,1,2.14029693604,0.0239294506609,19.5988044739,0.414455026388,-23.5202884674,-0.862553238869,28.3409481049,89.44195556644,47.2881317139,27.2682170868,271
1.64953314057911E+018,9,1.64953314057911E+018,r200121355/base_footprint,0,1.64953314057911E+018,v/m1vw10zy74w/map,-11.2084624294,3.72396904268,0,0,0,0.776613594834,0.629977241111,1,53.0636367798,0,32.1311073303,87.3016586304,28.2227554321,28.2227554321,53.0636367798,53.0636367798,23.9462585449,0.109332233667,0,0.00101801345591,0.22294652462,0.00987392291427,0.0108919367194,28.3409481049,1,2.14029693604,0.0239294506609,19.0653762817,0.40317466855,3.32195854187,0.121825292706,28.3409481049,89.44195556644,47.2881317138,27.26821708677,271
1.64953314067793E+018,10,1.64953314067793E+018,r200121355/base_footprint,0,1.64953314067793E+018,v/m1vw10zy74w/map,-11.2506376947,4.00961046082,0,0,0,0.752027355031,0.659131896729,1,53.4669265747,11.0699396133,18.931137085,86.4651031494,29.7721347809,29.7721347809,53.4669265747,53.4669265747,30.4087352753,0.00150885258336,0,0.00129820255097,0.230796292424,0.0575328245759,0.0562346205115,17.5492095947,0.613198161125,1.24189758301,0.0141596179456,17.6084346771,0.371638298035,-2.62796020508,-0.0945963636041,28.619149208,87.70700073241,47.380569458,27.78077507022,246
1.64953314118057E+018,11,1.64953314118057E+018,r200121355/base_footprint,0,1.64953314118058E+018,v/m1vw10zy74w/map,-11.3081634266,4.74034339581,0,0,0,0.682738185583,0.730663102905,0,53.0801887512,9.92647075653,9.2045507431,78.2395477295,31.2113265991,31.2113265991,53.0801887512,53.0801887512,23.3012981415,-0.157839208841,0,0.00219573732466,0.192957222462,0.135090336204,0.137286067009,12.3965845108,0.555326521397,6.49694824219,0.0766723752022,13.6321144104,0.303993493319,9.7150554657,0.294249802828,22.32305526733,84.73649597169,44.8434410095,33.0163536072,765
1.64953314127797E+018,12,1.64953314127797E+018,r200121355/base_footprint,0,1.64953314127797E+018,v/m1vw10zy74w/map,-11.3081634266,4.74034339581,0,0,0,0.682738185583,0.730663102905,0,53.5828323364,14.0989732742,1.91912639141,78.2395477295,32.4314651489,32.4314651489,53.5828323364,53.5828323364,27.4312171936,-0.113995991647,0,0.00195399811491,0.2010178864,0.126349329948,0.128303334117,8.2240819931,0.368412017822,6.49694824219,0.0766723752022,12.4119758606,0.276784658432,5.58513641357,0.169162720442,22.3230552673,84.73649597169,44.8434410095,33.01635360717,765
1.64953314137946E+018,13,1.64953314137946E+018,r200121355/base_footprint,0,1.64953314137946E+018,v/m1vw10zy74w/map,-11.3081634266,4.74034339581,0,0,0,0.682738185583,0.730663102905,0,54.1232681274,13.211186409,0,78.2395477295,33.5145454407,33.5145454407,54.1232681274,54.1232681274,29.4006233215,-0.174098655581,0,0.00217176182196,0.203587189317,0.115116290748,0.117288053036,9.11186885834,0.408181965351,6.49694824219,0.0766723752022,11.3288955688,0.252632170916,3.61573028564,0.109513312578,22.32305526734,84.73649597169,44.8434410095,33.01635360714,765
1.64953314147793E+018,14,1.64953314147793E+018,r200121355/base_footprint,0,1.64953314147793E+018,v/m1vw10zy74w/map,-11.3081634266,4.74034339581,0,0,0,0.682738185583,0.730663102905,0,55.0138015747,13.9167861938,0,78.2395477295,34.5078086853,34.5078086853,55.0138015747,55.0138015747,24.0983219147,-0.0221484676003,0,0.00267639709637,0.20600284636,0.0943013057113,0.0969777032733,8.40626907349,0.37657341361,6.49694824219,0.0766723752022,10.3356323242,0.230482593179,8.9180316925,0.270109534264,22.32305526729,84.73649597169,44.8434410095,33.0163536072,765
1.6495331415779E+018,15,1.6495331415779E+018,r200121355/base_footprint,0,1.6495331415779E+018,v/m1vw10zy74w/map,-11.3039220361,4.81666007593,0,0,0,0.642490600017,0.766293565737,0,56.183631897,10.8159389496,0,81.5090026855,35.4626731873,35.4626731873,56.183631897,56.183631897,25.1239070892,-0.113417111337,0,0.00336800981313,0.207572251558,0.0750916227698,0.0784596353769,11.1990146637,0.508700370789,3.2936706543,0.0388392321765,9.27801132202,0.207373023033,7.90684318542,0.239378243685,22.0149536133,84.8026733398,44.74068450932,33.03075027462,891
1.64953314167774E+018,16,1.64953314167774E+018,r200121355/base_footprint,0,1.64953314167774E+018,v/m1vw10zy74w/map,-11.3017639424,4.86535825235,0,0,0,0.593802813288,0.804610600807,0,56.7144393921,20.9257469177,0,83.8682174683,36.4336166382,36.4336166382,56.7144393921,56.7144393921,34.54870224,-0.274162471294,0,0.00415320135653,0.208798259497,0.0575796067715,0.0617328062654,0.985786437988,0.0449893847108,0.9609375,0.0113279158249,8.27167892456,0.185026824474,-1.44188690186,-0.043552570045,21.911533355688,84.8291549683,44.70529556276,33.10681533814,933
1.64953314177789E+018,17,1.64953314177789E+018,r200121355/base_footprint,0,1.64953314177789E+018,v/m1vw10zy74w/map,-11.2864211627,4.89467980999,0,0,0,0.552837372016,0.833289169558,0,57.1464271545,17.0684661865,0,82.5453109741,37.3451728821,37.3451728821,57.1464271545,57.1464271545,31.8552837372,-0.139184936881,0,0.00500178942457,0.208644866943,0.052546042949,0.0575478337705,4.85260009766,0.221366971731,2.36587524414,0.0278629399836,7.36612701416,0.164748668671,1.24535942078,0.0376234203577,21.92106628416,84.91118621824,44.71129989626,33.10064315798,977
1.64953314188447E+018,18,1.64953314188447E+018,r200121355/base_footprint,0,1.64953314188448E+018,v/m1vw10zy74w/map,-11.2863891371,4.91427309619,0,0,0,0.553241726737,0.833020763125,0,58.0419311523,17.248254776,0,85.541015625,38.1894721985,38.1894721985,58.0419311523,58.0419311523,35.6391830444,-0.175101965666,0,0.00516138924286,0.208876386285,0.0452788099647,0.0504401996732,4.67281150818,0.213165342808,-0.629829406738,-0.00741750793532,6.52182769775,0.145865306258,-2.53853988647,-0.0766915604472,21.92106628418,84.911186218262,44.71129989625,33.10064315793,977
1.64953314197806E+018,19,1.64953314197806E+018,r200121355/base_footprint,0,1.64953314197806E+018,v/m1vw10zy74w/map,-11.2730005241,4.96538375242,0,0,0,0.503881123633,0.863773010256,0,58.0018234253,19.2422733307,0,84.2912979126,38.8451004028,38.8451004028,58.0018234253,58.0018234253,38.9429664612,-0.0483789667487,0,0.00524134282023,0.208841890097,0.0403738059103,0.0456151477993,2.60872077942,0.119386821985,0.706405639648,0.00831087958068,5.82069778442,0.130316659808,-5.72113800049,-0.172210201621,21.85099411012,84.997703552248,44.66579818722,33.22182846071,1007
1.64953314207786E+018,20,1.64953314207786E+018,r200121355/base_footprint,0,1.64953314207786E+018,v/m1vw10zy74w/map,-11.2593523397,5.01042874864,0,0,0,0.450039463619,0.893008668035,0,59.2883415222,22.5490188599,0,87.1523208618,39.6189231873,39.6189231873,59.2883415222,59.2883415222,34.4425621033,-0.13393433392,0,0.00586381368339,0.208284169436,0.0509650483727,0.0568288601935,-0.765335083008,-0.0351334102452,-2.16578674316,-0.0254838820547,5.00968170166,0.112252704799,-1.18909835815,-0.0357586331666,21.783683776892,84.98653411864,44.62860488896,33.25346374515,1020
1.64953314217911E+018,21,1.64953314217911E+018,r200121355/base_footprint,0,1.64953314217911E+018,v/m1vw10zy74w/map,-11.2314482452,5.06113156943,0,0,0,0.388668522439,0.921377653118,0,60.0579185486,17.3553714752,0,90.5286026001,40.3859558105,40.3859558105,60.0579185486,60.0579185486,41.028793335,-0.107434511185,0,0.00634322548285,0.216030195355,0.105639979243,0.111983202398,4.28776741028,0.198112085462,-5.36577606201,-0.063006080687,4.21757125854,0.0945568978786,-7.66187286377,-0.229624807835,21.64313888548,85.16282653809,44.60352706904,33.36692047123,1040
1.64953314227861E+018,22,1.64953314227861E+018,r200121355/base_footprint,0,1.64953314227861E+018,v/m1vw10zy74w/map,-11.1932250569,5.09453866302,0,0,0,0.322402574846,0.94660265145,0,60.7164840698,21.5686283112,2.00328040123,91.8497772217,40.8740272522,40.8740272522,60.7164840698,60.7164840698,39.2019615173,-0.261192589998,0,0.00534337945282,0.23437653482,0.18907892704,0.19442230463,-0.0405864715576,-0.00188528397121,-6.67530059814,-0.0783720761538,3.67472076416,0.0824876353145,-5.81089019775,-0.174025267363,21.5280418396424,85.17447662356,44.54874801636,33.39107131955,1031
1.64953314237942E+018,23,1.64953314237942E+018,r200121355/base_footprint,0,1.64953314237942E+018,v/m1vw10zy74w/map,-11.1932250569,5.09453866302,0,0,0,0.322402574846,0.94660265145,0,60.8106613159,28.2153530121,7.26732635498,91.8497772217,41.4027252197,41.4027252197,60.8106613159,60.8106613159,43.2167434692,-0.347074538469,0,0.00295445416123,0.25598603487,0.238698795438,0.241653248668,-6.68731117249,-0.310632586479,-6.67530059814,-0.0783720761538,3.14602279663,0.070619776845,-9.82567214966,-0.294260472059,21.52804183961,85.17447662356,44.54874801633,33.39107131954,1031
1.64953314247794E+018,24,1.64953314247794E+018,r200121355/base_footprint,0,1.64953314247794E+018,v/m1vw10zy74w/map,-11.1520525991,5.11616598409,0,0,0,0.265463724692,0.964120848687,0,61.2649383545,29.61287117,13.1418895721,91.8995819092,41.9855308533,41.9855308533,61.2649383545,61.2649383545,41.5133209229,-0.33480989933,0,0.00215141428635,0.266376703978,0.254326283932,0.256477713585,-8.20951843262,-0.383562266827,-6.58116149902,-0.077136464417,2.51789474487,0.0565775483847,-8.08138275146,-0.241726413369,21.40335273738,85.31842041018,44.50342559817,33.43193817144,1062
1.64953314417793E+018,25,1.64953314417793E+018,r200121355/base_footprint,0,1.64953314417793E+018,v/m1vw10zy74w/map,-11.0695827968,5.15346299628,0,0,0,0.156874958162,0.987618472641,0,62.1055335999,27.9918861389,20.2625160217,93.5977096558,42.6042175293,42.6042175293,62.1055335999,62.1055335999,39.1777038574,-0.194758355618,0,0.00191214145161,0.044504545629,0.116024173796,0.11411203444,-6.59657669067,-0.308318823576,-8.02355957031,-0.0937614887953,1.9252204895,0.0432347804308,-5.69609069824,-0.170125931501,21.39530944823,85.57415008549,44.5294380188,33.48161315916,1100
1.64953314427897E+018,26,1.64953314427897E+018,r200121355/base_footprint,0,1.64953314427897E+018,v/m1vw10zy74w/map,-11.0695827968,5.15346299628,0,0,0,0.156874958162,0.987618472641,0,62.6079025269,30.4347820282,28.792881012,93.5977096558,42.9151000977,42.9151000977,62.6079025269,62.6079025269,33.4926147461,-0.243430241942,0,0.00245429133065,0.0442179962993,0.104406297207,0.101952001452,-9.03947257996,-0.422497868538,-8.02355957031,-0.0937614887953,1.61433792114,0.0362532734871,-0.0110015869141,-0.000328585942043,21.39530944824,85.57415008549,44.52943801884,33.4816131591859,1100
1.64953314437856E+018,27,1.64953314437856E+018,r200121355/base_footprint,0,1.64953314437856E+018,v/m1vw10zy74w/map,-11.0695827968,5.15346299628,0,0,0,0.156874958162,0.987618472641,0,62.9936523438,31.0344829559,37.5251617432,93.5977096558,43.2563514709,43.2563514709,62.9936523438,62.9936523438,30.2346076965,-0.245755881071,0,0.0017762274947,0.0455083884299,0.0843528211117,0.0825765952468,-9.63917350769,-0.450527429581,-8.02355957031,-0.0937614887953,1.27308654785,0.0285897739232,3.24700546265,0.0969787612557,21.39530944821,85.57415008549,44.52943801875,33.48161315915,1100
1.64953314447791E+018,28,1.64953314447791E+018,r200121355/base_footprint,0,1.64953314447791E+018,v/m1vw10zy74w/map,-11.0310861256,5.164354313,0,0,0,0.101719830406,0.994813086013,0,63.0477523804,32.0486831665,46.3567619324,94.1721420288,43.4738197327,43.4738197327,63.0477523804,63.0477523804,33.6774330139,0.00172601162922,0,0.00211266195402,0.0476338192821,0.080117918551,0.0780052542686,-10.6160678864,-0.495323032141,-8.48983764648,-0.0990850776434,1.06954956055,0.024011420086,-0.20337677002,-0.0060756537132,21.4326152801,85.68230438232,44.54336929325,33.47405624388,1124
1.64953314457782E+018,29,1.64953314457782E+018,r200121355/base_footprint,0,1.64953314457782E+018,v/m1vw10zy74w/map,-11.0310861256,5.164354313,0,0,0,0.101719830406,0.994813086013,0,63.0289840698,28.9878120422,48.3682518005,94.1721420288,43.5417518616,43.5417518616,63.0289840698,63.0289840698,34.7489318848,-0.158170223236,0,0.00220248149708,0.0456648916006,0.0658524483442,0.0636499673128,-7.55519676208,-0.352509319782,-8.48983764648,-0.0990850776434,1.00161743164,0.0224863421172,-1.27487564087,-0.0380854830146,21.43261528012,85.68230438232,44.54336929324,33.47405624393,1124
1.64953314467915E+018,30,1.64953314467915E+018,r200121355/base_footprint,0,1.64953314467915E+018,v/m1vw10zy74w/map,-10.9981538575,5.17436427992,0,0,0,0.0427907576126,0.999084056055,0,63.5342750549,25.0390415192,48.4353942871,94.7387313843,43.7981948853,43.7981948853,63.5342750549,63.5342750549,30.4629840851,-0.150071829557,0,0.00253372709267,0.0347928926349,0.0486509762704,0.046117246151,-3.60642623901,-0.168268144131,-9.05642700195,-0.105697751045,0.745174407959,0.016729189083,3.01107215881,0.089952416718,21.43261528019,85.68230438235,44.543369293259,33.47405624391,1124
1.64953314477775E+018,31,1.64953314477775E+018,r200121355/base_footprint,0,1.64953314477775E+018,v/m1vw10zy74w/map,-10.9562853714,5.17628835602,0,0,0,-0.0135883796271,0.999907673707,0,63.3090515137,25.420167923,48.4723472595,94.401512146,43.8415908813,43.8415908813,63.3090515137,63.3090515137,33.7717132568,-0.409428983927,0,0.00182613485958,0.0166726578027,0.0219178628176,0.020091727376,-4.02013969421,-0.1878567487,-8.67571258545,-0.10120305419,0.683609008789,0.0153533061966,-0.286170959473,-0.00854610465467,21.40002822879,85.72579956055,44.525199890089,33.485542297327,1150
1.64953314487784E+018,32,1.64953314487784E+018,r200121355/base_footprint,0,1.64953314487784E+018,v/m1vw10zy74w/map,-10.9536216382,5.17514756168,0,0,0,-0.0152992070256,0.999882960283,0,63.6207580566,27.1212902069,48.4061203003,94.9106140137,44.0769004822,44.0769004822,63.6207580566,63.6207580566,32.5351028442,-0.345218241215,0,0.000103181162558,0.000141313677887,0.0333634093404,0.0332602262497,-5.72126197815,-0.267348349094,-9.18481445312,-0.107141777873,0.448299407959,0.0100684426725,0.950439453125,0.0283835772425,21.40002822875,85.72579956058,44.525199890159,33.485542297325,1150
1.64953314498013E+018,33,1.64953314498013E+018,r200121355/base_footprint,0,1.64953314498013E+018,v/m1vw10zy74w/map,-10.9066466979,5.16816652619,0,0,0,-0.0702089776741,0.997532304968,0,63.9249534607,25.6965942383,48.2462310791,94.936630249,44.3051757812,44.3051757812,63.9249534607,63.9249534607,29.618637085,-0.333543211222,0,0.000278676248854,0.0208205357194,0.0643616095185,0.0646402835846,-4.381690979,-0.20556935668,-9.11673736572,-0.106231048703,0.223899841309,0.00502817193046,3.7986907959,0.113674283028,21.3149032593,85.81989288328,44.529075622509,33.4173278809,1185
1.64953314507918E+018,34,1.64953314507918E+018,r200121355/base_footprint,0,1.64953314507919E+018,v/m1vw10zy74w/map,-10.9066466979,5.16816652619,0,0,0,-0.0702089776741,0.997532304968,0,63.7917289734,30.8565540314,48.1226348877,94.936630249,44.3281669617,44.3281669617,63.7917289734,63.7917289734,32.2649497986,-0.295392334461,0,0.00168158009183,0.0634015053511,0.0633334964514,0.0616519153118,-9.54165077209,-0.44765162468,-9.11673736572,-0.106231048703,0.200908660889,0.00451185321435,1.15237808228,0.0344844460487,21.31490325931,85.81989288328,44.529075622589,33.41732788088,1185
1.64953314517811E+018,35,1.64953314517811E+018,r200121355/base_footprint,0,1.64953314517811E+018,v/m1vw10zy74w/map,-10.9066466979,5.16816652619,0,0,0,-0.0702089776741,0.997532304968,0,63.663192749,27.7605781555,48.0377426147,94.936630249,44.3278045654,44.3278045654,63.663192749,63.663192749,34.5746841431,-0.263793587685,0,0.00171046040487,0.0769574791193,0.0498702600598,0.0481598004699,-6.44567489624,-0.302402257919,-9.11673736572,-0.106231048703,0.201271057129,0.00451999204233,-1.15735626221,-0.0346334166825,21.31490325926,85.81989288328,44.529075622529,33.41732788089,1185
1.64953314527829E+018,36,1.64953314527829E+018,r200121355/base_footprint,0,1.64953314527829E+018,v/m1vw10zy74w/map,-10.9066466979,5.16816652619,0,0,0,-0.0702089776741,0.997532304968,0,63.7446899414,26.7285861969,47.9975090027,94.936630249,44.29063797,44.29063797,63.7446899414,63.7446899414,32.7063293457,-0.140525236726,0,0.00113636848982,0.0900257825851,0.0376537814736,0.0365174114704,-5.41368293762,-0.253985822201,-9.11673736572,-0.106231048703,0.238437652588,0.00535465078428,0.710998535156,0.0212763436139,21.31490325928,85.81989288328,44.529075622588,33.417327880856,1185
1.64953314537814E+018,37,1.64953314537814E+018,r200121355/base_footprint,0,1.64953314537814E+018,v/m1vw10zy74w/map,-10.9066466979,5.16816652619,0,0,0,-0.0702089776741,0.997532304968,0,63.6242332458,26.080165863,47.986415863,94.936630249,44.2721939087,44.2721939087,63.6242332458,63.6242332458,34.6753692627,-0.41348657012,0,0.000276162551017,0.104871101677,0.0294311847538,0.0291550215334,-4.76526260376,-0.223564818501,-9.11673736572,-0.106231048703,0.256881713867,0.00576885370538,-1.25804138184,-0.0376463793218,21.31490325924,85.81989288328,44.529075622567,33.41732788086,1185
1.6495331454798E+018,38,1.6495331454798E+018,r200121355/base_footprint,0,1.6495331454798E+018,v/m1vw10zy74w/map,-10.9066466979,5.16816652619,0,0,0,-0.0702089776741,0.997532304968,0,63.4228744507,23.632610321,48.0124778748,94.936630249,44.1151504517,44.1151504517,63.4228744507,63.4228744507,36.6037635803,-0.306720048189,0,0.000321030645864,0.117704235017,0.0276422873139,0.0279633179307,-2.31770706177,-0.108736455441,-9.11673736572,-0.106231048703,0.413925170898,0.00929561536759,-3.18643569946,-0.0953527987003,21.31490325923,85.81989288328,44.529075622598,33.41732788084,1185
1.64953314557793E+018,39,1.64953314557793E+018,r200121355/base_footprint,0,1.64953314557793E+018,v/m1vw10zy74w/map,-10.6951775966,5.13308261237,0,0,0,-0.0804999174171,0.996754615387,0,63.7025642395,23.632610321,48.0788383484,93.2298583984,44.1913566589,44.1913566589,63.7025642395,63.7025642395,26.2480068207,-0.181556895375,0,0.00050714117242,0.122601076961,0.0287568550557,0.0292639955878,-2.29802513123,-0.107713609934,-7.17428588867,-0.0833680555224,0.280601501465,0.00630962755531,7.19526481628,0.215148359537,21.33458518977,86.05557250973,44.471958160365,33.44327163698,1197
1.6495331456779E+018,40,1.6495331456779E+018,r200121355/base_footprint,0,1.6495331456779E+018,v/m1vw10zy74w/map,-10.6951775966,5.13308261237,0,0,0,-0.0804999174171,0.996754615387,0,63.669090271,24.7482776642,48.1444473267,93.2298583984,44.2641105652,44.2641105652,63.669090271,63.669090271,27.6362419128,-0.255641251802,0,0.000486797391204,0.138501673937,0.0314658470452,0.0319526456296,-3.41369247437,-0.160007447004,-7.17428588867,-0.0833680555224,0.207847595215,0.00467367749661,5.80702972412,0.173638209701,21.33458518983,86.05557250973,44.471958160415,33.44327163692,1197
1.64953314577787E+018,41,1.64953314577787E+018,r200121355/base_footprint,0,1.64953314577787E+018,v/m1vw10zy74w/map,-10.4846777213,5.10418822315,0,0,0,-0.0452476319207,0.998975801411,0,62.6630020142,25.5261745453,48.3877906799,89.9683151245,44.2633895874,44.2633895874,62.6630020142,62.6630020142,33.9965133667,-0.0961975976825,0,0.000208285724511,0.15171867609,0.0286756455898,0.0288839302957,-4.17695045471,-0.195648819208,-3.92878723145,-0.0456625856459,0.0986671447754,0.00222413358279,-0.283309936523,-0.00840353034437,21.34922409059,86.03952789305,44.3620567321754,33.713203430177,1216
1.64953314587895E+018,42,1.64953314587895E+018,r200121355/base_footprint,0,1.64953314587895E+018,v/m1vw10zy74w/map,-10.4785376287,5.10141506843,0,0,0,-0.044384791008,0.999014509568,0,63.2014961243,23.3675117493,48.4755134583,90.9403610229,44.3398017883,44.3398017883,63.2014961243,63.2014961243,28.6281967163,-0.0224235728383,0,7.74334694142E-05,0.162187352777,0.0229804832488,0.023057917133,-2.01828765869,-0.0945368185639,-4.90083312988,-0.0569602511823,0.0222549438477,0.000501666159835,5.08500671387,0.150831311941,21.34922409061,86.03952789302,44.3620567321477,33.71320343017,1216
1.64953314627784E+018,43,1.64953314627784E+018,r200121355/base_footprint,0,1.64953314627784E+018,v/m1vw10zy74w/map,-10.4785376287,5.10141506843,0,0,0,-0.044384791008,0.999014509568,0,62.9860153198,29.6218490601,48.5693359375,90.9403610229,44.4620704651,44.4620704651,62.9860153198,62.9860153198,33.8273620605,-0.225326031446,0,0.000114000438771,0.168125763535,0.0178730841726,0.0179870855063,-8.27262496948,-0.387490659952,-4.90083312988,-0.0569602511823,-0.10001373291,-0.00225448817946,-0.114158630371,-0.00338616967201,21.34922409062,86.03952789302,44.36205673219,33.713203430129,1216
1.6495331465779E+018,44,1.6495331465779E+018,r200121355/base_footprint,0,1.6495331465779E+018,v/m1vw10zy74w/map,-10.4785376287,5.10141506843,0,0,0,-0.044384791008,0.999014509568,0,62.9198532104,30.6722698212,52.2773475647,90.9403610229,44.5114021301,44.5114021301,62.9198532104,62.9198532104,35.5511054993,-0.180979564786,0,0.000427951716119,0.174156486988,0.0128570087254,0.0132849607617,-9.32304573059,-0.436692476273,-4.90083312988,-0.0569602511823,-0.149345397949,-0.0033665120136,-1.83790206909,-0.0545157939196,21.34922409061,86.03952789302,44.362056732151,33.71320343021,1216
1.64953314667878E+018,45,1.64953314667878E+018,r200121355/base_footprint,0,1.64953314667878E+018,v/m1vw10zy74w/map,-10.4785376287,5.10141506843,0,0,0,-0.044384791008,0.999014509568,0,63.0586662292,29.6218490601,52.6707382202,90.9403610229,44.6620445251,44.6620445251,63.0586662292,63.0586662292,34.6794052124,-0.381978183985,0,0.000554262951482,0.176354214549,0.0114342784509,0.0119885411114,-8.27262496948,-0.387490659952,-4.90083312988,-0.0569602511823,-0.299987792969,-0.00676226057112,-0.966201782227,-0.0286594480276,21.34922409062,86.03952789302,44.362056732131,33.713203430173,1216
1.64953314687808E+018,46,1.64953314687808E+018,r200121355/base_footprint,0,1.64953314687808E+018,v/m1vw10zy74w/map,-10.4785376287,5.10141506843,0,0,0,-0.044384791008,0.999014509568,0,63.3429908752,25.0390415192,48.5640182495,90.9403610229,44.7126541138,44.7126541138,63.3429908752,63.3429908752,30.1081352234,-0.542505919933,0,0.000737943628337,0.180984273553,0.00894116610289,0.00967910978943,-3.68981742859,-0.172831460834,-4.90083312988,-0.0569602511823,-0.350597381592,-0.00790309160948,3.60506820679,0.106933422387,21.34922409061,86.03952789302,44.362056732208,33.71320343019,1216
1.64953314697814E+018,47,1.64953314697814E+018,r200121355/base_footprint,0,1.64953314697814E+018,v/m1vw10zy74w/map,-10.2367136845,5.09467952007,0,0,0,-0.0134293546889,0.99990982215,0,62.8634643555,25.0390415192,48.4296073914,89.2520446777,44.7661705017,44.7661705017,62.8634643555,62.8634643555,33.2396469116,-0.64163929224,0,0.00115349260159,0.196877002716,0.00111717078835,0.00227066338994,-3.84998512268,-0.181696861982,-3.45653533936,-0.0402880683541,-0.529529571533,-0.0119703840464,0.687602996826,0.0202669836581,21.18905639652,85.79550933834,44.236640930167,33.927249908426,1204
1.64953314707799E+018,48,1.64953314707799E+018,r200121355/base_footprint,0,1.64953314707799E+018,v/m1vw10zy74w/map,-9.98706835771,5.09099024839,0,0,0,0.000829394516909,0.999999656052,0,62.6786689758,28.3887462616,48.3483085632,90.4526672363,44.8278121948,44.8278121948,62.6786689758,62.6786689758,41.5539093018,-0.466212183237,0,0.00159097951837,0.206467673182,0.0221895743161,0.023780554533,-7.50963973999,-0.35967245698,-5.24153137207,-0.0615122802556,-0.682613372803,-0.0154629135504,-6.79963684082,-0.195648953319,20.87910652161,85.21113586423,44.145198821997,34.75427246098,1139
1.64953314717803E+018,49,1.64953314717803E+018,r200121355/base_footprint,0,1.64953314717803E+018,v/m1vw10zy74w/map,-9.7197643729,5.09675995416,0,0,0,0.00825335913623,0.999965940451,0,62.0686759949,21.2276210785,48.1819953918,87.8578720093,44.7180747986,44.7180747986,62.0686759949,62.0686759949,42.0074234009,-0.347706735134,0,0.000800905399956,0.210704281926,0.0660587698221,0.066859677434,-0.61693572998,-0.0299328099936,-3.08904266357,-0.0364407859743,-0.632373809814,-0.0143441930413,-5.96222686768,-0.165409743786,20.61068534852,84.76882934573,44.085700988786,36.04519653322,1154
1.64953314727792E+018,50,1.64953314727792E+018,r200121355/base_footprint,0,1.64953314727792E+018,v/m1vw10zy74w/map,-9.45773405464,5.10179537828,0,0,0,0.00815219465338,0.999966770309,0,62.5754127502,17.3553714752,48.1154212952,88.6001434326,44.3900680542,44.3900680542,62.5754127502,62.5754127502,32.0158462524,-0.352351218462,0,0.00110308837611,0.213872969151,0.101845368743,0.100742280483,2.81754493713,0.139669686556,-4.01216888428,-0.0474319048226,-0.411239624023,-0.00935085490346,4.73970794678,0.128952160478,20.17291641233,84.58797454832,43.978828430177,36.75555419918,1155
1.64953314737807E+018,51,1.64953314737807E+018,r200121355/base_footprint,0,1.64953314737807E+018,v/m1vw10zy74w/map,-9.23284677176,5.10173695532,0,0,0,0.00321401852426,0.999994835029,0,61.1907310486,19.9614276886,48.0785369873,84.1221008301,44.2027015686,44.2027015686,61.1907310486,61.1907310486,38.7956085205,-0.285599917173,0,0.00195778743364,0.215723350644,0.124476194382,0.122518405318,-0.224443435669,-0.0113717187196,0.246917724609,0.00292663974687,-0.340354919434,-0.0077596148476,-1.77151870728,-0.0478477329016,19.736984252931,84.369018554709,43.862346649166,37.02408981322,1165
1.64953314747846E+018,52,1.64953314747846E+018,r200121355/base_footprint,0,1.64953314747846E+018,v/m1vw10zy74w/map,-9.19743440212,5.09962043939,0,0,0,0.00619176935192,0.999980830812,0,61.0628128052,21.5686283112,48.1970863342,84.1917037964,44.0637321472,44.0637321472,61.0628128052,61.0628128052,39.8478050232,-0.298485338688,0,0.00261800433509,0.218593284488,0.122944653034,0.120326645672,-1.83164405823,-0.0928026288748,0.177314758301,0.00210165721364,-0.201385498047,-0.00459130713716,-2.82371520996,-0.0762669742107,19.73698425297,84.369018554701,43.862346649153,37.02408981324,1165
1.64953314757899E+018,53,1.64953314757899E+018,r200121355/base_footprint,0,1.64953314757899E+018,v/m1vw10zy74w/map,-8.96362422807,5.09525231638,0,0,0,0.00222475781161,0.999997525223,0,61.713142395,23.5796890259,48.3096008301,87.7072906494,43.9368476868,43.9368476868,61.713142395,61.713142395,39.4276313782,-0.565149724483,0,0.00308127515018,0.232850968838,0.0672342181206,0.0641529411077,-4.20934295654,-0.217308610678,-3.55460357666,-0.0422399304807,-0.219291687012,-0.00501610105857,-2.28994750977,-0.0616610199213,19.37034606936,84.15268707274,43.717555999788,37.13768386843,1165
1.64953314767794E+018,54,1.64953314767794E+018,r200121355/base_footprint,0,1.64953314767794E+018,v/m1vw10zy74w/map,-8.71937245937,5.08982462757,0,0,0,5.58275279489E-05,0.999999998442,0,61.705581665,22.9208927155,48.3181533813,87.680480957,43.8164367676,43.8164367676,61.705581665,61.705581665,38.1667709351,-0.173416867852,0,0.000592307478655,0.252075642347,0.00828220136464,0.0076898932457,-4.32272720337,-0.232427611947,-3.93029785156,-0.0469288267195,-0.350429534912,-0.00806215126067,-1.05595397949,-0.0284540746361,18.59816551213,83.75018310544,43.466007232688,37.11081695561,1121
1.6495331477786E+018,55,1.6495331477786E+018,r200121355/base_footprint,0,1.6495331477786E+018,v/m1vw10zy74w/map,-8.48012969599,5.09800448462,0,0,0,0.00334180282122,0.999994416161,0,60.9839477539,23.5294113159,48.3676834106,85.1592407227,43.7681274414,43.7681274414,60.9839477539,60.9839477539,41.5580215454,-0.441728264093,0,0.000979358446784,0.311568826437,0.0207712985575,0.0197919402272,-5.62614440918,-0.314252376556,-1.80375671387,-0.02163932845,-0.477718353271,-0.0110352011397,-4.20343399048,-0.112527921796,17.90326690672,83.35548400883,43.290409088129,37.35458755492,1128
1.64953314787822E+018,56,1.64953314787822E+018,r200121355/base_footprint,0,1.64953314787822E+018,v/m1vw10zy74w/map,-8.48012969599,5.09800448462,0,0,0,0.00334180282122,0.999994416161,0,61.2188644409,25.5907497406,48.4262809753,85.1592407227,43.8400306702,43.8400306702,61.2188644409,61.2188644409,38.1060638428,-0.656373620033,0,0.00101507978979,0.332586616278,0.0261497721076,0.0251346919686,-7.68748283386,-0.429389953613,-1.80375671387,-0.02163932845,-0.549621582031,-0.0126961516216,-0.751476287842,-0.0201173759997,17.90326690674,83.35548400883,43.290409088169,37.354587554958,1128
1.64953314797795E+018,57,1.64953314797795E+018,r200121355/base_footprint,0,1.64953314797795E+018,v/m1vw10zy74w/map,-8.24625943369,5.10341302752,0,0,0,0.00785914568467,0.999969116438,0,61.6222648621,21.5686283112,48.501499176,84.8509521484,43.9963798523,43.9963798523,61.6222648621,61.6222648621,31.4235496521,-0.282700926065,0,0.0013929476263,0.384317189455,0.0367468930781,0.0353539437056,-3.90015602112,-0.220740988851,-1.78528594971,-0.0214924644679,-0.739349365234,-0.0170920044184,6.75179290771,0.176862671971,17.66847229008,83.06566619869,43.257030487066,38.17534255981,1142
1.64953314807845E+018,58,1.64953314807845E+018,r200121355/base_footprint,0,1.64953314807845E+018,v/m1vw10zy74w/map,-8.24625943369,5.10341302752,0,0,0,0.00785914568467,0.999969116438,0,61.107673645,25.8081607819,48.5244903564,84.8509521484,44.0363807678,44.0363807678,61.107673645,61.107673645,41.1181869507,-0.57379424572,0,0.00153005775064,0.412353545427,0.0396632254124,0.0381331667304,-8.13968849182,-0.460689991713,-1.78528594971,-0.0214924644679,-0.779350280762,-0.0180167313665,-2.94284439087,-0.0770875662565,17.66847229008,83.06566619869,43.257030487038,38.17534255983,1142
1.64953314817905E+018,59,1.64953314817905E+018,r200121355/base_footprint,0,1.64953314817905E+018,v/m1vw10zy74w/map,-8.01827808458,5.10688094511,0,0,0,0.00732655644047,0.999973160425,0,61.6556587219,22.9946517944,48.5474853516,86.421295166,43.9927444458,43.9927444458,61.6556587219,61.6556587219,36.4364318848,-1.00917732716,0,0.00163562700618,0.453963458538,0.0407484844327,0.0391128584743,-5.90448951721,-0.345490545034,-3.44370269775,-0.04150159657,-0.866828918457,-0.0200999546796,3.07083511353,0.0777283608913,17.09016227719,82.97759246825,43.125915527343,39.50726699833,1185
1.64953314827922E+018,60,1.64953314827922E+018,r200121355/base_footprint,0,1.64953314827922E+018,v/m1vw10zy74w/map,-8.01827808458,5.10688094511,0,0,0,0.00732655644047,0.999973160425,0,61.2974586487,24.3697471619,48.8990325928,86.421295166,43.8925743103,43.8925743103,61.2974586487,61.2974586487,41.8022041321,-0.128084182739,0,0.00166934041772,0.47601249814,0.0401792488992,0.0385099090636,-7.27958488464,-0.425951778889,-3.44370269775,-0.04150159657,-0.766658782959,-0.0177772175521,-2.29493713379,-0.0580889880657,17.09016227726,82.97759246825,43.125915527341,39.50726699831,1185
1.64953314837864E+018,61,1.64953314837864E+018,r200121355/base_footprint,0,1.64953314837864E+018,v/m1vw10zy74w/map,-7.76939716439,5.10910496231,0,0,0,0.0064244629612,0.999979362925,0,61.0217514038,23.5796890259,51.3200416565,83.7506942749,43.7836608887,43.7836608887,61.0217514038,61.0217514038,35.9745368958,-0.0259964577854,0,0.00212006061338,0.562082827091,0.0297812335193,0.0276611726731,-6.90990447998,-0.414516717196,-0.880325317383,-0.0106229204684,-0.820125579834,-0.0190888755023,4.35459899902,0.10797650367,16.66978454592,82.870368957517,42.963535308866,40.32913589482,1202
1.64953314847777E+018,62,1.64953314847777E+018,r200121355/base_footprint,0,1.64953314847777E+018,v/m1vw10zy74w/map,-7.76939716439,5.10910496231,0,0,0,0.0064244629612,0.999979362925,0,60.7084083557,17.8337993622,52.3274726868,83.7506942749,43.4862480164,43.4862480164,60.7084083557,60.7084083557,38.402633667,-0.748409628868,0,0.00171813333873,0.602711439133,0.0245455726981,0.0228274390101,-1.16401481628,-0.069827824831,-0.880325317383,-0.0106229204684,-0.52271270752,-0.0121664265171,1.92650222778,0.0477694906294,16.66978454592,82.870368957517,42.96353530888,40.32913589478,1202
1.64953314857798E+018,63,1.64953314857798E+018,r200121355/base_footprint,0,1.64953314857798E+018,v/m1vw10zy74w/map,-7.52868935932,5.10638799388,0,0,0,0.00369755460563,0.999993164022,0,61.1811790466,18.117647171,53.3348922729,87.6383743286,43.3032226562,43.3032226562,61.1811790466,61.1811790466,41.9117240906,-0.6669485569,0,0.00116237148177,0.65932071209,0.0193518996239,0.018189528957,-1.74073982239,-0.10629234463,-4.94165039062,-0.0597563013434,-0.417984008789,-0.00974657107145,-0.639495849609,-0.0154945803806,16.37690734861,82.69672393798,42.885238647411,41.272228240991,1235
1.64953314867893E+018,64,1.64953314867893E+018,r200121355/base_footprint,0,1.64953314867893E+018,v/m1vw10zy74w/map,-7.52868935932,5.10638799388,0,0,0,0.00369755460563,0.999993164022,0,61.175819397,23.5796890259,55.0021858215,87.6383743286,43.4224739075,43.4224739075,61.175819397,61.175819397,43.2961196899,-0.290784448385,0,0.00100616097916,0.689452588558,0.0167688895017,0.0157627277076,-7.20278167725,-0.439813286066,-4.94165039062,-0.0597563013434,-0.53723526001,-0.0125272767618,-2.02389144897,-0.0490376092494,16.37690734865,82.69672393798,42.88523864749,41.27222824093,1235
1.64953314877777E+018,65,1.64953314877777E+018,r200121355/base_footprint,0,1.64953314877777E+018,v/m1vw10zy74w/map,-7.29707525135,5.10796951284,0,0,0,0.00498515119343,0.999987574057,0,61.6621742249,24.0641708374,55.9254722595,89.7649688721,43.612953186,43.612953186,61.6621742249,61.6621742249,44.2546234131,-0.907989859581,0,0.000697562063579,0.803834736347,0.00962821673602,0.00893065519631,-8.06519126892,-0.504106581211,-7.21226501465,-0.0873655825853,-0.880729675293,-0.0206104349345,-2.7364616394,-0.0659099891782,15.99897956848,82.55270385745,42.732223510707,41.5181617737,1243
1.64953314887789E+018,66,1.64953314887789E+018,r200121355/base_footprint,0,1.64953314887789E+018,v/m1vw10zy74w/map,-7.29707525135,5.10796951284,0,0,0,0.00498515119343,0.999987574057,0,61.6380271912,26.8680438995,55.7811355591,89.7649688721,43.8246307373,43.8246307373,61.6380271912,61.6380271912,46.9754104614,-0.644638419151,0,0.000649873400107,0.856670081615,0.00765840662643,0.00700853345916,-10.8690643311,-0.679359853268,-7.21226501465,-0.0873655825853,-1.09240722656,-0.0255640149117,-5.45724868774,-0.131442442536,15.9989795684,82.55270385745,42.73222351074,41.51816177366,1243
1.64953314897808E+018,67,1.64953314897808E+018,r200121355/base_footprint,0,1.64953314897808E+018,v/m1vw10zy74w/map,-7.06233378091,5.10654867356,0,0,0,0.0010291989073,0.999999470375,0,60.7627563477,24.4468421936,55.7998352051,85.3076858521,44.1027183533,44.1027183533,60.7627563477,60.7627563477,49.6874313354,-1.20400166512,0,0.000627738132607,0.893817782402,0.00679805316031,0.00617031473666,-8.44718170166,-0.527960062027,-3.07823944092,-0.0374347567558,-1.52855682373,-0.035903390497,-8.32794570923,-0.201355159283,15.99966049194,82.22944641118,42.57416152957,41.35948562617,1224
1.64953314927812E+018,68,1.64953314927812E+018,r200121355/base_footprint,0,1.64953314927812E+018,v/m1vw10zy74w/map,-7.02287324173,5.10725162647,0,0,0,0.00250915231578,0.999996852072,0,61.5840835571,27.0152511597,56.5301780701,87.0593185425,44.3581848145,44.3581848145,61.5840835571,61.5840835571,43.9684524536,0.0797873586416,0,0.000548925832845,0.950470268726,0.00313476636074,0.00258584041148,-10.9383201599,-0.680373668671,-4.90556335449,-0.0597119778395,-1.7783164978,-0.0417642556131,-2.61623382568,-0.0632670745254,16.0769309998,82.15375518801,42.5798683167,41.35221862792,1208
1.64953314947818E+018,69,1.64953314947818E+018,r200121355/base_footprint,0,1.64953314947818E+018,v/m1vw10zy74w/map,-6.79163700614,5.11048129141,0,0,0,0.00103364255583,0.999999465791,0,60.6161880493,25.6381797791,61.4771118164,83.9849090576,44.5667076111,44.5667076111,60.6161880493,60.6161880493,52.5747528076,-0.655999600887,0,0.000694352318533,1.088534832,0.00810977071524,0.00880412291735,-9.46063804626,-0.584800720215,-1.93647003174,-0.0236015468836,-2.02739334106,-0.0476592853665,-11.2420310974,-0.271988660097,16.17754173284,82.04843902586,42.53931427004,41.3327217102,1204
1.64953314957792E+018,70,1.64953314957792E+018,r200121355/base_footprint,0,1.64953314957792E+018,v/m1vw10zy74w/map,-6.50978419768,5.11285384805,0,0,0,0.00253581290369,0.999996784821,0,60.3615264893,26.6055049896,61.0546836853,80.8268737793,44.7182922363,44.7182922363,60.3615264893,60.3615264893,47.426864624,-0.879568397999,0,0.00116662320215,1.28807580471,0.0190881770104,0.0202548000962,-10.5962677002,-0.661884605885,1.39046478271,0.0169120635837,-2.32883453369,-0.0549390017986,-6.51307296753,-0.159190163016,16.0092372894,82.21733856201,42.38945770261,40.91379165647,1248
1.64953314967785E+018,71,1.64953314967785E+018,r200121355/base_footprint,0,1.64953314967785E+018,v/m1vw10zy74w/map,-6.24521575724,5.11795795164,0,0,0,0.00255524896964,0.999996735346,0,59.3987960815,19.7361183167,57.9869995117,74.5156936646,44.5361824036,44.5361824036,59.3987960815,59.3987960815,40.0689735413,-0.736793339252,0,0.00134331325535,1.45564544201,0.0197468008846,0.0210901144892,-3.83392810822,-0.241094350815,7.61148071289,0.092679195106,-2.17612838745,-0.0513721816242,0.613521575928,0.0150807267055,15.90219020848,82.12717437749,42.36005401615,40.682495117228,1273
1.6495331497779E+018,72,1.6495331497779E+018,r200121355/base_footprint,0,1.6495331497779E+018,v/m1vw10zy74w/map,-5.96815789457,5.11974989589,0,0,0,0.00169655373097,0.999998560852,0,58.88256073,16.577539444,53.251247406,74.1433410645,44.3262023926,44.3262023926,58.88256073,58.88256073,45.7529563904,-0.922590255737,0,0.00123088248074,1.67823493481,0.0162229351699,0.0174538176507,-0.428827285767,-0.026554889977,7.88363647461,0.096110291779,-1.96595001221,-0.0464102514088,-5.74995422363,-0.14373806119,16.148712158233,82.02697753911,42.36025238039,40.00300216677,1300
1.64953314987804E+018,73,1.64953314987804E+018,r200121355/base_footprint,0,1.64953314987804E+018,v/m1vw10zy74w/map,-5.96815789457,5.11974989589,0,0,0,0.00169655373097,0.999998560852,0,59.1264419556,23.4723014832,48.9478912354,74.1433410645,44.3547477722,44.3547477722,59.1264419556,59.1264419556,41.6713562012,-1.22053968906,0,0.00115027301945,1.75162649155,0.0121385939419,0.0132888667285,-7.32358932495,-0.453509181738,7.88363647461,0.096110291779,-1.99449539185,-0.0470841228962,-1.66835403442,-0.0417057201266,16.14871215825,82.02697753911,42.36025238035,40.00300216678,1300
1.64953314997896E+018,74,1.64953314997896E+018,r200121355/base_footprint,0,1.64953314997896E+018,v/m1vw10zy74w/map,-5.96815789457,5.11974989589,0,0,0,0.00169655373097,0.999998560852,0,59.3990631104,26.4705886841,49.6340370178,74.1433410645,44.5067710876,44.5067710876,59.3990631104,59.3990631104,38.4060325623,-1.76975607872,0,0.00107500446029,1.82529878616,0.00856874603778,0.00964375119656,-10.3218765259,-0.639176428318,7.88363647461,0.096110291779,-2.14651870728,-0.0506729446352,1.59696960449,0.0399212427437,16.1487121582,82.02697753911,42.36025238032,40.00300216679,1300
1.649533150078E+018,75,1.649533150078E+018,r200121355/base_footprint,0,1.649533150078E+018,v/m1vw10zy74w/map,-5.72985003016,5.1249122498,0,0,0,0.00515676178947,0.999986703816,0,59.4900054932,26.4705886841,48.9938240051,74.6974945068,44.7109031677,44.7109031677,59.4900054932,59.4900054932,40.9686508179,-1.11849343777,0,0.00109897647053,1.92278027534,0.00226980214939,0.00336877861992,-10.0370101929,-0.610762298107,7.19201660156,0.0878258571029,-2.37791061401,-0.0561715699732,-1.551612854,-0.0393640138209,16.4335784912,81.88951110836,42.33299255369,39.4170379639,1333
1.64953315017813E+018,76,1.64953315017813E+018,r200121355/base_footprint,0,1.64953315017813E+018,v/m1vw10zy74w/map,-5.72985003016,5.1249122498,0,0,0,0.00515676178947,0.999986703816,0,59.251953125,28.5321598053,48.4682884216,74.6974945068,45.1229896545,45.1229896545,59.251953125,59.251953125,49.7040939331,-0.979761242867,0,0.00151671993081,2.04429650307,0.00278825848363,0.00127153855283,-12.0985813141,-0.736211001873,7.19201660156,0.0878258571029,-2.78999710083,-0.0659059733152,-10.2870559692,-0.260979920626,16.4335784912,81.88951110836,42.33299255367,39.4170379639,1333
1.6495331502787E+018,77,1.6495331502787E+018,r200121355/base_footprint,0,1.6495331502787E+018,v/m1vw10zy74w/map,-5.462242482,5.11977619214,0,0,0,0.00557170297002,0.999984477943,0,61.008731842,20.5087432861,48.421585083,78.4048309326,45.3602409363,45.3602409363,61.008731842,61.008731842,33.9908103943,-1.4211704731,0,0.00152823841199,2.14346146584,0.000187556142919,0.00134068226907,-2.93313026428,-0.166886374354,3.53825378418,0.0431794077158,-2.7147102356,-0.0636575520039,5.5624961853,0.140632897615,17.57561302182,81.94308471678,42.6455307007,39.5533065796,1319
1.64953315037926E+018,78,1.64953315037926E+018,r200121355/base_footprint,0,1.64953315037926E+018,v/m1vw10zy74w/map,-5.462242482,5.11977619214,0,0,0,0.00557170297002,0.999984477943,0,61.1219673157,30.0476951599,48.7323074341,78.4048309326,45.6539459229,45.6539459229,61.1219673157,61.1219673157,35.1246109009,-1.91539335251,0,0.0012826374732,2.24131441116,0.00450552254915,0.00578816002235,-12.4720821381,-0.709624290466,3.53825378418,0.0431794077158,-3.00841522217,-0.0705446749926,4.42869567871,0.111967772245,17.5756130218,81.94308471678,42.64553070073,39.55330657961,1319
1.64953315047812E+018,79,1.64953315047812E+018,r200121355/base_footprint,0,1.64953315047812E+018,v/m1vw10zy74w/map,-5.21090912047,5.12074273847,0,0,0,0.00736825571075,0.999972854035,0,61.1628990173,38.0252113342,51.7890052795,82.853805542,45.8519439697,45.8519439697,61.1628990173,61.1628990173,52.5424919128,-1.18906366825,0,0.00103176268749,2.31535029411,0.00675419531763,0.00778595777228,-19.5310306549,-1.05606353283,0.349189758301,0.00419684126973,-2.6488571167,-0.0613117553294,-12.928691864,-0.326368391514,18.4941806793,83.202995300301,43.203086853,39.6138000488,1524
1.64953315057783E+018,80,1.64953315057783E+018,r200121355/base_footprint,0,1.64953315057784E+018,v/m1vw10zy74w/map,-5.21090912047,5.12074273847,0,0,0,0.00736825571075,0.999972854035,0,61.3612518311,35.2401504517,53.0238227844,82.853805542,46.0566596985,46.0566596985,61.3612518311,61.3612518311,51.1831016541,-0.946785926819,0,0.000815690553281,2.46757555008,0.00815760530531,0.00897329580039,-16.7459697723,-0.905472397804,0.349189758301,0.00419684126973,-2.85357284546,-0.066050209105,-11.5693016052,-0.292052298784,18.4941806794,83.202995300301,43.20308685304,39.6138000489,1524
1.64953315067904E+018,81,1.64953315067904E+018,r200121355/base_footprint,0,1.64953315067904E+018,v/m1vw10zy74w/map,-4.933636114,5.11975550526,0,0,0,0.00783301615589,0.999969321458,0,61.656578064,25.2336444855,54.254535675,80.1520996094,46.2276268005,46.2276268005,61.656578064,61.656578064,37.9874992371,-1.5058580637,0,0.000849935575388,2.53833961487,0.00884241890162,0.00969235412776,-5.7829208374,-0.297311335802,4.17247772217,0.0494811572134,-2.41464233398,-0.0551124811172,2.04389953613,0.0510574094951,19.4507236481,84.32457733157,43.81298446652,40.03139877323,1709
1.64953315077922E+018,82,1.64953315077922E+018,r200121355/base_footprint,0,1.64953315077922E+018,v/m1vw10zy74w/map,-4.933636114,5.11975550526,0,0,0,0.00783301615589,0.999969321458,0,61.6822624207,20.448179245,50.1622848511,80.1520996094,46.202960968,46.202960968,61.6822624207,61.6822624207,37.2588195801,-1.58980715275,0,0.000448370003141,2.63752746582,0.00748460879549,0.00793297868222,-0.997455596924,-0.051281157881,4.17247772217,0.0494811572134,-2.38997650146,-0.0545495040715,2.77257919312,0.0692601129413,19.450723648076,84.32457733157,43.81298446654,40.03139877322,1709
1.64953315087795E+018,83,1.64953315087795E+018,r200121355/base_footprint,0,1.64953315087795E+018,v/m1vw10zy74w/map,-4.68805301107,5.11835545664,0,0,0,0.00559329197372,0.99998435742,0,61.750213623,26.1822376251,48.4254302979,80.7933044434,46.2022705078,46.2022705078,61.750213623,61.750213623,38.3365516663,-1.60885822773,0,0.000307964597596,2.73638820648,0.00422913767397,0.00453710230067,-6.37421226501,-0.321799486876,3.68928527832,0.0436691790819,-2.21249008179,-0.0502955466509,1.74193572998,0.0434631109238,19.80802536009,84.48258972172,43.98978042601,40.07848739628,1705
1.64953315097826E+018,84,1.64953315097826E+018,r200121355/base_footprint,0,1.64953315097826E+018,v/m1vw10zy74w/map,-4.68805301107,5.11835545664,0,0,0,0.00559329197372,0.99998435742,0,61.6435585022,24.2081451416,48.2529449463,80.7933044434,46.3656997681,46.3656997681,61.6435585022,61.6435585022,42.021396637,-1.67024731636,0,0.000406909937738,2.83427500725,0.00460502970964,0.00501193944365,-4.40011978149,-0.222138240933,3.68928527832,0.0436691790819,-2.37591934204,-0.0540107116103,-1.94290924072,-0.0484776087105,19.80802536011,84.48258972172,43.98978042606,40.07848739628,1705
1.64953315107784E+018,85,1.64953315107784E+018,r200121355/base_footprint,0,1.64953315107784E+018,v/m1vw10zy74w/map,-4.45662815722,5.11998431826,0,0,0,0.00400190424747,0.999991992349,0,61.082611084,21.1878929138,48.0629119873,80.7891998291,46.3990325928,46.3990325928,61.082611084,61.082611084,52.4636611938,-1.10761606693,0,0.000396834104322,2.93363857269,0.0047737439163,0.00517057767138,-1.53576087952,-0.0781472921371,3.41219329834,0.0405241921544,-2.37026977539,-0.0538345761597,-12.4757575989,-0.311988294125,19.65213203428,84.20139312744,44.02876281741,39.9879035949,1682
1.64953315117787E+018,86,1.64953315117787E+018,r200121355/base_footprint,0,1.64953315117787E+018,v/m1vw10zy74w/map,-4.43596429264,5.1166599286,0,0,0,0.00438770264089,0.999990373986,0,62.460723877,22.7220306396,47.8432426453,82.9144897461,46.4454040527,46.4454040527,62.460723877,62.460723877,35.8095245361,-1.85323894024,0,0.000421888602432,2.98357605934,0.00499572185799,0.00541761051863,-3.06989860535,-0.156211987138,1.28690338135,0.0152836348861,-2.41664123535,-0.0548877827823,4.17837905884,0.104491077363,19.65213203425,84.20139312745,44.02876281735,39.98790359494,1682
1.649533151278E+018,87,1.649533151278E+018,r200121355/base_footprint,0,1.649533151278E+018,v/m1vw10zy74w/map,-4.20501475908,5.12215036269,0,0,0,0.00604488456841,0.999981729518,0,61.7981033325,30.995475769,47.8174324036,79.1669921875,46.6268234253,46.6268234253,61.7981033325,61.7981033325,36.2049713135,-1.79294478893,0,0.000253027305007,3.13218092918,0.00765262637287,0.00790565367788,-11.6706295013,-0.603918373585,4.24668884277,0.050911180675,-2.64881134033,-0.0602303557098,4.1741065979,0.103373005986,19.3248462677,83.41368103027,43.97801208497,40.3790779114,1504
1.6495331513781E+018,88,1.6495331513781E+018,r200121355/base_footprint,0,1.6495331513781E+018,v/m1vw10zy74w/map,-4.20143056321,5.11913736527,0,0,0,0.00398709717875,0.999992051496,0,62.2774047852,23.4184246063,47.8461341858,81.4377059937,46.6716880798,46.6716880798,62.2774047852,62.2774047852,36.2366790771,-1.86676001549,0,5.31582736585E-06,3.23145508766,0.00864331703633,0.00864863209426,-4.09357833862,-0.211829796433,1.97597503662,0.0236888602376,-2.69367599487,-0.0612505190074,4.14239883423,0.102587752044,19.32484626768,83.41368103032,43.97801208493,40.37907791133,1504
1.6495331514783E+018,89,1.6495331514783E+018,r200121355/base_footprint,0,1.6495331514783E+018,v/m1vw10zy74w/map,-4.20143056321,5.11913736527,0,0,0,0.00398709717875,0.999992051496,0,61.8601417542,24.8366012573,47.8735351562,81.4377059937,46.6610031128,46.6610031128,61.8601417542,61.8601417542,43.6319923401,-1.26052558422,0,6.71546949889E-05,3.35282993317,0.00794195849448,0.00800911244005,-5.51175498962,-0.285215973854,1.97597503662,0.0236888602376,-2.68299102783,-0.0610075555742,-3.25291442871,-0.0805594027042,19.32484626768,83.41368103032,43.97801208497,40.37907791139,1504
1.64953315157909E+018,90,1.64953315157909E+018,r200121355/base_footprint,0,1.64953315157909E+018,v/m1vw10zy74w/map,-3.93949197919,5.11944786911,0,0,0,0.00193172896821,0.99999813421,0,62.5935516357,27.684835434,47.9769897461,83.038269043,46.5829734802,46.5829734802,62.5935516357,62.5935516357,35.349937439,-1.59735226631,0,0.000132816508994,3.39973330498,0.00748961372301,0.00762243010104,-8.52066802979,-0.444614559412,0.375305175781,0.00449932971969,-2.53956604004,-0.0576605275273,5.52810668945,0.135234132409,19.16416740421,83.413574218781,44.04340744016,40.87804412845,1541
1.64953315167797E+018,91,1.64953315167797E+018,r200121355/base_footprint,0,1.64953315167797E+018,v/m1vw10zy74w/map,-3.93949197919,5.11944786911,0,0,0,0.00193172896821,0.99999813421,0,62.1962089539,28.5321598053,48.1572036743,83.038269043,46.6405639648,46.6405639648,62.1962089539,62.1962089539,43.1240730286,-1.39287590981,0,0.00021939726139,3.48838353157,0.00853658281267,0.0087559800595,-9.36799240112,-0.488828569651,0.375305175781,0.00449932971969,-2.59715652466,-0.0589681118727,-2.24602890015,-0.054944626987,19.16416740418,83.413574218781,44.04340744014,40.87804412845,1541
1.64953315177895E+018,92,1.64953315177895E+018,r200121355/base_footprint,0,1.64953315177896E+018,v/m1vw10zy74w/map,-3.67778712562,5.11889547085,0,0,0,0.000835192680265,0.999999651227,0,60.8981437683,27.4326553345,48.2473983765,79.1748580933,46.4082832336,46.4082832336,60.8981437683,60.8981437683,50.0723381042,-1.36833226681,0,6.80802331772E-05,3.59272694588,0.0102357463911,0.0103038270026,-6.71226501465,-0.323944926262,6.20153045654,0.0726375356317,-1.55681228638,-0.0347103960812,-9.50352096558,-0.234256789088,20.72039031985,85.37638854984,44.85147094722,40.56881713862,2031
1.64953315187796E+018,93,1.64953315187796E+018,r200121355/base_footprint,0,1.64953315187796E+018,v/m1vw10zy74w/map,-3.67778712562,5.11889547085,0,0,0,0.000835192680265,0.999999651227,0,61.1263122559,18.5520362854,48.2184562683,79.1748580933,46.0626487732,46.0626487732,61.1263122559,61.1263122559,42.2324943542,-1.76981735229,0,7.49794198782E-05,3.67297840118,0.0114135639742,0.0114885438234,2.16835403442,0.104648321867,6.20153045654,0.0726375356317,-1.21117782593,-0.0270041935146,-1.66367721558,-0.0410087667406,20.72039031982,85.37638854984,44.85147094727,40.56881713862,2031
1.64953315197807E+018,94,1.64953315197807E+018,r200121355/base_footprint,0,1.64953315197807E+018,v/m1vw10zy74w/map,-3.39835924064,5.1233882802,0,0,0,0.00502997414278,0.9999873496,0,61.2430686951,19.117647171,48.1915931702,80.1134338379,45.6465606689,45.6465606689,61.2430686951,61.2430686951,39.0159797668,-1.84797167778,0,0.000332399242325,3.73118209839,0.0126132443547,0.0122808450833,2.11555099487,0.0996341183782,5.66564178467,0.0660492256284,-0.643230438232,-0.0142929516733,1.44841003418,0.0357946828008,21.23319816587,85.77907562257,45.003330230668,40.46438980098,2149
1.64953315217805E+018,95,1.64953315217805E+018,r200121355/base_footprint,0,1.64953315217805E+018,v/m1vw10zy74w/map,-3.39835924064,5.1233882802,0,0,0,0.00502997414278,0.9999873496,0,61.1603546143,13.3689842224,48.103187561,80.1134338379,45.126449585,45.126449585,61.1603546143,61.1603546143,34.8876113892,-1.89645183086,0,0.000149525716552,3.76873493195,0.012804472819,0.012654947117,7.86421394348,0.370373487473,5.66564178467,0.0660492256284,-0.123119354248,-0.00273578311317,5.57677841187,0.13781940937,21.23319816588,85.77907562257,45.003330230752,40.46438980107,2149
1.64953315227832E+018,96,1.64953315227832E+018,r200121355/base_footprint,0,1.64953315227832E+018,v/m1vw10zy74w/map,-3.39835924064,5.1233882802,0,0,0,0.00502997414278,0.9999873496,0,60.8392448425,13.6535348892,48.0602455139,80.1134338379,44.7844467163,44.7844467163,60.8392448425,60.8392448425,36.9739723206,-2.09159827232,0,5.99364611844E-05,3.80408072472,0.0126306377351,0.0125707006082,7.57966327667,0.356972277164,5.66564178467,0.0660492256284,0.218883514404,0.00486371805891,3.49041748047,0.0862589925528,21.23319816587,85.77907562257,45.003330230704,40.46438980107,2149
1.64953315237885E+018,97,1.64953315237885E+018,r200121355/base_footprint,0,1.64953315237886E+018,v/m1vw10zy74w/map,-3.39835924064,5.1233882802,0,0,0,0.00502997414278,0.9999873496,0,60.3470306396,13.139087677,47.9929695129,80.1134338379,44.592918396,44.592918396,60.3470306396,60.3470306396,43.7653236389,-1.87664830685,0,4.76167479064E-05,3.82324194908,0.0126602174714,0.0126126008108,8.09411048889,0.381200730801,5.66564178467,0.0660492256284,0.410411834717,0.00911958795041,-3.30093383789,-0.0815762653947,21.23319816589,85.77907562257,45.003330230717,40.46438980101,2149
1.64953315247807E+018,98,1.64953315247807E+018,r200121355/base_footprint,0,1.64953315247807E+018,v/m1vw10zy74w/map,-3.17563669682,5.12566919746,0,0,0,0.0033541077094,0.999994374965,0,60.3492927551,14.8459386826,47.7462730408,79.7539978027,44.5755310059,44.5755310059,60.3492927551,60.3492927551,42.2428779602,-1.60292065144,0,1.57639497047E-05,3.85818719864,0.0128559013829,0.012840137817,6.7768239975,0.313411563635,6.12595367432,0.071331590414,0.42493057251,0.00944280438125,-1.83780288696,-0.045484457165,21.6227626801,85.87995147702,45.00046157841,40.40507507324,2137
1.64953315257833E+018,99,1.64953315257833E+018,r200121355/base_footprint,0,1.64953315257833E+018,v/m1vw10zy74w/map,-3.17563669682,5.12566919746,0,0,0,0.0033541077094,0.999994374965,0,60.5722999573,19.6832580566,47.6613578796,79.7539978027,44.5814399719,44.5814399719,60.5722999573,60.5722999573,38.2925605774,-1.93018817902,0,0.000160273950314,3.97206115723,0.015211282298,0.0150510082021,1.93950462341,0.0896973535419,6.12595367432,0.071331590414,0.419021606445,0.00931149534881,2.11251449585,0.0522833950818,21.62276268001,85.87995147702,45.000461578345,40.40507507325,2137
1.64953315267811E+018,100,1.64953315267811E+018,r200121355/base_footprint,0,1.64953315267811E+018,v/m1vw10zy74w/map,-2.91048835398,5.12679782927,0,0,0,0.00604665487815,0.999981718815,0,61.113067627,32.4618721008,47.635345459,81.854888916,45.0955200195,45.0955200195,61.113067627,61.113067627,41.6739807129,-1.82745552063,0,0.000156205147505,4.07521390915,0.0164544135332,0.0162982083857,-10.755033493,-0.4954675138,3.22241210938,0.0378762856126,-0.212375640869,-0.0047317459248,-1.13686752319,-0.0280451029539,21.7068386078,85.07730102538,44.883144378631,40.53711318971,1837
1.64953315277807E+018,101,1.64953315277807E+018,r200121355/base_footprint,0,1.64953315277807E+018,v/m1vw10zy74w/map,-2.64535939834,5.13192521537,0,0,0,0.00912370994271,0.999958378092,0,61.0251312256,21.5686283112,47.4968833923,79.4666976929,45.2868690491,45.2868690491,61.0251312256,61.0251312256,36.7259140015,-1.90256845951,0,0.000123414589325,4.16332006454,0.0184565633535,0.0183331500739,0.0327529907227,0.00151624518912,4.47015380859,0.0532561540604,-0.773853302002,-0.0173848774284,5.47964096069,0.129832223058,21.6013813019227,83.93685150149,44.513015747098,42.20555496219,1528
1.64953315287926E+018,102,1.64953315287926E+018,r200121355/base_footprint,0,1.64953315287926E+018,v/m1vw10zy74w/map,-2.40110568978,5.13185082745,0,0,0,0.00728377931472,0.999973472928,0,61.7975234985,33.3680381775,47.6459732056,82.9970245361,45.5466766357,45.5466766357,61.7975234985,61.7975234985,38.3379669189,-2.18466114998,0,9.63588972809E-05,4.27210283279,0.0154680926353,0.0153717342764,-11.6874485016,-0.53907430172,0.546714782715,0.00654405448586,-1.02784347534,-0.0230878349394,5.14694976807,0.118361726403,21.6805896759,83.543739318815,44.51883316036,43.48491668697,1471
