%time,field.header.seq,field.header.stamp,field.header.frame_id,field.pose.header.seq,field.pose.header.stamp,field.pose.header.frame_id,field.pose.pose.position.x,field.pose.pose.position.y,field.pose.pose.position.z,field.pose.pose.orientation.x,field.pose.pose.orientation.y,field.pose.pose.orientation.z,field.pose.pose.orientation.w,field.label,field.current_error,field.mean,field.threshold,field.std_dev
1646298967136873733,0,1646298967136873733,r1000913c5/base_front_laser_link,0,1646298967136873733,v/m1vw10zy74w/map,-2.84949824883,-2.29314915978,0.165,0.0,0.0,0.699773116299,-0.714365162718,0,55.3340263367,55.3340263367,nan,nan
1646298967373555283,1,1646298967373555283,r1000913c5/base_front_laser_link,0,1646298967373555283,v/m1vw10zy74w/map,-2.84402206349,-2.29108146326,0.165,0.0,0.0,0.693854733256,-0.720114997162,0,57.9786643982,56.6563453674,82.2664642334,1.87004005909
1646298967530848561,2,1646298967530848561,r1000913c5/base_front_laser_link,0,1646298967530848561,v/m1vw10zy74w/map,-2.83071256582,-2.29154533588,0.165,0.0,0.0,0.679428411105,-0.733741803486,0,62.1077613831,58.4734840393,88.7150878906,3.41386914253
1646298967767701207,3,1646298967767701207,r1000913c5/base_front_laser_link,0,1646298967767701207,v/m1vw10zy74w/map,-2.7990873997,-2.28679549614,0.165,0.0,0.0,0.643658983994,-0.765312427917,0,61.1628646851,59.1458282471,88.430267334,3.09481191635
1646298967925660513,4,1646298967925660513,r1000913c5/base_front_laser_link,0,1646298967925660513,v/m1vw10zy74w/map,-2.7739025603,-2.28168748879,0.165,0.0,0.0,0.613795568063,-0.789465009121,0,59.7598190308,59.2686271667,87.351272583,2.69421458244
1646298968082739256,5,1646298968082739256,r1000913c5/base_front_laser_link,0,1646298968082739256,v/m1vw10zy74w/map,-2.75080297494,-2.27490018322,0.165,0.0,0.0,0.585017159366,-0.811020914186,0,59.272064209,59.2691993713,86.4985351562,2.40977931023
1646298968318839585,6,1646298968318839585,r1000913c5/base_front_laser_link,0,1646298968318839585,v/m1vw10zy74w/map,-2.71805061789,-2.27600187956,0.165,0.0,0.0,0.545220512249,-0.838292665495,0,58.0636825562,59.0969810486,85.8365097046,2.24651002884
1646298968476707708,7,1646298968476707708,r1000913c5/base_front_laser_link,0,1646298968476707708,v/m1vw10zy74w/map,-2.69387650899,-2.26656195333,0.165,0.0,0.0,0.512388375924,-0.858753836799,0,58.2354660034,58.9892921448,85.2954406738,2.10204935074
1646298968711685520,8,1646298968711685520,r1000913c5/base_front_laser_link,0,1646298968711685520,v/m1vw10zy74w/map,-2.66286340541,-2.25280867155,0.165,0.0,0.0,0.46514012294,-0.885237067701,0,56.4831314087,58.7108306885,85.1199951172,2.13638854027
1646298968789716121,9,1646298968789716121,r1000913c5/base_front_laser_link,0,1646298968789716121,v/m1vw10zy74w/map,-2.65287378948,-2.24268084666,0.165,0.0,0.0,0.449935654703,-0.893060975873,0,55.6735191345,58.4071006775,85.1015701294,2.23149108887
1646298969026816015,10,1646298969026816015,r1000913c5/base_front_laser_link,0,1646298969026816015,v/m1vw10zy74w/map,-2.62312772249,-2.21712748815,0.165,0.0,0.0,0.401067734429,-0.916048400686,0,60.0446166992,58.5559654236,85.0773391724,2.1737909317
1646298969262499871,11,1646298969262499871,r1000913c5/base_front_laser_link,0,1646298969262499871,v/m1vw10zy74w/map,-2.60101979381,-2.19189986517,0.165,0.0,0.0,0.352294825058,-0.935889072613,0,58.1440505981,58.5216369629,84.74974823,2.07603645325
1646298969499874964,12,1646298969499874964,r1000913c5/base_front_laser_link,0,1646298969499874964,v/m1vw10zy74w/map,-2.57917953152,-2.16246135501,0.165,0.0,0.0,0.300613700724,-0.953745984493,0,59.8778839111,58.6259651184,84.6947631836,2.02293324471
1646298969656610695,13,1646298969656610695,r1000913c5/base_front_laser_link,0,1646298969656610695,v/m1vw10zy74w/map,-2.56629921014,-2.14234079542,0.165,0.0,0.0,0.266520131525,-0.963829351852,0,60.0629806519,58.7286071777,84.6720733643,1.981153965
1646298969893936364,14,1646298969893936364,r1000913c5/base_front_laser_link,0,1646298969893936364,v/m1vw10zy74w/map,-2.56393910856,-2.09863573141,0.165,0.0,0.0,0.216813522907,-0.976213038371,0,58.2935218811,58.6996040344,84.4367752075,1.91239011288
1646298970051453683,15,1646298970051453683,r1000913c5/base_front_laser_link,0,1646298970051453683,v/m1vw10zy74w/map,-2.54315602355,-2.08876376098,0.165,0.0,0.0,-0.180395421912,0.983594170252,0,58.4909591675,58.6865615845,84.2314071655,1.84828054905
1646298970289112563,16,1646298970289112563,r1000913c5/base_front_laser_link,0,1646298970289112563,v/m1vw10zy74w/map,-2.53305969693,-2.05713148297,0.165,0.0,0.0,-0.127829375798,0.991796173961,0,56.0096473694,58.5290985107,84.2402648926,1.90372133255
1646298970367270870,17,1646298970367270870,r1000913c5/base_front_laser_link,0,1646298970367270870,v/m1vw10zy74w/map,-2.53035030238,-2.04573317547,0.165,0.0,0.0,-0.110412396303,0.993885860017,0,52.9320907593,58.2181510925,85.0271148682,2.26965427399
1646298970445702559,18,1646298970445702559,r1000913c5/base_front_laser_link,0,1646298970445702559,v/m1vw10zy74w/map,-2.52813007744,-2.0341896446,0.165,0.0,0.0,-0.0928712620827,0.995678125038,0,51.4337806702,57.8610801697,85.959777832,2.69956588745
1646298970524775045,19,1646298970524775045,r1000913c5/base_front_laser_link,0,1646298970524775045,v/m1vw10zy74w/map,-2.52681014295,-2.01983410091,0.165,0.0,0.0,-0.075773697289,0.997125040704,0,51.3815345764,57.5371017456,86.5387649536,3.00055336952
1646298971234914068,20,1646298971234914068,r1000913c5/base_front_laser_link,0,1646298971234914068,v/m1vw10zy74w/map,-2.52709813963,-1.92418564127,0.165,0.0,0.0,0.0535407440774,0.998565665704,0,51.8145751953,57.2646026611,86.8046722412,3.1800236702
1646298971629049019,21,1646298971629049019,r1000913c5/base_front_laser_link,0,1646298971629049019,v/m1vw10zy74w/map,-2.52909187605,-1.91423413799,0.165,0.0,0.0,0.0726635436604,0.997356510693,0,52.8606147766,57.0644187927,86.7913589478,3.24231338501
1646298971708056344,22,1646298971708056344,r1000913c5/base_front_laser_link,0,1646298971708056344,v/m1vw10zy74w/map,-2.53053165549,-1.90448291323,0.165,0.0,0.0,0.0873386713013,0.996178676993,0,51.0733642578,56.8039398193,87.0195007324,3.40518808365
1646298971866531089,23,1646298971866531089,r1000913c5/base_front_laser_link,0,1646298971866531089,v/m1vw10zy74w/map,-2.5328792416,-1.88183014655,0.165,0.0,0.0,0.122151208268,0.992511502361,0,51.4176483154,56.5795097351,87.1009216309,3.50713562965
1646298971944021288,24,1646298971944021288,r1000913c5/base_front_laser_link,0,1646298971944021288,v/m1vw10zy74w/map,-2.53585916748,-1.87029204575,0.165,0.0,0.0,0.139796708171,0.990180226214,0,51.7048301697,56.3845252991,87.0916213989,3.56903362274
1646298972102655016,25,1646298972102655016,r1000913c5/base_front_laser_link,0,1646298972102655016,v/m1vw10zy74w/map,-2.54343043027,-1.84745938889,0.165,0.0,0.0,0.175266519041,0.984521024307,0,52.9409217834,56.25207901,86.9366989136,3.56154084206
1646298972179733564,26,1646298972179733564,r1000913c5/base_front_laser_link,0,1646298972179733564,v/m1vw10zy74w/map,-2.54754001501,-1.83670501873,0.165,0.0,0.0,0.192170588234,0.981361536345,0,54.9736289978,56.2047271729,86.7078323364,3.50103402138
1646298972574304887,27,1646298972574304887,r1000913c5/base_front_laser_link,0,1646298972574304887,v/m1vw10zy74w/map,-2.57384035369,-1.7798802854,0.165,0.0,0.0,0.2768801024,0.960904474386,0,52.5641174316,56.0747070312,86.5861129761,3.50380182266
1646298972651872340,28,1646298972651872340,r1000913c5/base_front_laser_link,0,1646298972651872340,v/m1vw10zy74w/map,-2.57800933196,-1.76925046745,0.165,0.0,0.0,0.293470299927,0.955968191448,0,51.7932739258,55.9270706177,86.5210494995,3.53132653236
1646298972887999015,29,1646298972887999015,r1000913c5/base_front_laser_link,0,1646298972887999015,v/m1vw10zy74w/map,-2.6026997028,-1.73687764814,0.165,0.0,0.0,0.343455400124,0.939168988056,0,51.7401504517,55.7875061035,86.4468383789,3.55311155319
1646298973044721018,30,1646298973044721018,r1000913c5/base_front_laser_link,0,1646298973044721018,v/m1vw10zy74w/map,-2.61875335469,-1.71939525563,0.165,0.0,0.0,0.376525101393,0.926406416224,0,54.1589584351,55.7349739075,86.2518157959,3.50561475754
1646298973202712358,31,1646298973202712358,r1000913c5/base_front_laser_link,0,1646298973202712358,v/m1vw10zy74w/map,-2.63497567966,-1.69922777535,0.165,0.0,0.0,0.409272012503,0.912412417595,0,54.8445968628,55.7071495056,86.0637435913,3.45219922066
1646298973281728472,32,1646298973281728472,r1000913c5/base_front_laser_link,0,1646298973281728472,v/m1vw10zy74w/map,-2.64397382632,-1.691293091,0.165,0.0,0.0,0.425563076083,0.904928764199,0,54.1517829895,55.6600151062,85.8858184814,3.40860080719
1646298973517960191,33,1646298973517960191,r1000913c5/base_front_laser_link,0,1646298973517960191,v/m1vw10zy74w/map,-2.67406171454,-1.66541215004,0.165,0.0,0.0,0.472521815856,0.881318973778,0,56.7685165405,55.6926193237,85.778427124,3.36193728447
1646298973753857417,34,1646298973753857417,r1000913c5/base_front_laser_link,0,1646298973753857417,v/m1vw10zy74w/map,-2.70792889246,-1.64873894029,0.165,0.0,0.0,0.519355765772,0.85455812474,0,57.425907135,55.7421417236,85.7173233032,3.32506084442
1646298974937549542,35,1646298974937549542,r1000913c5/base_front_laser_link,0,1646298974937549542,v/m1vw10zy74w/map,-2.77715126679,-1.53472500367,0.165,0.0,0.0,0.622131065799,0.782913109462,0,60.4619522095,55.8732452393,85.9841537476,3.37030220032
1646298975173632092,36,1646298975173632092,r1000913c5/base_front_laser_link,0,1646298975173632092,v/m1vw10zy74w/map,-2.78062346746,-1.507464712,0.165,0.0,0.0,0.632782276429,0.774329768663,0,60.1078033447,55.9876937866,86.1735839844,3.39529752731
1646298975411007449,37,1646298975411007449,r1000913c5/base_front_laser_link,0,1646298975411007449,v/m1vw10zy74w/map,-2.78674889618,-1.47278696524,0.165,0.0,0.0,0.646964466355,0.762520150078,0,62.0445289612,56.1470832825,86.6178512573,3.49025464058
1646298975567772218,38,1646298975567772218,r1000913c5/base_front_laser_link,0,1646298975567772218,v/m1vw10zy74w/map,-2.79488704514,-1.44651995555,0.165,0.0,0.0,0.660441260689,0.750877713865,0,67.2480621338,56.4317245483,88.0588378906,3.87570476532
1646298975804147714,39,1646298975804147714,r1000913c5/base_front_laser_link,0,1646298975804147714,v/m1vw10zy74w/map,-2.81462940793,-1.40212055383,0.165,0.0,0.0,0.688538579635,0.725199713427,0,68.3938751221,56.7307777405,89.5338745117,4.26769924164
1646298976040042934,40,1646298976040042934,r1000913c5/base_front_laser_link,0,1646298976040042934,v/m1vw10zy74w/map,-2.84967332514,-1.35526515138,0.165,0.0,0.0,0.724169340412,0.689622191063,0,68.3419647217,57.0139770508,90.7768249512,4.58761453629
1646298976198204919,41,1646298976198204919,r1000913c5/base_front_laser_link,0,1646298976198204919,v/m1vw10zy74w/map,-2.87967368927,-1.32183415925,0.165,0.0,0.0,0.751466187059,0.659771604199,0,71.0619888306,57.3484535217,92.4177780151,5.02310800552
1646298976355610827,42,1646298976355610827,r1000913c5/base_front_laser_link,0,1646298976355610827,v/m1vw10zy74w/map,-2.91313335887,-1.28775355972,0.165,0.0,0.0,0.778488145271,0.627659308601,0,66.0231246948,57.5501899719,92.9588851929,5.13622999191
1646298976512646428,43,1646298976512646428,r1000913c5/base_front_laser_link,0,1646298976512646428,v/m1vw10zy74w/map,-2.95186720434,-1.25473807167,0.165,0.0,0.0,0.805188320588,0.593019197318,0,66.3948669434,57.7512054443,93.4962844849,5.24835824966
1646298976749963103,44,1646298976749963103,r1000913c5/base_front_laser_link,0,1646298976749963103,v/m1vw10zy74w/map,-3.02801864636,-1.25044978636,0.165,0.0,0.0,0.840403375448,0.54196140687,0,68.0888442993,57.9809341431,94.2181243896,5.41239833832
1646298976827074949,45,1646298976827074949,r1000913c5/base_front_laser_link,0,1646298976827074949,v/m1vw10zy74w/map,-3.04843960836,-1.23016792692,0.165,0.0,0.0,0.850001957787,0.526779528607,0,68.3747634888,58.2068862915,94.907913208,5.56700897217
1646298976985060030,46,1646298976985060030,r1000913c5/base_front_laser_link,0,1646298976985060030,v/m1vw10zy74w/map,-3.09041415402,-1.18975276369,0.165,0.0,0.0,0.864456392791,0.502707812714,0,68.4191360474,58.4241676331,95.5364761353,5.70410346985
1646298977062952819,47,1646298977062952819,r1000913c5/base_front_laser_link,0,1646298977062952819,v/m1vw10zy74w/map,-3.11171502666,-1.16418031196,0.165,0.0,0.0,0.869832903011,0.493346451127,0,67.3312759399,58.6097335815,95.9728088379,5.78769111633
1646298977298925177,48,1646298977298925177,r1000913c5/base_front_laser_link,0,1646298977298925177,v/m1vw10zy74w/map,-3.17433276243,-1.10500377055,0.165,0.0,0.0,0.882507076203,0.470299118063,0,65.7076950073,58.7545890808,96.2030639648,5.81615829468
1646298977456812504,49,1646298977456812504,r1000913c5/base_front_laser_link,0,1646298977456812504,v/m1vw10zy74w/map,-3.21830046507,-1.06366419818,0.165,0.0,0.0,0.890862202375,0.454273636017,0,67.3856277466,58.9272079468,96.5806808472,5.88449048996
1646298979191938578,50,1646298979191938578,r1000913c5/base_front_laser_link,0,1646298979191938578,v/m1vw10zy74w/map,-3.39799155039,-0.867481246479,0.165,0.0,0.0,0.898079986892,0.439832169291,0,66.2688827515,59.0711631775,96.8172607422,5.91536569595
1646298979428871199,51,1646298979428871199,r1000913c5/base_front_laser_link,0,1646298979428871199,v/m1vw10zy74w/map,-3.42641638898,-0.836179743586,0.165,0.0,0.0,0.900119867504,0.435642312137,0,66.5578155518,59.2151374817,97.0603027344,5.94838857651
1646298979587967225,52,1646298979587967225,r1000913c5/base_front_laser_link,0,1646298979587967225,v/m1vw10zy74w/map,-3.46079002565,-0.786374286012,0.165,0.0,0.0,0.906875048512,0.42139962789,0,64.8270568848,59.3210220337,97.1444320679,5.94113636017
1646298979743868276,53,1646298979743868276,r1000913c5/base_front_laser_link,0,1646298979743868276,v/m1vw10zy74w/map,-3.48999890902,-0.766142123906,0.165,0.0,0.0,0.912397311069,0.409305688642,0,68.6949691772,59.4946136475,97.5590896606,6.02149105072
1646298979979987491,54,1646298979979987491,r1000913c5/base_front_laser_link,0,1646298979979987491,v/m1vw10zy74w/map,-3.54120836492,-0.737194506148,0.165,0.0,0.0,0.922881089887,0.385085047658,0,67.5703811646,59.6414451599,97.8335952759,6.06404876709
1646298980138719216,55,1646298980138719216,r1000913c5/base_front_laser_link,0,1646298980138719216,v/m1vw10zy74w/map,-3.57790032345,-0.720720428176,0.165,0.0,0.0,0.931020952573,0.36496573246,0,70.5904541016,59.8369636536,98.3896865845,6.18423938751
1646298980374843019,56,1646298980374843019,r1000913c5/base_front_laser_link,0,1646298980374843019,v/m1vw10zy74w/map,-3.64567984474,-0.695332148615,0.165,0.0,0.0,0.944567034142,0.328318622702,0,70.9513397217,60.0319519043,98.9412536621,6.30309915543
1646298980530733492,57,1646298980530733492,r1000913c5/base_front_laser_link,0,1646298980530733492,v/m1vw10zy74w/map,-3.69596326918,-0.683093546899,0.165,0.0,0.0,0.954101507694,0.299483410252,0,75.1619338989,60.2928161621,99.9603042603,6.55582857132
1646298980767703361,58,1646298980767703361,r1000913c5/base_front_laser_link,0,1646298980767703361,v/m1vw10zy74w/map,-3.78081580285,-0.668632427108,0.165,0.0,0.0,0.967428632109,0.253143915147,0,78.052772522,60.5938301086,101.288162231,6.8981089592
1646298980845867678,59,1646298980845867678,r1000913c5/base_front_laser_link,0,1646298980845867678,v/m1vw10zy74w/map,-3.80956677334,-0.66563713409,0.165,0.0,0.0,0.971518617306,0.236963238137,0,73.71144104,60.8124580383,101.950279236,7.0459394455
1646298981081891388,60,1646298981081891388,r1000913c5/base_front_laser_link,0,1646298981081891388,v/m1vw10zy74w/map,-3.89752024869,-0.663377517718,0.165,0.0,0.0,0.981511169271,0.191404870877,0,76.7776489258,61.0741844177,102.913757324,7.27985715866
1646298981239267042,61,1646298981239267042,r1000913c5/base_front_laser_link,0,1646298981239267042,v/m1vw10zy74w/map,-3.95778991028,-0.659536966417,0.165,0.0,0.0,0.98655970077,0.163401214243,0,75.6185760498,61.3087692261,103.66620636,7.45247936249
1646298981475976971,62,1646298981475976971,r1000913c5/base_front_laser_link,0,1646298981475976971,v/m1vw10zy74w/map,-4.05878090231,-0.659682968011,0.165,0.0,0.0,0.99268559371,0.120728257007,0,74.6444702148,61.5204467773,104.262451172,7.58066797256
1646298981712672979,63,1646298981712672979,r1000913c5/base_front_laser_link,0,1646298981712672979,v/m1vw10zy74w/map,-4.16146841935,-0.654168846512,0.165,0.0,0.0,0.995565859316,0.0940671024555,0,72.2992858887,61.6888656616,104.608894348,7.64000797272
1646298981870747249,64,1646298981870747249,r1000913c5/base_front_laser_link,0,1646298981870747249,v/m1vw10zy74w/map,-4.19424843938,-0.718058248645,0.165,0.0,0.0,0.996275178958,0.0862308981341,0,70.1539001465,61.8190994263,104.776473999,7.65245771408
1646298982027781369,65,1646298982027781369,r1000913c5/base_front_laser_link,0,1646298982027781369,v/m1vw10zy74w/map,-4.26784669447,-0.714039459931,0.165,0.0,0.0,0.997180278298,0.075043271335,0,66.9787063599,61.8972740173,104.756904602,7.61987781525
1646298982185874842,66,1646298982185874842,r1000913c5/base_front_laser_link,0,1646298982185874842,v/m1vw10zy74w/map,-4.3414672634,-0.716714604521,0.165,0.0,0.0,0.997918598286,0.0644862093441,0,67.5930862427,61.9822845459,104.763923645,7.59388017654
1646298982421770672,67,1646298982421770672,r1000913c5/base_front_laser_link,0,1646298982421770672,v/m1vw10zy74w/map,-4.47189064864,-0.724318227887,0.165,0.0,0.0,0.998889588527,0.0471125241585,0,69.5687866211,62.0938529968,104.872665405,7.59293842316
1646298982658861691,68,1646298982658861691,r1000913c5/base_front_laser_link,0,1646298982658861691,v/m1vw10zy74w/map,-4.60455753823,-0.720982630135,0.165,0.0,0.0,0.999449739871,0.0331695262577,0,73.9351806641,62.2654647827,105.277053833,7.67052841187
1646298982816162592,69,1646298982816162592,r1000913c5/base_front_laser_link,0,1646298982816162592,v/m1vw10zy74w/map,-4.69498868189,-0.720492095432,0.165,0.0,0.0,0.999669885576,0.0256927980536,0,67.806892395,62.3446273804,105.275108337,7.64349222183
1646298982894936724,70,1646298982894936724,r1000913c5/base_front_laser_link,0,1646298982894936724,v/m1vw10zy74w/map,-4.74891709674,-0.721135821391,0.165,0.0,0.0,0.999784724131,0.0207486238992,0,66.0803222656,62.3972434998,105.202163696,7.60163927078
1646298982973862514,71,1646298982973862514,r1000913c5/base_front_laser_link,0,1646298982973862514,v/m1vw10zy74w/map,-4.7952178987,-0.721291107243,0.165,0.0,0.0,0.999831412317,0.0183615615772,0,68.3150253296,62.479434967,105.219642639,7.58006811142
1646298983052697125,72,1646298983052697125,r1000913c5/base_front_laser_link,0,1646298983052697125,v/m1vw10zy74w/map,-4.84337613961,-0.720457819063,0.165,0.0,0.0,0.999863309749,0.016533657107,0,64.5435562134,62.5077095032,105.101074219,7.53112077713
1646298983210707355,73,1646298983210707355,r1000913c5/base_front_laser_link,0,1646298983210707355,v/m1vw10zy74w/map,-4.93943133494,-0.724711398696,0.165,0.0,0.0,0.999941749037,0.0107934485793,0,66.225692749,62.5579528809,105.033470154,7.49183750153
1646298983526004887,74,1646298983526004887,r1000913c5/base_front_laser_link,0,1646298983526004887,v/m1vw10zy74w/map,-5.17227336963,-0.635144352677,0.165,0.0,0.0,0.999989652823,0.00454909296856,0,65.7289581299,62.6002349854,104.950378418,7.45004796982
1646298983842039255,75,1646298983842039255,r1000913c5/base_front_laser_link,0,1646298983842039255,v/m1vw10zy74w/map,-5.34597836846,-0.738904706853,0.165,0.0,0.0,0.999998575729,0.00168776195353,0,67.0055236816,62.6581993103,104.91053772,7.41744709015
1646298984078073703,76,1646298984078073703,r1000913c5/base_front_laser_link,0,1646298984078073703,v/m1vw10zy74w/map,-5.51039387508,-0.743040673803,0.165,0.0,0.0,0.999996140698,0.00277823478216,0,68.1776046753,62.7298774719,104.915733337,7.39528417587
1646298984315341263,77,1646298984315341263,r1000913c5/base_front_laser_link,0,1646298984315341263,v/m1vw10zy74w/map,-5.67814927822,-0.743490773167,0.165,0.0,0.0,0.999994282487,0.00338156682528,0,69.796875,62.8204803467,104.992134094,7.39055156708
1646298984552936362,78,1646298984552936362,r1000913c5/base_front_laser_link,0,1646298984552936362,v/m1vw10zy74w/map,-5.85932390289,-0.739248166748,0.165,0.0,0.0,0.999977940705,0.00664214594173,0,68.5942459106,62.8935661316,105.008666992,7.3717007637
1646298984631383713,79,1646298984631383713,r1000913c5/base_front_laser_link,0,1646298984631383713,v/m1vw10zy74w/map,-5.92047145466,-0.737502759883,0.165,0.0,0.0,0.999969427245,0.00781949969946,0,71.1005401611,62.9961547852,105.142585754,7.38214254379
1646298984787910998,80,1646298984787910998,r1000913c5/base_front_laser_link,0,1646298984787910998,v/m1vw10zy74w/map,-6.03658137015,-0.739670393296,0.165,0.0,0.0,0.999967509474,0.00806101708877,0,69.3698196411,63.0748405457,105.18473053,7.3699631691
1646298985024968123,81,1646298985024968123,r1000913c5/base_front_laser_link,0,1646298985024968123,v/m1vw10zy74w/map,-6.21803339168,-0.735800377925,0.165,0.0,0.0,0.999974756691,0.00710534867908,0,72.0782928467,63.1846389771,105.359153748,7.39150476456
1646298985262388103,82,1646298985262388103,r1000913c5/base_front_laser_link,0,1646298985262388103,v/m1vw10zy74w/map,-6.42174490821,-0.73126256209,0.165,0.0,0.0,0.99998000724,0.0063233788224,0,68.9079284668,63.2535934448,105.372917175,7.37310838699
1646298985420681735,83,1646298985420681735,r1000913c5/base_front_laser_link,0,1646298985420681735,v/m1vw10zy74w/map,-6.55044337475,-0.73539980942,0.165,0.0,0.0,0.999994641153,0.00327378467776,0,67.0667495728,63.2989883423,105.32006073,7.34035730362
1646298985576922960,84,1646298985576922960,r1000913c5/base_front_laser_link,0,1646298985576922960,v/m1vw10zy74w/map,-6.69027926845,-0.731522326664,0.165,0.0,0.0,0.999997225569,0.00235560059505,0,67.3111953735,63.3461914062,105.27469635,7.30950021744
1646298985814844065,85,1646298985814844065,r1000913c5/base_front_laser_link,0,1646298985814844065,v/m1vw10zy74w/map,-6.90076649498,-0.737867638175,0.165,0.0,0.0,0.999999863536,0.000522424168924,0,63.4293174744,63.3471603394,105.14630127,7.26638174057
1646298985971070015,86,1646298985971070015,r1000913c5/base_front_laser_link,0,1646298985971070015,v/m1vw10zy74w/map,-7.04312259317,-0.72926506202,0.165,0.0,0.0,0.999998017423,0.0019912685832,0,64.8900604248,63.3648948669,105.042610168,7.2259054184
1646298986128690282,87,1646298986128690282,r1000913c5/base_front_laser_link,0,1646298986128690282,v/m1vw10zy74w/map,-7.18237885531,-0.729693130567,0.165,0.0,0.0,0.999999875022,0.000499955937901,0,68.0561828613,63.4182052612,105.023124695,7.2016415596
1646298986363854263,88,1646298986363854263,r1000913c5/base_front_laser_link,0,1646298986363854263,v/m1vw10zy74w/map,-7.40611469313,-0.735361546179,0.165,0.0,0.0,0.999993349798,-0.00364696586175,0,65.7780761719,63.4447174072,104.93964386,7.16497421265
1646298986520792505,89,1646298986520792505,r1000913c5/base_front_laser_link,0,1646298986520792505,v/m1vw10zy74w/map,-7.57161715104,-0.631104087475,0.165,0.0,0.0,0.999987682015,-0.00496344821015,0,60.5911903381,63.4130134583,104.805877686,7.13095426559
1646298986680066328,90,1646298986680066328,r1000913c5/base_front_laser_link,0,1646298986680066328,v/m1vw10zy74w/map,-7.72024639532,-0.741397711413,0.165,0.0,0.0,0.999953431656,-0.00965062269446,0,61.7322349548,63.3945426941,104.674789429,7.09341573715
1646298986758979807,91,1646298986758979807,r1000913c5/base_front_laser_link,0,1646298986758979807,v/m1vw10zy74w/map,-7.79990840494,-0.695222301838,0.165,0.0,0.0,0.999939045401,-0.0110410815759,0,62.2671775818,63.3822898865,104.548225403,7.05531263351
1646298986994003896,92,1646298986994003896,r1000913c5/base_front_laser_link,0,1646298986994003896,v/m1vw10zy74w/map,-8.01191415202,-0.706072561895,0.165,0.0,0.0,0.999859510677,-0.0167618289375,0,64.2116851807,63.3912086487,104.443382263,7.017390728
1646298987151748906,93,1646298987151748906,r1000913c5/base_front_laser_link,0,1646298987151748906,v/m1vw10zy74w/map,-8.12395421702,-0.707844934845,0.165,0.0,0.0,0.999837991265,-0.0179997562126,0,68.1903305054,63.4422607422,104.433532715,6.99709129333
1646298987388961539,94,1646298987388961539,r1000913c5/base_front_laser_link,0,1646298987388961539,v/m1vw10zy74w/map,-8.25656592603,-0.704646706572,0.165,0.0,0.0,0.999733872048,-0.0230691369391,0,66.0816116333,63.4700431824,104.36516571,6.96503925323
1646298987546093903,95,1646298987546093903,r1000913c5/base_front_laser_link,0,1646298987546093903,v/m1vw10zy74w/map,-8.32667454777,-0.703182993373,0.165,0.0,0.0,0.999612881796,-0.0278224108954,0,65.7290725708,63.4935760498,104.289932251,6.93211936951
1646298987703792455,96,1646298987703792455,r1000913c5/base_front_laser_link,0,1646298987703792455,v/m1vw10zy74w/map,-8.38273009341,-0.70533318366,0.165,0.0,0.0,0.999479355783,-0.0322648006922,0,64.0725021362,63.4995422363,104.188056946,6.89617061615
1646298987940033910,97,1646298987940033910,r1000913c5/base_front_laser_link,0,1646298987940033910,v/m1vw10zy74w/map,-8.46748760092,-0.714922901839,0.165,0.0,0.0,0.999234070926,-0.0391314643341,0,61.8985099792,63.4832077026,104.070518494,6.86243724823
1646298988096867428,98,1646298988096867428,r1000913c5/base_front_laser_link,0,1646298988096867428,v/m1vw10zy74w/map,-8.53316021469,-0.715095629918,0.165,0.0,0.0,0.99915871431,-0.0410105305684,0,62.8768615723,63.4770812988,103.959899902,6.82760715485
1646298988254031292,99,1646298988254031292,r1000913c5/base_front_laser_link,0,1646298988254031292,v/m1vw10zy74w/map,-8.58451204017,-0.7214229257,0.165,0.0,0.0,0.998997890038,-0.0447572977219,0,59.3744430542,63.4360542297,103.852302551,6.80541419983
1646298988412131523,100,1646298988412131523,r1000913c5/base_front_laser_link,0,1646298988412131523,v/m1vw10zy74w/map,-8.62946377008,-0.730578190575,0.165,0.0,0.0,0.998768123853,-0.0496209106666,0,61.4014053345,63.4159126282,103.738891602,6.77432775497
1646298988569881164,101,1646298988569881164,r1000913c5/base_front_laser_link,0,1646298988569881164,v/m1vw10zy74w/map,-8.67474141248,-0.743562298992,0.165,0.0,0.0,0.998109373886,-0.0614628160839,0,59.449092865,63.3770217896,103.63344574,6.75214147568
1646298988725867932,102,1646298988725867932,r1000913c5/base_front_laser_link,0,1646298988725867932,v/m1vw10zy74w/map,-8.7210206339,-0.754812448018,0.165,0.0,0.0,0.997264982881,-0.0739090922614,0,57.6352767944,63.3212738037,103.549491882,6.74273777008
1646298988882825778,103,1646298988882825778,r1000913c5/base_front_laser_link,0,1646298988882825778,v/m1vw10zy74w/map,-8.7669316043,-0.773731584345,0.165,0.0,0.0,0.996121727481,-0.0879858172699,0,56.1843414307,63.2526512146,103.491622925,6.74632310867
1646298989040800402,104,1646298989040800402,r1000913c5/base_front_laser_link,0,1646298989040800402,v/m1vw10zy74w/map,-8.80742040763,-0.789715760854,0.165,0.0,0.0,0.994978840855,-0.100085494706,0,55.5337104797,63.1791381836,103.44695282,6.75593805313
1646298989119859310,105,1646298989119859310,r1000913c5/base_front_laser_link,0,1646298989119859310,v/m1vw10zy74w/map,-8.82713913008,-0.797415975968,0.165,0.0,0.0,0.994440018144,-0.105304559798,0,55.4585838318,63.106300354,103.402435303,6.76537799835
1646298989276869963,106,1646298989276869963,r1000913c5/base_front_laser_link,0,1646298989276869963,v/m1vw10zy74w/map,-8.86673703566,-0.815135620146,0.165,0.0,0.0,0.993450288747,-0.114265146867,0,58.2313652039,63.0607414246,103.310333252,6.7498626709
1646298989749925007,107,1646298989749925007,r1000913c5/base_front_laser_link,0,1646298989749925007,v/m1vw10zy74w/map,-8.9789689896,-0.859645536299,0.165,0.0,0.0,0.989928335521,-0.141569384166,0,60.7041511536,63.0389213562,103.20513916,6.72207307816
1646298990065980993,108,1646298990065980993,r1000913c5/base_front_laser_link,0,1646298990065980993,v/m1vw10zy74w/map,-9.01547511144,-0.903779034294,0.165,0.0,0.0,0.982461919286,-0.18646333997,0,64.1884078979,63.0494689941,103.124824524,6.69178581238
1646298990223950882,109,1646298990223950882,r1000913c5/base_front_laser_link,0,1646298990223950882,v/m1vw10zy74w/map,-9.015799431,-0.920630250919,0.165,0.0,0.0,0.978007696063,-0.208568805054,0,63.464176178,63.053237915,103.036643982,6.66113615036
1646298990460129747,110,1646298990460129747,r1000913c5/base_front_laser_link,0,1646298990460129747,v/m1vw10zy74w/map,-8.9987134439,-0.950784983628,0.165,0.0,0.0,0.965978139889,-0.258623729104,0,66.5492095947,63.0847320557,103.001991272,6.63908672333
1646298990617065939,111,1646298990617065939,r1000913c5/base_front_laser_link,0,1646298990617065939,v/m1vw10zy74w/map,-8.98640256625,-0.96851392954,0.165,0.0,0.0,0.95573070581,-0.294242787459,0,66.1030502319,63.1116828918,102.957473755,6.6152639389
1646298990853376590,112,1646298990853376590,r1000913c5/base_front_laser_link,0,1646298990853376590,v/m1vw10zy74w/map,-8.96636277863,-1.00033993097,0.165,0.0,0.0,0.939140314566,-0.34353379682,0,63.0069122314,63.1107559204,102.867774963,6.58567285538
1646298991008995384,113,1646298991008995384,r1000913c5/base_front_laser_link,0,1646298991008995384,v/m1vw10zy74w/map,-8.9560835682,-1.02255974391,0.165,0.0,0.0,0.927777549988,-0.373133779948,0,60.6611785889,63.0892677307,102.770706177,6.56048059464
1646298991244677506,114,1646298991244677506,r1000913c5/base_front_laser_link,0,1646298991244677506,v/m1vw10zy74w/map,-8.93530800129,-1.04721929323,0.165,0.0,0.0,0.90748322354,-0.420088322849,0,66.9287490845,63.1226539612,102.747001648,6.54144859314
1646298991402828638,115,1646298991402828638,r1000913c5/base_front_laser_link,0,1646298991402828638,v/m1vw10zy74w/map,-8.91731464552,-1.05544719038,0.165,0.0,0.0,0.891859149613,-0.452313229135,0,66.0303115845,63.1477203369,102.703338623,6.51853847504
1646298991560012881,116,1646298991560012881,r1000913c5/base_front_laser_link,0,1646298991560012881,v/m1vw10zy74w/map,-8.89816478982,-1.06968431865,0.165,0.0,0.0,0.87660608145,-0.481208663643,0,64.4847946167,63.1591491699,102.63381958,6.49155759811
1646298991796293644,117,1646298991796293644,r1000913c5/base_front_laser_link,0,1646298991796293644,v/m1vw10zy74w/map,-8.86785098687,-1.08827484632,0.165,0.0,0.0,0.850862693158,-0.525388120719,0,68.5496292114,63.2048301697,102.653160095,6.48277664185
1646298991953396967,118,1646298991953396967,r1000913c5/base_front_laser_link,0,1646298991953396967,v/m1vw10zy74w/map,-8.84796167618,-1.0942713578,0.165,0.0,0.0,0.831804740616,-0.555068350285,0,68.0632095337,63.2456550598,102.657440186,6.47059440613
1646298992110005839,119,1646298992110005839,r1000913c5/base_front_laser_link,0,1646298992110005839,v/m1vw10zy74w/map,-8.82753312994,-1.10129862339,0.165,0.0,0.0,0.813193201659,-0.581993828812,0,66.4127349854,63.2720489502,102.621543884,6.44983243942
1646298992268860937,120,1646298992268860937,r1000913c5/base_front_laser_link,0,1646298992268860937,v/m1vw10zy74w/map,-8.8106185915,-1.10783579335,0.165,0.0,0.0,0.795218199142,-0.606323359069,0,65.4844436646,63.2903327942,102.568481445,6.42605018616
1646298992424816746,121,1646298992424816746,r1000913c5/base_front_laser_link,0,1646298992424816746,v/m1vw10zy74w/map,-8.79241247091,-1.11217411545,0.165,0.0,0.0,0.777962233662,-0.628311040008,0,69.0181655884,63.3372840881,102.59853363,6.42041778564
1646298992582930297,122,1646298992582930297,r1000913c5/base_front_laser_link,0,1646298992582930297,v/m1vw10zy74w/map,-8.77506758632,-1.11876338697,0.165,0.0,0.0,0.760344905625,-0.649519533571,0,68.4638671875,63.3789634705,102.611175537,6.4107375145
1646298995105040543,123,1646298995105040543,r1000913c5/base_front_laser_link,0,1646298995105040543,v/m1vw10zy74w/map,-8.72686904462,-1.12756245154,0.165,0.0,0.0,0.714171660708,-0.699970598697,0,69.6485900879,63.429523468,102.657730103,6.40940189362
1646298995261890823,124,1646298995261890823,r1000913c5/base_front_laser_link,0,1646298995261890823,v/m1vw10zy74w/map,-8.72683897662,-1.12762146279,0.165,0.0,0.0,0.714138175207,-0.700004761921,0,68.8619689941,63.472984314,102.678894043,6.40197086334
1646298995420011613,125,1646298995420011613,r1000913c5/base_front_laser_link,0,1646298995420011613,v/m1vw10zy74w/map,-8.72543747383,-1.13483852716,0.165,0.0,0.0,0.712555666548,-0.70161557998,0,69.4391098022,63.5203323364,102.715606689,6.39842510223
1646298995656073583,126,1646298995656073583,r1000913c5/base_front_laser_link,0,1646298995656073583,v/m1vw10zy74w/map,-8.71345402633,-1.16663322179,0.165,0.0,0.0,0.699923369955,-0.714217947261,0,67.6147842407,63.5525741577,102.702568054,6.3833322525
1646298995892152917,127,1646298995892152917,r1000913c5/base_front_laser_link,0,1646298995892152917,v/m1vw10zy74w/map,-8.70028931656,-1.23175766708,0.165,0.0,0.0,0.688210169483,-0.725511380077,0,64.9410858154,63.563419342,102.641426086,6.35933589935
1646298996128939820,128,1646298996128939820,r1000913c5/base_front_laser_link,0,1646298996128939820,v/m1vw10zy74w/map,-8.68948238808,-1.30115013636,0.165,0.0,0.0,0.68118523685,-0.732111107071,0,64.807472229,63.5730667114,102.579246521,6.33539295197
1646298996285996870,129,1646298996285996870,r1000913c5/base_front_laser_link,0,1646298996285996870,v/m1vw10zy74w/map,-8.68829308598,-1.34683786275,0.165,0.0,0.0,0.683408636737,-0.73003605064,0,70.6225967407,63.6272926331,102.650306702,6.34100437164
1646298996521220889,130,1646298996521220889,r1000913c5/base_front_laser_link,0,1646298996521220889,v/m1vw10zy74w/map,-8.69409701176,-1.40318069389,0.165,0.0,0.0,0.691239449773,-0.722625783568,0,74.8722610474,63.7131309509,102.890686035,6.39251947403
1646298996679220803,131,1646298996679220803,r1000913c5/base_front_laser_link,0,1646298996679220803,v/m1vw10zy74w/map,-8.69938248923,-1.44841676012,0.165,0.0,0.0,0.698616993964,-0.715495839083,0,72.8889389038,63.7826461792,103.036521912,6.41795969009
1646298996758985492,132,1646298996758985492,r1000913c5/base_front_laser_link,0,1646298996758985492,v/m1vw10zy74w/map,-8.70262438607,-1.47095734424,0.165,0.0,0.0,0.702535400904,-0.711648797144,0,74.6418838501,63.8642921448,103.251998901,6.46256923676
1646298996993967900,133,1646298996993967900,r1000913c5/base_front_laser_link,0,1646298996993967900,v/m1vw10zy74w/map,-8.71786499524,-1.53248346131,0.165,0.0,0.0,0.714220114489,-0.699921158459,0,71.9376449585,63.9245414734,103.352218628,6.47589302063
1646298997231060428,134,1646298997231060428,r1000913c5/base_front_laser_link,0,1646298997231060428,v/m1vw10zy74w/map,-8.73260586047,-1.59893183502,0.165,0.0,0.0,0.726889115873,-0.686754842157,0,72.2889328003,63.9864997864,103.461669922,6.49172306061
1646298997388976174,135,1646298997388976174,r1000913c5/base_front_laser_link,0,1646298997388976174,v/m1vw10zy74w/map,-8.7401959666,-1.64112588722,0.165,0.0,0.0,0.732373765538,-0.68090283268,0,70.6205825806,64.0352783203,103.513092041,6.49260425568
1646298997624997866,136,1646298997624997866,r1000913c5/base_front_laser_link,0,1646298997624997866,v/m1vw10zy74w/map,-8.7481685731,-1.70670603823,0.165,0.0,0.0,0.735773832445,-0.677227338114,0,69.94090271,64.0783843994,103.543403625,6.48833799362
1646298997783047425,137,1646298997783047425,r1000913c5/base_front_laser_link,0,1646298997783047425,v/m1vw10zy74w/map,-8.75013431623,-1.75033489767,0.165,0.0,0.0,0.73550931554,-0.677514609993,0,68.8835754395,64.1132049561,103.545837402,6.4775428772
1646298998020018532,138,1646298998020018532,r1000913c5/base_front_laser_link,0,1646298998020018532,v/m1vw10zy74w/map,-8.750294972,-1.81272051211,0.165,0.0,0.0,0.731244674111,-0.682115259017,0,71.360710144,64.1653518677,103.615066528,6.48323965073
1646299003369751748,139,1646299003369751748,r1000913c5/base_front_laser_link,0,1646299003369751748,v/m1vw10zy74w/map,-8.73910247848,-2.62065643593,0.165,0.0,0.0,0.710097592026,-0.704103266431,0,67.6056747437,64.1899185181,103.589172363,6.46641683578
1646299003526343066,140,1646299003526343066,r1000913c5/base_front_laser_link,0,1646299003526343066,v/m1vw10zy74w/map,-8.73975826889,-2.64914030432,0.165,0.0,0.0,0.709668623278,-0.704535623752,0,70.7462768555,64.2364196777,103.637107849,6.46689558029
1646299007228298722,141,1646299007228298722,r1000913c5/base_front_laser_link,0,1646299007228298722,v/m1vw10zy74w/map,-8.73566570278,-2.83782321948,0.165,0.0,0.0,0.708287619429,-0.705923967693,0,67.9459228516,64.2625427246,103.616859436,6.45143699646
1646299007307192160,142,1646299007307192160,r1000913c5/base_front_laser_link,0,1646299007307192160,v/m1vw10zy74w/map,-8.73566412053,-2.83778081878,0.165,0.0,0.0,0.7082861007,-0.705925491504,0,68.1270599365,64.28956604,103.599960327,6.4367980957
1646299007622089803,143,1646299007622089803,r1000913c5/base_front_laser_link,0,1646299007622089803,v/m1vw10zy74w/map,-8.73656256055,-2.82925316804,0.165,0.0,0.0,0.70927108765,-0.704935829862,0,67.3767242432,64.3110046387,103.569236755,6.41940975189
1646299007779213950,144,1646299007779213950,r1000913c5/base_front_laser_link,0,1646299007779213950,v/m1vw10zy74w/map,-8.73698864949,-2.81071708091,0.165,0.0,0.0,0.709851735099,-0.70435112989,0,68.0891876221,64.3370666504,103.551376343,6.40477132797
1646299007858228791,145,1646299007858228791,r1000913c5/base_front_laser_link,0,1646299007858228791,v/m1vw10zy74w/map,-8.7381372657,-2.8004261563,0.165,0.0,0.0,0.711155145941,-0.703035104672,0,67.5559997559,64.3591079712,103.523727417,6.38820457458
1646299008015286257,146,1646299008015286257,r1000913c5/base_front_laser_link,0,1646299008015286257,v/m1vw10zy74w/map,-8.74068132328,-2.76354417128,0.165,0.0,0.0,0.71438038241,-0.6997575789,0,73.1220397949,64.4187240601,103.640274048,6.40718460083
1646299008172991343,147,1646299008172991343,r1000913c5/base_front_laser_link,0,1646299008172991343,v/m1vw10zy74w/map,-8.74335488832,-2.72086247915,0.165,0.0,0.0,0.718270863409,-0.695763585406,0,72.7364349365,64.4749221802,103.740486145,6.421854496
1646299008331277239,148,1646299008331277239,r1000913c5/base_front_laser_link,0,1646299008331277239,v/m1vw10zy74w/map,-8.74358144521,-2.67528070697,0.165,0.0,0.0,0.720111839704,-0.6938580102,0,70.1560134888,64.513053894,103.76411438,6.41702222824
1646299008569223203,149,1646299008569223203,r1000913c5/base_front_laser_link,0,1646299008569223203,v/m1vw10zy74w/map,-8.74140175302,-2.6035113557,0.165,0.0,0.0,0.72073430027,-0.693211416823,0,65.411857605,64.5190429688,103.706665039,6.39587306976
1646299008725334906,150,1646299008725334906,r1000913c5/base_front_laser_link,0,1646299008725334906,v/m1vw10zy74w/map,-8.74019398039,-2.55756857898,0.165,0.0,0.0,0.721358597218,-0.692561747586,0,68.6311416626,64.5462799072,103.696159363,6.38329553604
1646299008883366792,151,1646299008883366792,r1000913c5/base_front_laser_link,0,1646299008883366792,v/m1vw10zy74w/map,-8.74041480351,-2.50762621682,0.165,0.0,0.0,0.723642699188,-0.69017479229,0,74.9987106323,64.6150436401,103.870132446,6.41836357117
1646299009040108702,152,1646299009040108702,r1000913c5/base_front_laser_link,0,1646299009040108702,v/m1vw10zy74w/map,-8.73869768909,-2.47519488902,0.165,0.0,0.0,0.72322318269,-0.690614384458,0,76.9768981934,64.6958389282,104.120269775,6.47480964661
1646299009119249427,153,1646299009119249427,r1000913c5/base_front_laser_link,0,1646299009119249427,v/m1vw10zy74w/map,-8.73774282811,-2.4526698041,0.165,0.0,0.0,0.723314744441,-0.6905184867,0,77.7910461426,64.7808761597,104.398826599,6.53931856155
1646299009276346279,154,1646299009276346279,r1000913c5/base_front_laser_link,0,1646299009276346279,v/m1vw10zy74w/map,-8.73198710768,-2.39862608671,0.165,0.0,0.0,0.722388735483,-0.691487176199,0,75.2244491577,64.8482513428,104.563674927,6.57180929184
1646299009355295331,155,1646299009355295331,r1000913c5/base_front_laser_link,0,1646299009355295331,v/m1vw10zy74w/map,-8.73006380634,-2.39348295393,0.165,0.0,0.0,0.722109952489,-0.69177830012,0,75.2710342407,64.9150619507,104.725608826,6.60351514816
1646299009433262108,156,1646299009433262108,r1000913c5/base_front_laser_link,0,1646299009433262108,v/m1vw10zy74w/map,-8.72914998036,-2.37178346616,0.165,0.0,0.0,0.72212939655,-0.691758002945,0,74.8107070923,64.9780960083,104.866668701,6.62952518463
1646299009591267632,157,1646299009591267632,r1000913c5/base_front_laser_link,0,1646299009591267632,v/m1vw10zy74w/map,-8.72723026908,-2.3269445185,0.165,0.0,0.0,0.722138087886,-0.691748929905,0,69.543006897,65.0069885254,104.862030029,6.61834955215
1646299009748272118,158,1646299009748272118,r1000913c5/base_front_laser_link,0,1646299009748272118,v/m1vw10zy74w/map,-8.72364642574,-2.26760950389,0.165,0.0,0.0,0.722497266035,-0.691373777759,0,70.5463027954,65.0418243408,104.87776947,6.61198186874
1646299009827395540,159,1646299009827395540,r1000913c5/base_front_laser_link,0,1646299009827395540,v/m1vw10zy74w/map,-8.72289566701,-2.24413657986,0.165,0.0,0.0,0.722548838214,-0.691319879937,0,66.0938415527,65.0484008789,104.823440552,6.59168100357
1646299009984291425,160,1646299009984291425,r1000913c5/base_front_laser_link,0,1646299009984291425,v/m1vw10zy74w/map,-8.72089998578,-2.19954278728,0.165,0.0,0.0,0.722522280194,-0.691347636594,0,69.6615066528,65.0770492554,104.820350647,6.58109998703
1646299010141385240,161,1646299010141385240,r1000913c5/base_front_laser_link,0,1646299010141385240,v/m1vw10zy74w/map,-8.71525029947,-2.15174813697,0.165,0.0,0.0,0.7234688514,-0.690357024339,0,79.2546386719,65.16456604,105.128128052,6.65451955795
1646299010221152595,162,1646299010221152595,r1000913c5/base_front_laser_link,0,1646299010221152595,v/m1vw10zy74w/map,-8.72161553558,-2.153517121,0.165,0.0,0.0,0.725178057452,-0.68856138796,0,77.1620330811,65.2381744385,105.338699341,6.7001748085
1646299010298539768,163,1646299010298539768,r1000913c5/base_front_laser_link,0,1646299010298539768,v/m1vw10zy74w/map,-8.72049207518,-2.13184662524,0.165,0.0,0.0,0.725178276486,-0.688561157279,0,77.2292938232,65.3112869263,105.54598999,6.74490022659
1646299010456988253,164,1646299010456988253,r1000913c5/base_front_laser_link,0,1646299010456988253,v/m1vw10zy74w/map,-8.71817622237,-2.08716549782,0.165,0.0,0.0,0.725177960776,-0.688561489778,0,78.5526809692,65.3915405273,105.800117493,6.80286073685
1646299010613186621,165,1646299010613186621,r1000913c5/base_front_laser_link,0,1646299010613186621,v/m1vw10zy74w/map,-8.70816315066,-2.02656526984,0.165,0.0,0.0,0.722526574638,-0.691343148474,0,77.5537033081,65.464805603,106.007575989,6.84759140015
1646299010771093277,166,1646299010771093277,r1000913c5/base_front_laser_link,0,1646299010771093277,v/m1vw10zy74w/map,-8.70543742575,-1.97938143542,0.165,0.0,0.0,0.72244555763,-0.691427809869,0,73.4659194946,65.5127182007,106.077575684,6.85495328903
1646299010929318929,167,1646299010929318929,r1000913c5/base_front_laser_link,0,1646299010929318929,v/m1vw10zy74w/map,-8.70345024379,-1.93416805399,0.165,0.0,0.0,0.722444506366,-0.691428908292,0,72.6860733032,65.5554122925,106.125724792,6.8567700386
1646299011085228111,168,1646299011085228111,r1000913c5/base_front_laser_link,0,1646299011085228111,v/m1vw10zy74w/map,-8.70726522434,-1.917053908,0.165,0.0,0.0,0.724135162098,-0.689658079785,0,77.6337509155,65.6268844604,106.324424744,6.89917898178
1646299011322374509,169,1646299011322374509,r1000913c5/base_front_laser_link,0,1646299011322374509,v/m1vw10zy74w/map,-8.70411746561,-1.85061549842,0.165,0.0,0.0,0.724242440263,-0.689545421072,0,72.4522399902,65.6670303345,106.362915039,6.89862728119
1646299011401295158,170,1646299011401295158,r1000913c5/base_front_laser_link,0,1646299011401295158,v/m1vw10zy74w/map,-8.70305142274,-1.82882021454,0.165,0.0,0.0,0.724247181547,-0.689540441179,0,73.2300643921,65.7112579346,106.418998718,6.90257978439
1646299011478314847,171,1646299011478314847,r1000913c5/base_front_laser_link,0,1646299011478314847,v/m1vw10zy74w/map,-8.70678677254,-1.8045731393,0.165,0.0,0.0,0.723926804274,-0.689876787589,0,73.2845611572,65.7552947998,106.474945068,6.90655040741
1646299011637146301,172,1646299011637146301,r1000913c5/base_front_laser_link,0,1646299011637146301,v/m1vw10zy74w/map,-8.70479791512,-1.75945556684,0.165,0.0,0.0,0.723905189081,-0.689899468924,0,71.4861831665,65.7884216309,106.489059448,6.90021419525
1646299011872095605,173,1646299011872095605,r1000913c5/base_front_laser_link,0,1646299011872095605,v/m1vw10zy74w/map,-8.6985006614,-1.69293877007,0.165,0.0,0.0,0.72476660202,-0.688994464852,0,75.3483963013,65.8433609009,106.59828186,6.91830778122
1646299012186466713,174,1646299012186466713,r1000913c5/base_front_laser_link,0,1646299012186466713,v/m1vw10zy74w/map,-8.69715598096,-1.62068061047,0.165,0.0,0.0,0.72430432218,-0.689480419498,0,70.660774231,65.8708877563,106.594902039,6.90800428391
1646299012266285153,175,1646299012266285153,r1000913c5/base_front_laser_link,0,1646299012266285153,v/m1vw10zy74w/map,-8.6960091315,-1.59821445129,0.165,0.0,0.0,0.724262027139,-0.689524848025,0,75.9874801636,65.9283676147,106.719329834,6.93032026291
1646299012580267512,176,1646299012580267512,r1000913c5/base_front_laser_link,0,1646299012580267512,v/m1vw10zy74w/map,-8.6907848156,-1.50877091173,0.165,0.0,0.0,0.726068818479,-0.687622040683,0,74.7983474731,65.9784851074,106.806549072,6.94269037247
1646299012658219157,177,1646299012658219157,r1000913c5/base_front_laser_link,0,1646299012658219157,v/m1vw10zy74w/map,-8.68954359424,-1.48643103446,0.165,0.0,0.0,0.726042127854,-0.687650222556,0,74.7733230591,66.0278930664,106.890983582,6.9543633461
1646299012815221150,178,1646299012815221150,r1000913c5/base_front_laser_link,0,1646299012815221150,v/m1vw10zy74w/map,-8.69439187016,-1.45653927711,0.165,0.0,0.0,0.725668640402,-0.688044347653,0,74.0571136475,66.0727462769,106.954910278,6.96072053909
1646299012894290187,179,1646299012894290187,r1000913c5/base_front_laser_link,0,1646299012894290187,v/m1vw10zy74w/map,-8.69317512468,-1.43401282794,0.165,0.0,0.0,0.725650714249,-0.688063253568,0,72.8727264404,66.1105270386,106.989715576,6.95972967148
1646299012972104711,180,1646299012972104711,r1000913c5/base_front_laser_link,0,1646299012972104711,v/m1vw10zy74w/map,-8.69198761544,-1.41201217731,0.165,0.0,0.0,0.725632767211,-0.688082180521,0,72.6531219482,66.1466751099,107.018829346,6.95738697052
1646299013051292376,181,1646299013051292376,r1000913c5/base_front_laser_link,0,1646299013051292376,v/m1vw10zy74w/map,-8.69077809219,-1.38947522109,0.165,0.0,0.0,0.725620604926,-0.688095006308,0,74.297203064,66.1914520264,107.084640503,6.96439552307
1646299013130267036,182,1646299013130267036,r1000913c5/base_front_laser_link,0,1646299013130267036,v/m1vw10zy74w/map,-8.6895787111,-1.36730356765,0.165,0.0,0.0,0.725597632631,-0.688119230599,0,75.2680053711,66.2410507202,107.17376709,6.97757053375
1646299013208047449,183,1646299013208047449,r1000913c5/base_front_laser_link,0,1646299013208047449,v/m1vw10zy74w/map,-8.68775244806,-1.3506247682,0.165,0.0,0.0,0.723330708268,-0.690501764282,0,74.0100631714,66.2832794189,107.229309082,6.98201084137
1646299013444669560,184,1646299013444669560,r1000913c5/base_front_laser_link,0,1646299013444669560,v/m1vw10zy74w/map,-8.68383218012,-1.28181368423,0.165,0.0,0.0,0.723341733243,-0.690490214955,0,75.8439254761,66.3349533081,107.330162048,6.99840164185
1646299013601157247,185,1646299013601157247,r1000913c5/base_front_laser_link,0,1646299013601157247,v/m1vw10zy74w/map,-8.68137755782,-1.2351303617,0.165,0.0,0.0,0.723671377971,-0.690144721566,0,75.6861419678,66.3852310181,107.424407959,7.01306009293
1646299013838374390,186,1646299013838374390,r1000913c5/base_front_laser_link,0,1646299013838374390,v/m1vw10zy74w/map,-8.67723235404,-1.1636551531,0.165,0.0,0.0,0.724396662673,-0.689383402112,0,74.8979873657,66.4307556152,107.496246338,7.02183103561
1646299013996368820,187,1646299013996368820,r1000913c5/base_front_laser_link,0,1646299013996368820,v/m1vw10zy74w/map,-8.67498345067,-1.11857031106,0.165,0.0,0.0,0.724381152274,-0.689399699906,0,76.5038909912,66.484336853,107.608718872,7.04146051407
1646299014073367424,188,1646299014073367424,r1000913c5/base_front_laser_link,0,1646299014073367424,v/m1vw10zy74w/map,-8.67129090397,-1.09097231141,0.165,0.0,0.0,0.72517228513,-0.688567467195,0,73.5772705078,66.5218658447,107.646766663,7.04163455963
1646299014231106509,189,1646299014231106509,r1000913c5/base_front_laser_link,0,1646299014231106509,v/m1vw10zy74w/map,-8.66872274593,-1.04523969054,0.165,0.0,0.0,0.725283094388,-0.688450748416,0,74.2385406494,66.5624771118,107.698257446,7.04525899887
1646299014389336152,190,1646299014389336152,r1000913c5/base_front_laser_link,0,1646299014389336152,v/m1vw10zy74w/map,-8.66638554403,-1.00008539042,0.165,0.0,0.0,0.725303155996,-0.688429612888,0,71.6615524292,66.5891723633,107.698295593,7.0363740921
1646299014625376507,191,1646299014625376507,r1000913c5/base_front_laser_link,0,1646299014625376507,v/m1vw10zy74w/map,-8.66375683652,-0.926202253184,0.165,0.0,0.0,0.724801607203,-0.68895764035,0,71.9485702515,66.6170883179,107.702827454,7.02858066559
1646299014783404047,192,1646299014783404047,r1000913c5/base_front_laser_link,0,1646299014783404047,v/m1vw10zy74w/map,-8.66150149946,-0.881487876566,0.165,0.0,0.0,0.724815946507,-0.68894255471,0,71.6585388184,66.6432113647,107.702125549,7.01963949203
1646299014940258899,193,1646299014940258899,r1000913c5/base_front_laser_link,0,1646299014940258899,v/m1vw10zy74w/map,-8.65851226594,-0.842453036732,0.165,0.0,0.0,0.725792030946,-0.687914186375,0,72.1120300293,66.6714019775,107.708694458,7.01243114471
1646299017540247589,194,1646299017540247589,r1000913c5/base_front_laser_link,0,1646299017540247589,v/m1vw10zy74w/map,-8.65374510533,-0.781462804358,0.165,0.0,0.0,0.722647999736,-0.691216224113,0,74.2150421143,66.7100830078,107.755577087,7.01516532898
1646299017856251170,195,1646299017856251170,r1000913c5/base_front_laser_link,0,1646299017856251170,v/m1vw10zy74w/map,-8.64323528773,-0.807195262458,0.165,0.0,0.0,0.710840602299,-0.703353138987,0,77.6149978638,66.7657241821,107.88684845,7.04037570953
1646299018092169332,196,1646299018092169332,r1000913c5/base_front_laser_link,0,1646299018092169332,v/m1vw10zy74w/map,-8.62268098985,-0.834148666555,0.165,0.0,0.0,0.689328304359,-0.724449093318,0,72.2659835815,66.7936401367,107.893592834,7.03331851959
1646299018407472589,197,1646299018407472589,r1000913c5/base_front_laser_link,0,1646299018407472589,v/m1vw10zy74w/map,-8.58188331847,-0.878226943464,0.165,0.0,0.0,0.649003334986,-0.760785561888,0,66.910697937,66.7942352295,107.840583801,7.01544952393
1646299018486699802,198,1646299018486699802,r1000913c5/base_front_laser_link,0,1646299018486699802,v/m1vw10zy74w/map,-8.56789102779,-0.890592466852,0.165,0.0,0.0,0.635566152997,-0.772046413867,0,67.2358016968,66.7964553833,107.789794922,6.9977812767
1646299018722218638,199,1646299018722218638,r1000913c5/base_front_laser_link,0,1646299018722218638,v/m1vw10zy74w/map,-8.51366703739,-0.911901858941,0.165,0.0,0.0,0.588516437437,-0.808485252102,0,66.9484863281,66.7972106934,107.737770081,6.98018503189
1646299018880018758,200,1646299018880018758,r1000913c5/base_front_laser_link,0,1646299018880018758,v/m1vw10zy74w/map,-8.4684477086,-0.930358560034,0.165,0.0,0.0,0.544306749744,-0.83888626296,0,69.8301773071,66.8123016357,107.710296631,6.9659986496
1646299019037310024,201,1646299019037310024,r1000913c5/base_front_laser_link,0,1646299019037310024,v/m1vw10zy74w/map,-8.41695358218,-0.94645968269,0.165,0.0,0.0,0.492645199867,-0.870230260936,0,69.8542098999,66.8273620605,107.683189392,6.95194387436
1646299019116174619,202,1646299019116174619,r1000913c5/base_front_laser_link,0,1646299019116174619,v/m1vw10zy74w/map,-8.38846805703,-0.950266809678,0.165,0.0,0.0,0.463802485187,-0.885938629215,0,71.8706741333,66.8522033691,107.683433533,6.94374275208
1646299019273339300,203,1646299019273339300,r1000913c5/base_front_laser_link,0,1646299019273339300,v/m1vw10zy74w/map,-8.32656242456,-0.945672248234,0.165,0.0,0.0,0.398050669535,-0.917363430971,0,70.3946380615,66.8695678711,107.662742615,6.93105792999
1646299019430385574,204,1646299019430385574,r1000913c5/base_front_laser_link,0,1646299019430385574,v/m1vw10zy74w/map,-8.25985285823,-0.957923988412,0.165,0.0,0.0,0.340522372131,-0.940236413929,0,68.3060531616,66.8765792847,107.620910645,6.91477680206
1646299019588279861,205,1646299019588279861,r1000913c5/base_front_laser_link,0,1646299019588279861,v/m1vw10zy74w/map,-8.19771176016,-0.955311094843,0.165,0.0,0.0,0.281254526495,-0.959633206661,0,62.6920394897,66.856262207,107.568412781,6.90404987335
1646299019745275204,206,1646299019745275204,r1000913c5/base_front_laser_link,0,1646299019745275204,v/m1vw10zy74w/map,-8.14121505425,-0.94836848716,0.165,0.0,0.0,0.222598528847,-0.974910198405,0,61.378452301,66.8298034668,107.523162842,6.89778757095
1646299019903364188,207,1646299019903364188,r1000913c5/base_front_laser_link,0,1646299019903364188,v/m1vw10zy74w/map,-8.07568576724,-0.929100915356,0.165,0.0,0.0,-0.17036214394,0.985381519977,0,65.4172897339,66.8230056763,107.468421936,6.88180303574
1646299020219340953,208,1646299020219340953,r1000913c5/base_front_laser_link,0,1646299020219340953,v/m1vw10zy74w/map,-7.95561764385,-0.895870605459,0.165,0.0,0.0,-0.0738925671898,0.997266207446,0,63.3264122009,66.8062820435,107.414779663,6.86949968338
1646299020376077571,209,1646299020376077571,r1000913c5/base_front_laser_link,0,1646299020376077571,v/m1vw10zy74w/map,-7.89065603639,-0.854229589032,0.165,0.0,0.0,-0.0365699363966,0.99933109616,0,63.6199455261,66.7911071777,107.360824585,6.85657215118
1646299020691848213,210,1646299020691848213,r1000913c5/base_front_laser_link,0,1646299020691848213,v/m1vw10zy74w/map,-7.75848573691,-0.812408951361,0.165,0.0,0.0,0.00692914071512,0.999975993216,0,62.7994194031,66.7721862793,107.309425354,6.84574508667
1646299020849642512,211,1646299020849642512,r1000913c5/base_front_laser_link,0,1646299020849642512,v/m1vw10zy74w/map,-7.68353853214,-0.799163523279,0.165,0.0,0.0,0.0147559858412,0.999891124514,0,61.3461914062,66.74659729,107.265586853,6.83966350555
1646299021085455862,212,1646299021085455862,r1000913c5/base_front_laser_link,0,1646299021085455862,v/m1vw10zy74w/map,-7.57575821778,-0.786413627651,0.165,0.0,0.0,0.0266749242554,0.999644160897,0,65.7494888306,66.7419128418,107.213478088,6.82385492325
1646299021322349169,213,1646299021322349169,r1000913c5/base_front_laser_link,0,1646299021322349169,v/m1vw10zy74w/map,-7.4686628174,-0.771400761488,0.165,0.0,0.0,0.0395629315872,0.999217080741,0,66.5557098389,66.7410430908,107.164527893,6.80782938004
1646299021637279086,214,1646299021637279086,r1000913c5/base_front_laser_link,0,1646299021637279086,v/m1vw10zy74w/map,-7.31725063746,-0.751692903175,0.165,0.0,0.0,0.045040761455,0.998985149943,0,65.2667007446,66.7341842651,107.112129211,6.7926492691
1646299021875439773,215,1646299021875439773,r1000913c5/base_front_laser_link,0,1646299021875439773,v/m1vw10zy74w/map,-7.1883708745,-0.74328711187,0.165,0.0,0.0,0.0404454328211,0.999181748714,0,63.7087593079,66.7201766968,107.060058594,6.77995967865
1646299022189619679,216,1646299022189619679,r1000913c5/base_front_laser_link,0,1646299022189619679,v/m1vw10zy74w/map,-7.00822860691,-0.729546222482,0.165,0.0,0.0,0.0339207648159,0.999424525272,0,61.0290756226,66.6939544678,107.019767761,6.77527093887
1646299022269389355,217,1646299022269389355,r1000913c5/base_front_laser_link,0,1646299022269389355,v/m1vw10zy74w/map,-6.96626435078,-0.72616585032,0.165,0.0,0.0,0.0324350423874,0.999473845593,0,62.542175293,66.6749038696,106.971366882,6.7654876709
1646299022583460389,218,1646299022583460389,r1000913c5/base_front_laser_link,0,1646299022583460389,v/m1vw10zy74w/map,-6.76791269526,-0.721311784482,0.165,0.0,0.0,0.0185758531228,0.999827453954,0,58.2321662903,66.6363525391,106.95841217,6.77401971817
1646299022741488291,219,1646299022741488291,r1000913c5/base_front_laser_link,0,1646299022741488291,v/m1vw10zy74w/map,-6.65777194626,-0.705252850892,0.165,0.0,0.0,0.010898491583,0.999940609677,0,53.4632911682,66.5764770508,107.026397705,6.81663990021
1646299022978540170,220,1646299022978540170,r1000913c5/base_front_laser_link,0,1646299022978540170,v/m1vw10zy74w/map,-6.5016454371,-0.706350873795,0.165,0.0,0.0,0.000307855193811,0.999999952613,0,53.9260559082,66.5192337036,107.081718445,6.85415935516
1646299023136394883,221,1646299023136394883,r1000913c5/base_front_laser_link,0,1646299023136394883,v/m1vw10zy74w/map,-6.39240058594,-0.709324826204,0.165,0.0,0.0,-0.00546939762996,0.999985042733,0,50.9220504761,66.4489822388,107.203849792,6.91829061508
1646299023215384265,222,1646299023215384265,r1000913c5/base_front_laser_link,0,1646299023215384265,v/m1vw10zy74w/map,-6.34297442406,-0.712670352239,0.165,0.0,0.0,-0.00827114356757,0.999965793507,0,51.352306366,66.3812789917,107.310264587,6.97632884979
1646299023372553578,223,1646299023372553578,r1000913c5/base_front_laser_link,0,1646299023372553578,v/m1vw10zy74w/map,-6.22901994377,-0.717285977767,0.165,0.0,0.0,-0.0118241819701,0.999930091917,0,53.6184997559,66.3243026733,107.362434387,7.01270961761
1646299023687485465,224,1646299023687485465,r1000913c5/base_front_laser_link,0,1646299023687485465,v/m1vw10zy74w/map,-6.02559106696,-0.736011254521,0.165,0.0,0.0,-0.0084308621981,0.99996445965,0,60.9312324524,66.3003387451,107.319145203,7.00626993179
1646299023846047780,225,1646299023846047780,r1000913c5/base_front_laser_link,0,1646299023846047780,v/m1vw10zy74w/map,-5.90230838688,-0.736083416657,0.165,0.0,0.0,-0.00601111307049,0.999981933097,0,60.225353241,66.2734527588,107.280517578,7.00235319138
1646299023923373097,226,1646299023923373097,r1000913c5/base_front_laser_link,0,1646299023923373097,v/m1vw10zy74w/map,-5.84654272092,-0.731542075722,0.165,0.0,0.0,-0.00378425609088,0.999992839677,0,60.9325370789,66.2499237061,107.237419128,6.99583101273
1646299024081018125,227,1646299024081018125,r1000913c5/base_front_laser_link,0,1646299024081018125,v/m1vw10zy74w/map,-5.72218823968,-0.729234095301,0.165,0.0,0.0,-0.00126547150269,0.999999199291,0,57.3561401367,66.2109222412,107.226547241,7.00521087646
1646299024317412568,228,1646299024317412568,r1000913c5/base_front_laser_link,0,1646299024317412568,v/m1vw10zy74w/map,-5.53183024021,-0.731377903154,0.165,0.0,0.0,-0.00227034196501,0.99999742277,0,55.7682991028,66.1653213501,107.236755371,7.02381229401
1646299024396099795,229,1646299024396099795,r1000913c5/base_front_laser_link,0,1646299024396099795,v/m1vw10zy74w/map,-5.46424815738,-0.731703927729,0.165,0.0,0.0,-0.00257676957406,0.999996680124,0,56.1353645325,66.121711731,107.240493774,7.03959512711
1646299024553362982,230,1646299024553362982,r1000913c5/base_front_laser_link,0,1646299024553362982,v/m1vw10zy74w/map,-5.33185785943,-0.734065016626,0.165,0.0,0.0,-0.0039645409597,0.999992141177,0,54.838432312,66.0728607178,107.263053894,7.06339645386
1646299024712354988,231,1646299024712354988,r1000913c5/base_front_laser_link,0,1646299024712354988,v/m1vw10zy74w/map,-5.19881297281,-0.732334946912,0.165,0.0,0.0,-0.00402751657445,0.999991889522,0,55.6217155457,66.0278167725,107.27204895,7.08141183853
1646299024947353930,232,1646299024947353930,r1000913c5/base_front_laser_link,0,1646299024947353930,v/m1vw10zy74w/map,-4.98900092219,-0.71054646056,0.165,0.0,0.0,-0.00373369997661,0.999993029718,0,52.0871925354,65.9679870605,107.342712402,7.1249089241
1646299025026519946,233,1646299025026519946,r1000913c5/base_front_laser_link,0,1646299025026519946,v/m1vw10zy74w/map,-4.90949662863,-0.721934070265,0.165,0.0,0.0,-0.0029863236837,0.999995540925,0,50.665184021,65.9025878906,107.441505432,7.17963838577
1646299025105280180,234,1646299025105280180,r1000913c5/base_front_laser_link,0,1646299025105280180,v/m1vw10zy74w/map,-4.83711119149,-0.722869339412,0.165,0.0,0.0,-0.0032272489598,0.999994792419,0,53.4186630249,65.8494644165,107.480712891,7.21041631699
1646299025263518074,235,1646299025263518074,r1000913c5/base_front_laser_link,0,1646299025263518074,v/m1vw10zy74w/map,-4.69295734779,-0.733773793682,0.165,0.0,0.0,-0.00576542289077,0.999983379811,0,55.5357933044,65.8057632446,107.484703064,7.22631263733
1646299025579457382,236,1646299025579457382,r1000913c5/base_front_laser_link,0,1646299025579457382,v/m1vw10zy74w/map,-4.39748096952,-0.720959956166,0.165,0.0,0.0,-0.00760840793912,0.999971055645,0,49.8787765503,65.7385635376,107.593032837,7.2848238945
1646299025736375163,237,1646299025736375163,r1000913c5/base_front_laser_link,0,1646299025736375163,v/m1vw10zy74w/map,-4.25386287078,-0.723781971076,0.165,0.0,0.0,-0.00707601097235,0.999974964721,0,53.2930526733,65.6862716675,107.628463745,7.31406497955
1646299025894440258,238,1646299025894440258,r1000913c5/base_front_laser_link,0,1646299025894440258,v/m1vw10zy74w/map,-4.09767078766,-0.725820405459,0.165,0.0,0.0,-0.00814321642896,0.999966843463,0,55.1678161621,65.6422576904,107.633239746,7.330327034
