%time,field.header.seq,field.header.stamp,field.header.frame_id,field.pose.header.seq,field.pose.header.stamp,field.pose.header.frame_id,field.pose.pose.position.x,field.pose.pose.position.y,field.pose.pose.position.z,field.pose.pose.orientation.x,field.pose.pose.orientation.y,field.pose.pose.orientation.z,field.pose.pose.orientation.w,field.label,field.current_error,field.mean,field.threshold,field.std_dev
1646248024271598022,0,1646248024271598022,r1000913c5/base_front_laser_link,0,1646248024271598022,v/m1vw10zy74w/map,-2.85104924685,-2.46291223295,0.165,0.0,0.0,0.703468232039,-0.710726703109,0,56.8098640442,56.8098640442,nan,nan
1646248024350668542,1,1646248024350668542,r1000913c5/base_front_laser_link,0,1646248024350668542,v/m1vw10zy74w/map,-2.85126220541,-2.44033149676,0.165,0.0,0.0,0.703447269195,-0.710747451252,0,60.0615653992,58.4357147217,85.3336105347,2.29929828644
1646248025844688664,2,1646248025844688664,r1000913c5/base_front_laser_link,0,1646248025844688664,v/m1vw10zy74w/map,-2.84656659123,-2.26963788338,0.165,0.0,0.0,0.700227208295,-0.713920063287,0,59.0740394592,58.6484909058,83.649772644,1.66709494591
1646248026080602488,3,1646248026080602488,r1000913c5/base_front_laser_link,0,1646248026080602488,v/m1vw10zy74w/map,-2.84421148588,-2.26866137589,0.165,0.0,0.0,0.697689732198,-0.71640005415,0,59.4891166687,58.8586463928,83.1324310303,1.42459368706
1646248026238747425,4,1646248026238747425,r1000913c5/base_front_laser_link,0,1646248026238747425,v/m1vw10zy74w/map,-2.83498480669,-2.26808173489,0.165,0.0,0.0,0.68773420707,-0.725962575087,0,58.6844062805,58.8237991333,82.5323791504,1.23619270325
1646248026474761750,5,1646248026474761750,r1000913c5/base_front_laser_link,0,1646248026474761750,v/m1vw10zy74w/map,-2.80602239088,-2.26445280979,0.165,0.0,0.0,0.655455467256,-0.755233825013,0,60.1423568726,59.0435600281,82.7328338623,1.2297577858
1646248026552551500,6,1646248026552551500,r1000913c5/base_front_laser_link,0,1646248026552551500,v/m1vw10zy74w/map,-2.79432396113,-2.26253485805,0.165,0.0,0.0,0.641975488207,-0.766725161021,0,61.465297699,59.3895225525,83.734954834,1.44847667217
1646248026789703377,7,1646248026789703377,r1000913c5/base_front_laser_link,0,1646248026789703377,v/m1vw10zy74w/map,-2.75776940802,-2.25406727739,0.165,0.0,0.0,0.597985941458,-0.801506590003,0,59.0854873657,59.3515167236,83.3875045776,1.34532999992
1646248027025708645,8,1646248027025708645,r1000913c5/base_front_laser_link,0,1646248027025708645,v/m1vw10zy74w/map,-2.72174712809,-2.24125982385,0.165,0.0,0.0,0.55523786244,-0.83169159916,0,56.1969337463,59.0010070801,83.9208145142,1.63993442059
1646248027182632702,9,1646248027182632702,r1000913c5/base_front_laser_link,0,1646248027182632702,v/m1vw10zy74w/map,-2.70044953154,-2.23171210061,0.165,0.0,0.0,0.525906027317,-0.850542679959,0,55.7254066467,58.6734466553,84.2566070557,1.8610534668
1646248027260665111,10,1646248027260665111,r1000913c5/base_front_laser_link,0,1646248027260665111,v/m1vw10zy74w/map,-2.6898196851,-2.24046079246,0.165,0.0,0.0,0.511506702559,-0.859279287099,0,56.4336547852,58.4698295593,84.1407241821,1.89029884338
1646248027418700506,11,1646248027418700506,r1000913c5/base_front_laser_link,0,1646248027418700506,v/m1vw10zy74w/map,-2.67011583652,-2.22679124758,0.165,0.0,0.0,0.481084269669,-0.876674355435,0,54.8410758972,58.1674346924,84.4213485718,2.08463692665
1646248027575698679,12,1646248027575698679,r1000913c5/base_front_laser_link,0,1646248027575698679,v/m1vw10zy74w/map,-2.64675869519,-2.18494065157,0.165,0.0,0.0,0.452370801228,-0.891829949147,0,53.9893760681,57.8460464478,84.7697143555,2.30788874626
1646248027732774905,13,1646248027732774905,r1000913c5/base_front_laser_link,0,1646248027732774905,v/m1vw10zy74w/map,-2.62825243762,-2.16859806936,0.165,0.0,0.0,0.420696661716,-0.907201366192,0,57.7669181824,57.8403930664,84.4927368164,2.2174487114
1646248027969444382,14,1646248027969444382,r1000913c5/base_front_laser_link,0,1646248027969444382,v/m1vw10zy74w/map,-2.6033773008,-2.1439093514,0.165,0.0,0.0,0.372323411588,-0.928103053105,0,55.940952301,57.7137641907,84.290802002,2.19234657288
1646248028284768788,15,1646248028284768788,r1000913c5/base_front_laser_link,0,1646248028284768788,v/m1vw10zy74w/map,-2.56840675049,-2.11318787803,0.165,0.0,0.0,0.303439295446,-0.952850772146,0,47.8168106079,57.0952033997,86.8660964966,3.2569642067
1646248028440607591,16,1646248028440607591,r1000913c5/base_front_laser_link,0,1646248028440607591,v/m1vw10zy74w/map,-2.55627234107,-2.09358241915,0.165,0.0,0.0,0.26964536437,-0.962959696703,0,47.2008590698,56.5131835938,88.4014892578,3.96276879311
1646248028676558233,17,1646248028676558233,r1000913c5/base_front_laser_link,0,1646248028676558233,v/m1vw10zy74w/map,-2.53768587173,-2.05952338428,0.165,0.0,0.0,0.217050567229,-0.97616036145,0,49.028213501,56.0973510742,88.7871322632,4.22992753983
1646248028913815789,18,1646248028913815789,r1000913c5/base_front_laser_link,0,1646248028913815789,v/m1vw10zy74w/map,-2.52454527228,-2.02421169476,0.165,0.0,0.0,0.165033935082,-0.986287889144,0,48.9659957886,55.7220191956,88.9950790405,4.42435503006
1646248029149916899,19,1646248029149916899,r1000913c5/base_front_laser_link,0,1646248029149916899,v/m1vw10zy74w/map,-2.51440159814,-1.99032213443,0.165,0.0,0.0,0.111274479964,-0.993789711211,0,44.3853797913,55.1551856995,90.1463699341,4.99706172943
1646248029386856615,20,1646248029386856615,r1000913c5/base_front_laser_link,0,1646248029386856615,v/m1vw10zy74w/map,-2.50841189696,-1.94905734027,0.165,0.0,0.0,0.0593596558411,-0.998236660947,0,47.4624557495,54.7888641357,90.2439880371,5.15170860291
1646248029623856386,21,1646248029623856386,r1000913c5/base_front_laser_link,0,1646248029623856386,v/m1vw10zy74w/map,-2.50305122634,-1.91337182641,0.165,0.0,0.0,0.00436822953566,-0.99999045924,0,51.3284721375,54.6315765381,89.8757553101,5.08139467239
1646248029780955620,22,1646248029780955620,r1000913c5/base_front_laser_link,0,1646248029780955620,v/m1vw10zy74w/map,-2.50580356092,-1.88650962074,0.165,0.0,0.0,-0.0307815748844,-0.99952613505,0,45.2729873657,54.2246780396,90.2276153564,5.33431100845
1646248030095882075,23,1646248030095882075,r1000913c5/base_front_laser_link,0,1646248030095882075,v/m1vw10zy74w/map,-2.51564614885,-1.84175952126,0.165,0.0,0.0,-0.101519112138,-0.994833589034,0,49.0687103271,54.0098457336,89.9763259888,5.32215833664
1646248030253869152,24,1646248030253869152,r1000913c5/base_front_laser_link,0,1646248030253869152,v/m1vw10zy74w/map,-2.52235436222,-1.81242936979,0.165,0.0,0.0,-0.136602428511,-0.990625951873,0,48.8784332275,53.8045921326,89.735244751,5.31021690369
1646248030489862655,25,1646248030489862655,r1000913c5/base_front_laser_link,0,1646248030489862655,v/m1vw10zy74w/map,-2.53866987738,-1.77945631491,0.165,0.0,0.0,-0.188850609545,-0.982005828534,0,48.3860816956,53.5961875916,89.5272064209,5.31033992767
1646248030647789166,26,1646248030647789166,r1000913c5/base_front_laser_link,0,1646248030647789166,v/m1vw10zy74w/map,-2.54835349263,-1.75794777231,0.165,0.0,0.0,0.22331872951,0.974745477061,0,47.8005561829,53.3815345764,89.3575286865,5.32533121109
1646248030805952582,27,1646248030805952582,r1000913c5/base_front_laser_link,0,1646248030805952582,v/m1vw10zy74w/map,-2.56343046767,-1.73265367425,0.165,0.0,0.0,0.257431144921,0.966296644734,0,45.8596076965,53.1128921509,89.3599090576,5.41567230225
1646248031042004769,28,1646248031042004769,r1000913c5/base_front_laser_link,0,1646248031042004769,v/m1vw10zy74w/map,-2.58632720042,-1.70246001162,0.165,0.0,0.0,0.308195102179,0.95132317274,0,47.9390525818,52.9344863892,89.1470031738,5.4041724205
1646248031278783349,29,1646248031278783349,r1000913c5/base_front_laser_link,0,1646248031278783349,v/m1vw10zy74w/map,-2.60312578505,-1.68978774967,0.165,0.0,0.0,0.358419784617,0.933560527226,0,48.6588973999,52.7919654846,88.8937149048,5.36724901199
1646248031436008205,30,1646248031436008205,r1000913c5/base_front_laser_link,0,1646248031436008205,v/m1vw10zy74w/map,-2.6180196923,-1.67701313662,0.165,0.0,0.0,0.391584440879,0.920142176874,0,44.1182785034,52.5121688843,89.0187072754,5.50218009949
1646248032145065206,31,1646248032145065206,r1000913c5/base_front_laser_link,0,1646248032145065206,v/m1vw10zy74w/map,-2.6661964824,-1.62087654601,0.165,0.0,0.0,0.471610734994,0.881806846559,0,51.2067146301,52.4713745117,88.7242507935,5.41762495041
1646248032382378072,32,1646248032382378072,r1000913c5/base_front_laser_link,0,1646248032382378072,v/m1vw10zy74w/map,-2.66290732958,-1.57974876985,0.165,0.0,0.0,0.481983013148,0.876180560751,0,51.4195823669,52.4395027161,88.4458389282,5.33544540405
1646248032538940559,33,1646248032538940559,r1000913c5/base_front_laser_link,0,1646248032538940559,v/m1vw10zy74w/map,-2.6619426647,-1.56142620977,0.165,0.0,0.0,0.492504497683,0.870309898692,0,49.8791313171,52.3641967773,88.181098938,5.27230024338
1646248032697550841,34,1646248032697550841,r1000913c5/base_front_laser_link,0,1646248032697550841,v/m1vw10zy74w/map,-2.65987993631,-1.54194387527,0.165,0.0,0.0,0.502952512647,0.864314045947,0,49.3925628662,52.2792930603,87.9345474243,5.21841812134
1646248032934134092,35,1646248032934134092,r1000913c5/base_front_laser_link,0,1646248032934134092,v/m1vw10zy74w/map,-2.65502572754,-1.50853175438,0.165,0.0,0.0,0.518041010156,0.855355780829,0,50.5731468201,52.2318992615,87.6854476929,5.15118360519
1646248033013881610,36,1646248033013881610,r1000913c5/base_front_laser_link,0,1646248033013881610,v/m1vw10zy74w/map,-2.65297588112,-1.4955462243,0.165,0.0,0.0,0.523317098739,0.852138025303,0,49.4981880188,52.1580162048,87.4549560547,5.09897994995
1646248033170281631,37,1646248033170281631,r1000913c5/base_front_laser_link,0,1646248033170281631,v/m1vw10zy74w/map,-2.64809849866,-1.46842757326,0.165,0.0,0.0,0.533003253584,0.846113190814,0,50.1622924805,52.1054954529,87.2255325317,5.04001188278
1646248033249110435,38,1646248033249110435,r1000913c5/base_front_laser_link,0,1646248033249110435,v/m1vw10zy74w/map,-2.64564475254,-1.45395655866,0.165,0.0,0.0,0.538019575046,0.842932344181,0,48.7738380432,52.0200691223,87.025428772,5.00178623199
1646248033328067132,39,1646248033328067132,r1000913c5/base_front_laser_link,0,1646248033328067132,v/m1vw10zy74w/map,-2.64376023665,-1.42786986432,0.165,0.0,0.0,0.5434396877,0.839448215099,0,50.3063697815,51.9772262573,86.8112487793,4.94467401505
1646248033485924634,40,1646248033485924634,r1000913c5/base_front_laser_link,0,1646248033485924634,v/m1vw10zy74w/map,-2.63757512188,-1.3945565693,0.165,0.0,0.0,0.554353657344,0.832281216049,0,50.670501709,51.9453544617,86.6055679321,4.88673782349
1646248033563922554,41,1646248033563922554,r1000913c5/base_front_laser_link,0,1646248033563922554,v/m1vw10zy74w/map,-2.63506007642,-1.37751444484,0.165,0.0,0.0,0.559517013317,0.8288188655,0,48.2949523926,51.8584403992,86.4370346069,4.85952997208
1646248033879912650,42,1646248033879912650,r1000913c5/base_front_laser_link,0,1646248033879912650,v/m1vw10zy74w/map,-2.62414593895,-1.30030187089,0.165,0.0,0.0,0.580266611543,0.814426583265,0,50.0137023926,51.8155403137,86.2442321777,4.80956459045
1646248034196037192,43,1646248034196037192,r1000913c5/base_front_laser_link,0,1646248034196037192,v/m1vw10zy74w/map,-2.61953673,-1.20856605338,0.165,0.0,0.0,0.60609786358,0.795390080252,0,50.2872772217,51.7808074951,86.0574798584,4.75889062881
1646248034432160022,44,1646248034432160022,r1000913c5/base_front_laser_link,0,1646248034432160022,v/m1vw10zy74w/map,-2.62827782622,-1.13262813509,0.165,0.0,0.0,0.63664202484,0.771159472617,0,52.6217346191,51.799495697,85.918006897,4.7061715126
1646248034747948509,45,1646248034747948509,r1000913c5/base_front_laser_link,0,1646248034747948509,v/m1vw10zy74w/map,-2.66688876733,-1.02583075452,0.165,0.0,0.0,0.690651790256,0.723187461601,0,53.2269020081,51.8305244446,85.805557251,4.65834379196
1646248035062864252,46,1646248035062864252,r1000913c5/base_front_laser_link,0,1646248035062864252,v/m1vw10zy74w/map,-2.69684573559,-0.909828944059,0.165,0.0,0.0,0.722417489957,0.691457135479,0,53.6091575623,51.8683662415,85.7125549316,4.61472988129
1646248035298784715,47,1646248035298784715,r1000913c5/base_front_laser_link,0,1646248035298784715,v/m1vw10zy74w/map,-2.71884813089,-0.817390100499,0.165,0.0,0.0,0.736866915599,0.676037830816,0,58.2157669067,52.0006065369,85.9697875977,4.65639305115
1646248035535111299,48,1646248035535111299,r1000913c5/base_front_laser_link,0,1646248035535111299,v/m1vw10zy74w/map,-2.76190468962,-0.722228469494,0.165,0.0,0.0,0.767110128582,0.641515432883,0,60.8857421875,52.1819343567,86.519744873,4.77927017212
1646248035691808074,49,1646248035691808074,r1000913c5/base_front_laser_link,0,1646248035691808074,v/m1vw10zy74w/map,-2.80305873068,-0.659775622008,0.165,0.0,0.0,0.7913442988,0.611370755563,0,58.5577850342,52.3094520569,86.7557220459,4.81542301178
1646248035850117643,50,1646248035850117643,r1000913c5/base_front_laser_link,0,1646248035850117643,v/m1vw10zy74w/map,-2.83931955249,-0.634243366563,0.165,0.0,0.0,0.81535313668,0.578963956137,0,57.743144989,52.4159965515,86.8980941772,4.82736539841
1646248036087178881,51,1646248036087178881,r1000913c5/base_front_laser_link,0,1646248036087178881,v/m1vw10zy74w/map,-2.86974099886,-0.64511094312,0.165,0.0,0.0,0.842735953499,0.538327142805,0,58.8271446228,52.5392875671,87.1246414185,4.86178588867
1646248036245128442,52,1646248036245128442,r1000913c5/base_front_laser_link,0,1646248036245128442,v/m1vw10zy74w/map,-2.89272219023,-0.642756207981,0.165,0.0,0.0,0.860906760025,0.508762764502,0,56.8964195251,52.6214981079,87.1770935059,4.85186624527
1646248037033057201,53,1646248037033057201,r1000913c5/base_front_laser_link,0,1646248037033057201,v/m1vw10zy74w/map,-2.97390135412,-0.755714973082,0.165,0.0,0.0,0.90267524044,0.430322449214,0,58.8188934326,52.7362632751,87.374206543,4.87931346893
1646248037191334730,54,1646248037191334730,r1000913c5/base_front_laser_link,0,1646248037191334730,v/m1vw10zy74w/map,-2.98821632146,-0.752058001387,0.165,0.0,0.0,0.908155599746,0.41863278258,0,60.2541694641,52.8729515076,87.6901702881,4.93907213211
1646248037348244206,55,1646248037348244206,r1000913c5/base_front_laser_link,0,1646248037348244206,v/m1vw10zy74w/map,-3.0070124584,-0.747455409224,0.165,0.0,0.0,0.914959129422,0.403546517129,0,61.3582725525,53.0244750977,88.0952987671,5.02360677719
1646248037506140483,56,1646248037506140483,r1000913c5/base_front_laser_link,0,1646248037506140483,v/m1vw10zy74w/map,-3.01974826711,-0.69006353391,0.165,0.0,0.0,0.926514881426,0.376258122166,0,61.1530723572,53.1670837402,88.4479980469,5.09363937378
1646248037743246466,57,1646248037743246466,r1000913c5/base_front_laser_link,0,1646248037743246466,v/m1vw10zy74w/map,-3.05903886698,-0.684028997431,0.165,0.0,0.0,0.940293094466,0.340365827454,0,56.8844032288,53.231174469,88.4480743408,5.07230091095
1646248037979508445,58,1646248037979508445,r1000913c5/base_front_laser_link,0,1646248037979508445,v/m1vw10zy74w/map,-3.10019119762,-0.677182360698,0.165,0.0,0.0,0.950184907574,0.311686768115,0,63.1011734009,53.3984642029,88.9683685303,5.18996906281
1646248038136843223,59,1646248038136843223,r1000913c5/base_front_laser_link,0,1646248038136843223,v/m1vw10zy74w/map,-3.14195908531,-0.728494298861,0.165,0.0,0.0,0.953977287864,0.299878865942,0,60.5577163696,53.5177841187,89.2022171021,5.22814369202
1646248038294957393,60,1646248038294957393,r1000913c5/base_front_laser_link,0,1646248038294957393,v/m1vw10zy74w/map,-3.17547185967,-0.721268719723,0.165,0.0,0.0,0.959501889516,0.281702190292,0,60.5689315796,53.6333770752,89.4206161499,5.2624130249
1646248038531263261,61,1646248038531263261,r1000913c5/base_front_laser_link,0,1646248038531263261,v/m1vw10zy74w/map,-3.23085153183,-0.711449916455,0.165,0.0,0.0,0.966232842454,0.257670514736,0,61.9471092224,53.7674674988,89.7419586182,5.32483005524
1646248038689403237,62,1646248038689403237,r1000913c5/base_front_laser_link,0,1646248038689403237,v/m1vw10zy74w/map,-3.2701324012,-0.702623822765,0.165,0.0,0.0,0.970455816533,0.241278901184,0,64.0437698364,53.9305839539,90.2448272705,5.43808078766
1646248038925494540,63,1646248038925494540,r1000913c5/base_front_laser_link,0,1646248038925494540,v/m1vw10zy74w/map,-3.33809928467,-0.689366368174,0.165,0.0,0.0,0.977218019349,0.212237938787,0,71.6933898926,54.2081298828,91.7095413208,5.83380460739
1646248039083256048,64,1646248039083256048,r1000913c5/base_front_laser_link,0,1646248039083256048,v/m1vw10zy74w/map,-3.38646141454,-0.68434073759,0.165,0.0,0.0,0.981613536514,0.190879189366,0,71.384147644,54.4723739624,92.9753952026,6.16767454147
1646248039162161546,65,1646248039162161546,r1000913c5/base_front_laser_link,0,1646248039162161546,v/m1vw10zy74w/map,-3.41189614181,-0.682415291063,0.165,0.0,0.0,0.983700232393,0.179816163875,0,73.0957489014,54.7545471191,94.3604049683,6.53528690338
1646248039241442411,66,1646248039241442411,r1000913c5/base_front_laser_link,0,1646248039241442411,v/m1vw10zy74w/map,-3.43786141051,-0.681103455255,0.165,0.0,0.0,0.985717086098,0.168409697389,0,75.9785690308,55.0713233948,96.0254440308,6.98470640182
1646248039319329856,67,1646248039319329856,r1000913c5/base_front_laser_link,0,1646248039319329856,v/m1vw10zy74w/map,-3.45725477804,-0.682208172841,0.165,0.0,0.0,0.987727172048,0.156189095644,0,75.294593811,55.368724823,97.4289016724,7.35339307785
1646248039477399960,68,1646248039477399960,r1000913c5/base_front_laser_link,0,1646248039477399960,v/m1vw10zy74w/map,-3.5117355397,-0.681491701478,0.165,0.0,0.0,0.991003045081,0.133839323968,0,77.459564209,55.6888809204,98.9944076538,7.76850986481
1646248039555248729,69,1646248039555248729,r1000913c5/base_front_laser_link,0,1646248039555248729,v/m1vw10zy74w/map,-3.53944062727,-0.681307094146,0.165,0.0,0.0,0.992339887248,0.123537638704,0,75.630645752,55.9737625122,100.189575195,8.07193756104
1646248040108323707,70,1646248040108323707,r1000913c5/base_front_laser_link,0,1646248040108323707,v/m1vw10zy74w/map,-3.7639691714,-0.691104086373,0.165,0.0,0.0,0.998066292,0.0621584811132,0,72.5306396484,56.2069587708,100.961296082,8.25144577026
1646248040422435734,71,1646248040422435734,r1000913c5/base_front_laser_link,0,1646248040422435734,v/m1vw10zy74w/map,-3.90120200272,-0.696648877227,0.165,0.0,0.0,0.999393255353,0.0348298888087,0,73.484664917,56.4469261169,101.774017334,8.44236278534
1646248040580521334,72,1646248040580521334,r1000913c5/base_front_laser_link,0,1646248040580521334,v/m1vw10zy74w/map,-3.9699178162,-0.702500739891,0.165,0.0,0.0,0.999705986067,0.0242475034179,0,69.7784194946,56.6295509338,102.212043762,8.52749824524
1646248040738342256,73,1646248040738342256,r1000913c5/base_front_laser_link,0,1646248040738342256,v/m1vw10zy74w/map,-4.04555689591,-0.708418757592,0.165,0.0,0.0,0.999935251196,0.0113795173438,0,70.7522659302,56.8203964233,102.700050354,8.62654972076
1646248040895463717,74,1646248040895463717,r1000913c5/base_front_laser_link,0,1646248040895463717,v/m1vw10zy74w/map,-4.08701783773,-0.671655874303,0.165,0.0,0.0,0.999998287702,-0.00185056586457,0,71.5691452026,57.0170478821,103.224082947,8.73567771912
1646248041053249561,75,1646248041053249561,r1000913c5/base_front_laser_link,0,1646248041053249561,v/m1vw10zy74w/map,-4.16798925924,-0.680882269088,0.165,0.0,0.0,0.999905576686,-0.0137418234621,0,68.0379867554,57.1620597839,103.468612671,8.76885128021
1646248041289501558,76,1646248041289501558,r1000913c5/base_front_laser_link,0,1646248041289501558,v/m1vw10zy74w/map,-4.29215785697,-0.699834910527,0.165,0.0,0.0,0.999789198229,-0.0205319045626,0,64.6766357422,57.2596511841,103.518539429,8.7529630661
1646248041526561193,77,1646248041526561193,r1000913c5/base_front_laser_link,0,1646248041526561193,v/m1vw10zy74w/map,-4.45818104627,-0.762649588121,0.165,0.0,0.0,0.999864942073,-0.0164346467562,0,65.0913772583,57.3600578308,103.58316803,8.74103736877
1646248041684011760,78,1646248041684011760,r1000913c5/base_front_laser_link,0,1646248041684011760,v/m1vw10zy74w/map,-4.54849703122,-0.750132449157,0.165,0.0,0.0,0.999914100823,-0.0131069056612,0,70.9531784058,57.5321235657,103.987472534,8.81844997406
1646248041842445023,79,1646248041842445023,r1000913c5/base_front_laser_link,0,1646248041842445023,v/m1vw10zy74w/map,-4.64568385394,-0.748684906739,0.165,0.0,0.0,0.999969911374,-0.00775734140618,0,69.5002593994,57.6817245483,104.273834229,8.86403656006
1646248042079361338,80,1646248042079361338,r1000913c5/base_front_laser_link,0,1646248042079361338,v/m1vw10zy74w/map,-4.79284181446,-0.748004209116,0.165,0.0,0.0,0.999998704892,-0.0016094141209,0,69.833480835,57.8317489624,104.56577301,8.91134357452
1646248042315549203,81,1646248042315549203,r1000913c5/base_front_laser_link,0,1646248042315549203,v/m1vw10zy74w/map,-4.94404801094,-0.754177004661,0.165,0.0,0.0,0.999999960527,0.000280972851178,0,70.766784668,57.989490509,104.901359558,8.97062301636
1646248042472616126,82,1646248042472616126,r1000913c5/base_front_laser_link,0,1646248042472616126,v/m1vw10zy74w/map,-5.02033968426,-0.713955536052,0.165,0.0,0.0,0.999999158075,-0.00129763254004,0,70.9194259644,58.145275116,105.229301453,9.02800941467
1646248042630909252,83,1646248042630909252,r1000913c5/base_front_laser_link,0,1646248042630909252,v/m1vw10zy74w/map,-5.1238682625,-0.722927323191,0.165,0.0,0.0,0.999983808475,-0.00569058760623,0,64.1288070679,58.216506958,105.20803833,8.99717712402
1646248042788874061,84,1646248042788874061,r1000913c5/base_front_laser_link,0,1646248042788874061,v/m1vw10zy74w/map,-5.23597948107,-0.726428250991,0.165,0.0,0.0,0.999966224613,-0.00821885844503,0,64.7417984009,58.2932739258,105.207550049,8.97142410278
1646248043026109744,85,1646248043026109744,r1000913c5/base_front_laser_link,0,1646248043026109744,v/m1vw10zy74w/map,-5.40777334233,-0.728633529295,0.165,0.0,0.0,0.999950774615,-0.00992211399548,0,61.4446144104,58.3299179077,105.104820251,8.92496585846
1646248043183549399,86,1646248043183549399,r1000913c5/base_front_laser_link,0,1646248043183549399,v/m1vw10zy74w/map,-5.52459928376,-0.734628427051,0.165,0.0,0.0,0.999949556,-0.010044175246,0,66.2462005615,58.4209098816,105.161178589,8.91342353821
1646248043418810654,87,1646248043418810654,r1000913c5/base_front_laser_link,0,1646248043418810654,v/m1vw10zy74w/map,-5.70586917177,-0.736601294967,0.165,0.0,0.0,0.999977052744,-0.00677451004765,0,64.8544387817,58.4940185547,105.159660339,8.88854598999
1646248043576786973,88,1646248043576786973,r1000913c5/base_front_laser_link,0,1646248043576786973,v/m1vw10zy74w/map,-5.82774947811,-0.739796824132,0.165,0.0,0.0,0.999995400709,-0.00303291286612,0,67.7682952881,58.5982246399,105.275444031,8.89240646362
1646248043655449922,89,1646248043655449922,r1000913c5/base_front_laser_link,0,1646248043655449922,v/m1vw10zy74w/map,-5.87763333758,-0.73980896791,0.165,0.0,0.0,0.999994213942,-0.00340177631775,0,67.3648223877,58.6956291199,105.367019653,8.89046287537
1646248043892423462,90,1646248043892423462,r1000913c5/base_front_laser_link,0,1646248043892423462,v/m1vw10zy74w/map,-6.04118743834,-0.723753116075,0.165,0.0,0.0,0.999993901929,-0.0034922921135,0,62.2101516724,58.7342529297,105.280067444,8.84860706329
1646248044129633914,91,1646248044129633914,r1000913c5/base_front_laser_link,0,1646248044129633914,v/m1vw10zy74w/map,-6.17930739279,-0.725387815655,0.165,0.0,0.0,0.999989538804,-0.00457408808122,0,65.1143951416,58.8036003113,105.2784729,8.8249578476
1646248044287189741,92,1646248044287189741,r1000913c5/base_front_laser_link,0,1646248044287189741,v/m1vw10zy74w/map,-6.25071204754,-0.72585546011,0.165,0.0,0.0,0.999984055067,-0.00564708870892,0,63.7182121277,58.8564453125,105.231391907,8.79164791107
1646248044444778365,93,1646248044444778365,r1000913c5/base_front_laser_link,0,1646248044444778365,v/m1vw10zy74w/map,-6.32967819657,-0.731182172202,0.165,0.0,0.0,0.999974278377,-0.00717234863947,0,65.5721817017,58.9278907776,105.242828369,8.77164554596
1646248044680642703,94,1646248044680642703,r1000913c5/base_front_laser_link,0,1646248044680642703,v/m1vw10zy74w/map,-6.42263742186,-0.731739079169,0.165,0.0,0.0,0.99996971143,-0.00778307276813,0,64.2718963623,58.9841423035,105.210365295,8.74207401276
1646248044839853059,95,1646248044839853059,r1000913c5/base_front_laser_link,0,1646248044839853059,v/m1vw10zy74w/map,-6.47982039188,-0.732602739005,0.165,0.0,0.0,0.999964467058,-0.00842998345808,0,64.9403305054,59.0461845398,105.197677612,8.71716308594
1646248045075711053,96,1646248045075711053,r1000913c5/base_front_laser_link,0,1646248045075711053,v/m1vw10zy74w/map,-6.55279523703,-0.73348165554,0.165,0.0,0.0,0.999961771038,-0.00874393864739,0,61.4482383728,59.0709495544,105.096160889,8.67507171631
1646248045153774273,97,1646248045153774273,r1000913c5/base_front_laser_link,0,1646248045153774273,v/m1vw10zy74w/map,-6.57418709675,-0.733847704163,0.165,0.0,0.0,0.999961860063,-0.00873375175216,0,61.2811126709,59.0935020447,104.992881775,8.63312625885
1646248050358974847,98,1646248050358974847,r1000913c5/base_front_laser_link,0,1646248050358974847,v/m1vw10zy74w/map,-6.97659626278,-0.73198222207,0.165,0.0,0.0,0.999946683021,-0.0103262343181,0,63.1437988281,59.1344146729,104.930236816,8.59860801697
1646248050516089225,99,1646248050516089225,r1000913c5/base_front_laser_link,0,1646248050516089225,v/m1vw10zy74w/map,-7.01181105692,-0.736411754619,0.165,0.0,0.0,0.999931392949,-0.0117136414487,0,63.5218086243,59.1782875061,104.877227783,8.56631278992
1646248050832053316,100,1646248050832053316,r1000913c5/base_front_laser_link,0,1646248050832053316,v/m1vw10zy74w/map,-7.09001361684,-0.737043900619,0.165,0.0,0.0,0.999952198441,-0.00977756788177,0,64.5379714966,59.2313537598,104.851478577,8.54004192352
1646248050989078533,101,1646248050989078533,r1000913c5/base_front_laser_link,0,1646248050989078533,v/m1vw10zy74w/map,-7.132712671,-0.737010131411,0.165,0.0,0.0,0.999963485506,-0.00854562201535,0,65.6420822144,59.2942047119,104.858207703,8.52133369446
1646248051068111965,102,1646248051068111965,r1000913c5/base_front_laser_link,0,1646248051068111965,v/m1vw10zy74w/map,-7.1549665098,-0.73710267425,0.165,0.0,0.0,0.999968597078,-0.00792495162545,0,63.6872253418,59.336856842,104.808357239,8.49050045013
1646248051226083566,103,1646248051226083566,r1000913c5/base_front_laser_link,0,1646248051226083566,v/m1vw10zy74w/map,-7.20303438077,-0.737694750217,0.165,0.0,0.0,0.999973453807,-0.00728640391349,0,66.4453430176,59.4052047729,104.838867188,8.4778881073
1646248051384070355,104,1646248051384070355,r1000913c5/base_front_laser_link,0,1646248051384070355,v/m1vw10zy74w/map,-7.25318106129,-0.737620846062,0.165,0.0,0.0,0.999981084331,-0.00615068947127,0,65.7070083618,59.4652252197,104.843467712,8.45941448212
1646248051461916858,105,1646248051461916858,r1000913c5/base_front_laser_link,0,1646248051461916858,v/m1vw10zy74w/map,-7.27878551189,-0.737745757885,0.165,0.0,0.0,0.999982735391,-0.00587613141245,0,63.8400764465,59.5064964294,104.795753479,8.42975234985
1646248051699147604,106,1646248051699147604,r1000913c5/base_front_laser_link,0,1646248051699147604,v/m1vw10zy74w/map,-7.36026827769,-0.737395844397,0.165,0.0,0.0,0.99998721244,-0.00505716878728,0,64.1624221802,59.5500106812,104.755889893,8.40196037292
1646248051935112379,107,1646248051935112379,r1000913c5/base_front_laser_link,0,1646248051935112379,v/m1vw10zy74w/map,-7.44872618594,-0.736809455442,0.165,0.0,0.0,0.999995246011,-0.00308349738193,0,64.7969818115,59.5985908508,104.732093811,8.37783336639
1646248052487913895,108,1646248052487913895,r1000913c5/base_front_laser_link,0,1646248052487913895,v/m1vw10zy74w/map,-7.67577634133,-0.738948369131,0.165,0.0,0.0,0.999999623102,0.000868213883588,0,58.9776878357,59.5928955078,104.610404968,8.33916950226
1646248052725124938,109,1646248052725124938,r1000913c5/base_front_laser_link,0,1646248052725124938,v/m1vw10zy74w/map,-7.7793175836,-0.73841418257,0.165,0.0,0.0,0.999998990718,0.00142076156323,0,63.9222602844,59.6322517395,104.565513611,8.31108570099
1646248053039679588,110,1646248053039679588,r1000913c5/base_front_laser_link,0,1646248053039679588,v/m1vw10zy74w/map,-7.9363598703,-0.734506832217,0.165,0.0,0.0,0.999998471811,0.00174824949051,0,63.125328064,59.6637229919,104.503311157,8.27986240387
1646248053118202639,111,1646248053118202639,r1000913c5/base_front_laser_link,0,1646248053118202639,v/m1vw10zy74w/map,-7.97689338744,-0.734048450043,0.165,0.0,0.0,0.999998465947,0.00175160018779,0,66.0716552734,59.7209358215,104.515007019,8.26469135284
1646248053197946543,112,1646248053197946543,r1000913c5/base_front_laser_link,0,1646248053197946543,v/m1vw10zy74w/map,-8.01904916181,-0.73390476515,0.165,0.0,0.0,0.999998478567,0.00174438044335,0,65.2402420044,59.7697792053,104.50201416,8.24407863617
1646248053277138163,113,1646248053277138163,r1000913c5/base_front_laser_link,0,1646248053277138163,v/m1vw10zy74w/map,-8.06539415754,-0.733041736163,0.165,0.0,0.0,0.999997119449,0.00240022776404,0,66.7006835938,59.8305778503,104.530029297,8.2331495285
1646248053355108550,114,1646248053355108550,r1000913c5/base_front_laser_link,0,1646248053355108550,v/m1vw10zy74w/map,-8.10611510174,-0.733927868111,0.165,0.0,0.0,0.999998114798,0.00194175177816,0,65.4468765259,59.8794136047,104.520439148,8.21367359161
1646248053513231873,115,1646248053513231873,r1000913c5/base_front_laser_link,0,1646248053513231873,v/m1vw10zy74w/map,-8.19365578491,-0.733866823464,0.165,0.0,0.0,0.999998798587,0.0015501045666,0,65.1629104614,59.9249610901,104.502716064,8.19258403778
1646248053593297674,116,1646248053593297674,r1000913c5/base_front_laser_link,0,1646248053593297674,v/m1vw10zy74w/map,-8.23976753295,-0.733103025139,0.165,0.0,0.0,0.999999186738,0.00127535206998,0,64.1567230225,59.9611320496,104.460845947,8.16657161713
1646248053750069179,117,1646248053750069179,r1000913c5/base_front_laser_link,0,1646248053750069179,v/m1vw10zy74w/map,-8.33224339268,-0.732732532618,0.165,0.0,0.0,0.999999609381,0.000883876125286,0,63.4381599426,59.9905967712,104.404281616,8.13789367676
1646248053907259799,118,1646248053907259799,r1000913c5/base_front_laser_link,0,1646248053907259799,v/m1vw10zy74w/map,-8.42784614553,-0.73611590263,0.165,0.0,0.0,0.999999886516,-0.000476410694943,0,58.56275177,59.9785995483,104.291786194,8.10439491272
1646248053986310435,119,1646248053986310435,r1000913c5/base_front_laser_link,0,1646248053986310435,v/m1vw10zy74w/map,-8.47640198007,-0.736224947628,0.165,0.0,0.0,0.999999840312,-0.000565134464622,0,58.1553344727,59.9634056091,104.179367065,8.0719871521
1646248054065116856,120,1646248054065116856,r1000913c5/base_front_laser_link,0,1646248054065116856,v/m1vw10zy74w/map,-8.52732040933,-0.735625809081,0.165,0.0,0.0,0.999999941675,-0.000341540678107,0,60.5770568848,59.9684753418,104.083908081,8.03847694397
1646248054223274271,121,1646248054223274271,r1000913c5/base_front_laser_link,0,1646248054223274271,v/m1vw10zy74w/map,-8.62609473457,-0.736328207823,0.165,0.0,0.0,0.999999609741,-0.000883469675541,0,60.2201347351,59.970539093,103.986213684,8.00522422791
1646248054380414595,122,1646248054380414595,r1000913c5/base_front_laser_link,0,1646248054380414595,v/m1vw10zy74w/map,-8.72818501738,-0.736673868641,0.165,0.0,0.0,0.999999994853,-0.000101459961439,0,54.1387367249,59.9231262207,103.89213562,7.98967075348
1646248054459366515,123,1646248054459366515,r1000913c5/base_front_laser_link,0,1646248054459366515,v/m1vw10zy74w/map,-8.78151737554,-0.736308189445,0.165,0.0,0.0,0.999999923886,0.000390164481889,0,54.8487854004,59.8822021484,103.792694092,7.97016382217
1646248054617203478,124,1646248054617203478,r1000913c5/base_front_laser_link,0,1646248054617203478,v/m1vw10zy74w/map,-8.88328590971,-0.738104427468,0.165,0.0,0.0,0.999999467017,0.00103245571556,0,56.6633605957,59.8564529419,103.685997009,7.94318008423
1646248054775229309,125,1646248054775229309,r1000913c5/base_front_laser_link,0,1646248054775229309,v/m1vw10zy74w/map,-8.99048829957,-0.731780256434,0.165,0.0,0.0,0.99999835539,0.00181361997544,0,59.7457733154,59.8555755615,103.589622498,7.91134977341
1646248054853218399,126,1646248054853218399,r1000913c5/base_front_laser_link,0,1646248054853218399,v/m1vw10zy74w/map,-9.04676953312,-0.732228493508,0.165,0.0,0.0,0.999999641753,0.000846459443814,0,57.606010437,59.8378601074,103.485122681,7.88242101669
1646248054932833341,127,1646248054932833341,r1000913c5/base_front_laser_link,0,1646248054932833341,v/m1vw10zy74w/map,-9.10468297446,-0.732751134809,0.165,0.0,0.0,0.999999862253,-0.000524874407933,0,60.2937583923,59.8414230347,103.395713806,7.85142993927
1646248055011361372,128,1646248055011361372,r1000913c5/base_front_laser_link,0,1646248055011361372,v/m1vw10zy74w/map,-9.16528047519,-0.723724856352,0.165,0.0,0.0,0.999999999853,1.71340948034e-05,0,60.6878738403,59.847984314,103.311149597,7.82105493546
1646248055327302867,129,1646248055327302867,r1000913c5/base_front_laser_link,0,1646248055327302867,v/m1vw10zy74w/map,-9.39718600415,-0.728104502217,0.165,0.0,0.0,0.999980797056,-0.00619721869243,0,59.8060913086,59.8476638794,103.219711304,7.79068279266
1646248055406511686,130,1646248055406511686,r1000913c5/base_front_laser_link,0,1646248055406511686,v/m1vw10zy74w/map,-9.45029003379,-0.72557241796,0.165,0.0,0.0,0.999966079787,-0.00823646014907,0,59.1793060303,59.8425598145,103.125205994,7.76088047028
1646248055484382270,131,1646248055484382270,r1000913c5/base_front_laser_link,0,1646248055484382270,v/m1vw10zy74w/map,-9.50153193883,-0.727605259418,0.165,0.0,0.0,0.999952624831,-0.00973386329098,0,58.11926651,59.8295059204,103.02747345,7.73265695572
1646248055563330905,132,1646248055563330905,r1000913c5/base_front_laser_link,0,1646248055563330905,v/m1vw10zy74w/map,-9.55467578549,-0.726394198676,0.165,0.0,0.0,0.999962938947,-0.00860933980845,0,56.2216148376,59.8023796082,102.931358337,7.70966100693
1646248055800538854,133,1646248055800538854,r1000913c5/base_front_laser_link,0,1646248055800538854,v/m1vw10zy74w/map,-9.66803129223,-0.730440286573,0.165,0.0,0.0,0.999983621526,-0.00572334508003,0,60.8617744446,59.8102836609,102.853790283,7.68116760254
1646248056036386860,134,1646248056036386860,r1000913c5/base_front_laser_link,0,1646248056036386860,v/m1vw10zy74w/map,-9.76547490657,-0.734096950982,0.165,0.0,0.0,0.999968534708,-0.00793281750345,0,59.5110015869,59.8080673218,102.765556335,7.65249633789
1646248056194441980,135,1646248056194441980,r1000913c5/base_front_laser_link,0,1646248056194441980,v/m1vw10zy74w/map,-9.82699851658,-0.736183049577,0.165,0.0,0.0,0.999960828167,-0.00885110900677,0,61.4507102966,59.8201446533,102.696350098,7.62540197372
1646248056430296905,136,1646248056430296905,r1000913c5/base_front_laser_link,0,1646248056430296905,v/m1vw10zy74w/map,-9.91785144661,-0.735301654787,0.165,0.0,0.0,0.999894485097,-0.0145264817765,0,63.2029037476,59.8448371887,102.653266907,7.60281085968
1646248056588497333,137,1646248056588497333,r1000913c5/base_front_laser_link,0,1646248056588497333,v/m1vw10zy74w/map,-9.97227212999,-0.736085952672,0.165,0.0,0.0,0.999893583652,-0.0145883985127,0,63.2026786804,59.8691711426,102.61038208,7.58040380478
1646248056747398441,138,1646248056747398441,r1000913c5/base_front_laser_link,0,1646248056747398441,v/m1vw10zy74w/map,-10.0265047058,-0.738456047715,0.165,0.0,0.0,0.999905679852,-0.0137343146491,0,61.9578018188,59.8841972351,102.549095154,7.5549659729
1646248056903429252,139,1646248056903429252,r1000913c5/base_front_laser_link,0,1646248056903429252,v/m1vw10zy74w/map,-10.0910493135,-0.738902186533,0.165,0.0,0.0,0.999937402813,-0.0111888541173,0,57.989200592,59.8706588745,102.458992004,7.52944421768
1646248057061427951,140,1646248057061427951,r1000913c5/base_front_laser_link,0,1646248057061427951,v/m1vw10zy74w/map,-10.1394094035,-0.736463499419,0.165,0.0,0.0,0.999980989162,-0.00616614252748,0,57.8555831909,59.8563690186,102.369644165,7.50442409515
1646248057219515818,141,1646248057219515818,r1000913c5/base_front_laser_link,0,1646248057219515818,v/m1vw10zy74w/map,-10.1849902599,-0.733486713375,0.165,0.0,0.0,0.999999276787,-0.00120267422331,0,60.0113830566,59.857460022,102.290786743,7.4777765274
1646248057376489427,142,1646248057376489427,r1000913c5/base_front_laser_link,0,1646248057376489427,v/m1vw10zy74w/map,-10.2160954785,-0.730757949338,0.165,0.0,0.0,0.999972091288,0.00747105376756,0,63.3322219849,59.8817596436,102.252952576,7.45706319809
1646248057534469643,143,1646248057534469643,r1000913c5/base_front_laser_link,0,1646248057534469643,v/m1vw10zy74w/map,-10.2594188833,-0.730248834387,0.165,0.0,0.0,0.999974640095,0.00712173907885,0,63.7314300537,59.908493042,102.222091675,7.4378657341
1646248057613273202,144,1646248057613273202,r1000913c5/base_front_laser_link,0,1646248057613273202,v/m1vw10zy74w/map,-10.2803711132,-0.730402065145,0.165,0.0,0.0,0.999979095732,0.00646591831813,0,61.4281730652,59.9189720154,102.158180237,7.41306877136
1646248057929459796,145,1646248057929459796,r1000913c5/base_front_laser_link,0,1646248057929459796,v/m1vw10zy74w/map,-10.3608661373,-0.731192177787,0.165,0.0,0.0,0.999999989456,-0.000145219488702,0,59.5615081787,59.9165267944,102.079093933,7.38752174377
1646248058324591503,146,1646248058324591503,r1000913c5/base_front_laser_link,0,1646248058324591503,v/m1vw10zy74w/map,-10.4617774577,-0.742574851997,0.165,0.0,0.0,0.999905786822,-0.0137265246483,0,58.9552688599,59.9099845886,101.997802734,7.36260557175
1646248058481485241,147,1646248058481485241,r1000913c5/base_front_laser_link,0,1646248058481485241,v/m1vw10zy74w/map,-10.475102743,-0.747772905163,0.165,0.0,0.0,0.999785783117,-0.0206975331404,0,63.1717147827,59.9320259094,101.959274292,7.34241628647
1646248058639491445,148,1646248058639491445,r1000913c5/base_front_laser_link,0,1646248058639491445,v/m1vw10zy74w/map,-10.4768128546,-0.755693914298,0.165,0.0,0.0,0.99954149498,-0.0302787022911,0,63.5002975464,59.9559745789,101.926193237,7.32340574265
1646248058796529637,149,1646248058796529637,r1000913c5/base_front_laser_link,0,1646248058796529637,v/m1vw10zy74w/map,-10.4719867784,-0.770301817341,0.165,0.0,0.0,0.998662895477,-0.0516954659344,0,67.7319717407,60.0078125,101.986869812,7.32635164261
1646248059034406500,150,1646248059034406500,r1000913c5/base_front_laser_link,0,1646248059034406500,v/m1vw10zy74w/map,-10.4682295601,-0.805745027403,0.165,0.0,0.0,0.99449640337,-0.104770719589,0,63.4233360291,60.0304336548,101.951965332,7.30717802048
1646248059190608494,151,1646248059190608494,r1000913c5/base_front_laser_link,0,1646248059190608494,v/m1vw10zy74w/map,-10.4623713001,-0.830487796081,0.165,0.0,0.0,0.989803717204,-0.142438061662,0,58.2805023193,60.0189208984,101.871894836,7.284324646
1646248059348504563,152,1646248059348504563,r1000913c5/base_front_laser_link,0,1646248059348504563,v/m1vw10zy74w/map,-10.4504956541,-0.855514738041,0.165,0.0,0.0,0.983946641171,-0.178462901824,0,55.3266029358,59.9882507324,101.798934937,7.27022743225
1646248059505426390,153,1646248059505426390,r1000913c5/base_front_laser_link,0,1646248059505426390,v/m1vw10zy74w/map,-10.4413001428,-0.877116645855,0.165,0.0,0.0,0.977005176723,-0.213215582583,0,55.8671455383,59.9614906311,101.723594666,7.25403499603
1646248059663432562,154,1646248059663432562,r1000913c5/base_front_laser_link,0,1646248059663432562,v/m1vw10zy74w/map,-10.4273676848,-0.898812631629,0.165,0.0,0.0,0.969273568319,-0.245985263295,0,59.5954818726,59.9591293335,101.650642395,7.23050451279
1646248059821170790,155,1646248059821170790,r1000913c5/base_front_laser_link,0,1646248059821170790,v/m1vw10zy74w/map,-10.4165819466,-0.91689715687,0.165,0.0,0.0,0.960050793393,-0.279825792425,0,60.6626777649,59.9636383057,101.585723877,7.20736265182
1646248060057410556,156,1646248060057410556,r1000913c5/base_front_laser_link,0,1646248060057410556,v/m1vw10zy74w/map,-10.3991167975,-0.947077662347,0.165,0.0,0.0,0.944298769066,-0.329089402351,0,55.2751960754,59.9337768555,101.515663147,7.19396257401
1646248060213923308,157,1646248060213923308,r1000913c5/base_front_laser_link,0,1646248060213923308,v/m1vw10zy74w/map,-10.3826783684,-0.964403239561,0.165,0.0,0.0,0.932608045849,-0.36089088769,0,61.811504364,59.9456596375,101.463371277,7.17257118225
1646248060528573850,158,1646248060528573850,r1000913c5/base_front_laser_link,0,1646248060528573850,v/m1vw10zy74w/map,-10.3475888604,-0.996012585605,0.165,0.0,0.0,0.905896222414,-0.423499745237,0,60.8742523193,59.951499939,101.402153015,7.1502161026
1646248060685706519,159,1646248060685706519,r1000913c5/base_front_laser_link,0,1646248060685706519,v/m1vw10zy74w/map,-10.3341335285,-1.01197722859,0.165,0.0,0.0,0.890632950256,-0.454722935334,0,62.5941925049,59.9680175781,101.360290527,7.13075685501
1646248060842769368,160,1646248060842769368,r1000913c5/base_front_laser_link,0,1646248060842769368,v/m1vw10zy74w/map,-10.3144489949,-1.02505598885,0.165,0.0,0.0,0.87403326405,-0.485866085804,0,59.8325538635,59.96717453,101.292518616,7.10844659805
1646248061000591304,161,1646248061000591304,r1000913c5/base_front_laser_link,0,1646248061000591304,v/m1vw10zy74w/map,-10.2933864161,-1.03625152224,0.165,0.0,0.0,0.856404596557,-0.516305304055,0,63.2004928589,59.9871368408,101.259796143,7.09088802338
1646248061235622714,162,1646248061235622714,r1000913c5/base_front_laser_link,0,1646248061235622714,v/m1vw10zy74w/map,-10.2551834509,-1.04117612658,0.165,0.0,0.0,0.828946436288,-0.559327994798,0,62.5189476013,60.0026664734,101.217918396,7.07174968719
1646248061393805158,163,1646248061393805158,r1000913c5/base_front_laser_link,0,1646248061393805158,v/m1vw10zy74w/map,-10.2338285566,-1.04888783662,0.165,0.0,0.0,0.809504862296,-0.587113173008,0,59.4770812988,59.9994621277,101.149894714,7.05014324188
1646248061550591065,164,1646248061550591065,r1000913c5/base_front_laser_link,0,1646248061550591065,v/m1vw10zy74w/map,-10.2132486186,-1.05349763646,0.165,0.0,0.0,0.792951066027,-0.609285324693,0,56.6949043274,59.979434967,101.079406738,7.03332281113
1646248061707571903,165,1646248061707571903,r1000913c5/base_front_laser_link,0,1646248061707571903,v/m1vw10zy74w/map,-10.1927198689,-1.059440373,0.165,0.0,0.0,0.77521611129,-0.631696114279,0,61.3562431335,59.9877281189,101.026100159,7.01279163361
1646248061943796512,166,1646248061943796512,r1000913c5/base_front_laser_link,0,1646248061943796512,v/m1vw10zy74w/map,-10.1668755211,-1.06382293755,0.165,0.0,0.0,0.750126029575,-0.66129489621,0,65.5620574951,60.02110672,101.035896301,7.00493049622
1646248064386798340,167,1646248064386798340,r1000913c5/base_front_laser_link,0,1646248064386798340,v/m1vw10zy74w/map,-10.1191098881,-1.06714351765,0.165,0.0,0.0,0.711110530886,-0.703080232166,0,66.2386016846,60.0581169128,101.059257507,7.00038051605
1646248064622825393,168,1646248064622825393,r1000913c5/base_front_laser_link,0,1646248064622825393,v/m1vw10zy74w/map,-10.1191796305,-1.06840710589,0.165,0.0,0.0,0.711172191126,-0.703017862198,0,66.8367462158,60.0982284546,101.095123291,6.9989657402
1646248064701629950,169,1646248064701629950,r1000913c5/base_front_laser_link,0,1646248064701629950,v/m1vw10zy74w/map,-10.1199479898,-1.07271205621,0.165,0.0,0.0,0.71193937219,-0.70224093467,0,65.1948394775,60.1282081604,101.095710754,6.98916721344
1646248064780960198,170,1646248064780960198,r1000913c5/base_front_laser_link,0,1646248064780960198,v/m1vw10zy74w/map,-10.1235148948,-1.07821543063,0.165,0.0,0.0,0.715586606909,-0.69852402107,0,63.1168670654,60.1456871033,101.062667847,6.9723277092
1646248064939914463,171,1646248064939914463,r1000913c5/base_front_laser_link,0,1646248064939914463,v/m1vw10zy74w/map,-10.1331835515,-1.10199375443,0.165,0.0,0.0,0.724824562998,-0.688933489442,0,65.139755249,60.1747207642,101.061714172,6.96233177185
1646248065175354307,172,1646248065175354307,r1000913c5/base_front_laser_link,0,1646248065175354307,v/m1vw10zy74w/map,-10.1452306465,-1.16618993327,0.165,0.0,0.0,0.733252782384,-0.679956143531,0,67.8001785278,60.2187995911,101.117485046,6.96622943878
1646248065490778047,173,1646248065490778047,r1000913c5/base_front_laser_link,0,1646248065490778047,v/m1vw10zy74w/map,-10.1605498484,-1.25786731703,0.165,0.0,0.0,0.740715582277,-0.671818745029,0,65.938369751,60.2516708374,101.130432129,6.95958709717
1646248065648784006,174,1646248065648784006,r1000913c5/base_front_laser_link,0,1646248065648784006,v/m1vw10zy74w/map,-10.1665397254,-1.30235240485,0.165,0.0,0.0,0.742234722796,-0.670139997519,0,61.209941864,60.257144928,101.076957703,6.93993759155
1646248065884855230,175,1646248065884855230,r1000913c5/base_front_laser_link,0,1646248065884855230,v/m1vw10zy74w/map,-10.1556041262,-1.39284410071,0.165,0.0,0.0,0.729995672496,-0.683451767235,0,60.4926528931,60.2584838867,101.018791199,6.92010354996
1646248066121684570,176,1646248066121684570,r1000913c5/base_front_laser_link,0,1646248066121684570,v/m1vw10zy74w/map,-10.1521942581,-1.46055843579,0.165,0.0,0.0,0.722648771467,-0.691215417288,0,62.682510376,60.2721786499,100.980644226,6.902821064
1646248066199857558,177,1646248066199857558,r1000913c5/base_front_laser_link,0,1646248066199857558,v/m1vw10zy74w/map,-10.1524578053,-1.489090675,0.165,0.0,0.0,0.719376777083,-0.69462007788,0,59.0251159668,60.265171051,100.91696167,6.88392877579
1646248066435981336,178,1646248066435981336,r1000913c5/base_front_laser_link,0,1646248066435981336,v/m1vw10zy74w/map,-10.148982108,-1.55533592104,0.165,0.0,0.0,0.714412191173,-0.699725103954,0,57.3247909546,60.2487449646,100.852989197,6.86808156967
1646248066593881350,179,1646248066593881350,r1000913c5/base_front_laser_link,0,1646248066593881350,v/m1vw10zy74w/map,-10.1468665663,-1.60048174173,0.165,0.0,0.0,0.711398915934,-0.702788433604,0,56.5435180664,60.2281608582,100.791465759,6.85443592072
1646248066751002775,180,1646248066751002775,r1000913c5/base_front_laser_link,0,1646248066751002775,v/m1vw10zy74w/map,-10.145487076,-1.64836198519,0.165,0.0,0.0,0.709010769618,-0.705197652127,0,58.30286026,60.2175254822,100.728126526,6.83686733246
1646248066909011168,181,1646248066909011168,r1000913c5/base_front_laser_link,0,1646248066909011168,v/m1vw10zy74w/map,-10.14564387,-1.69335682358,0.165,0.0,0.0,0.708925400961,-0.705283471997,0,60.9923324585,60.2217826843,100.676368713,6.81819677353
1646248067144010132,182,1646248067144010132,r1000913c5/base_front_laser_link,0,1646248067144010132,v/m1vw10zy74w/map,-10.1452862212,-1.76430859278,0.165,0.0,0.0,0.706251914674,-0.707960615443,0,58.4779663086,60.2122535706,100.614234924,6.80066156387
1646248072810194880,183,1646248072810194880,r1000913c5/base_front_laser_link,0,1646248072810194880,v/m1vw10zy74w/map,-10.1167682416,-2.60610681527,0.165,0.0,0.0,0.699622895627,-0.71451228395,0,65.1380386353,60.2390213013,100.614334106,6.79176950455
1646248072889143450,184,1646248072889143450,r1000913c5/base_front_laser_link,0,1646248072889143450,v/m1vw10zy74w/map,-10.1164196043,-2.61839177724,0.165,0.0,0.0,0.699345781116,-0.714783518581,0,63.6757049561,60.257598877,100.591598511,6.77799987793
1646248076427375176,185,1646248076427375176,r1000913c5/base_front_laser_link,0,1646248076427375176,v/m1vw10zy74w/map,-10.1186524423,-2.77986709475,0.165,0.0,0.0,0.703714966869,-0.710482403304,0,65.0532989502,60.2833824158,100.589767456,6.7687959671
1646248076584275451,186,1646248076584275451,r1000913c5/base_front_laser_link,0,1646248076584275451,v/m1vw10zy74w/map,-10.1186512703,-2.77979580584,0.165,0.0,0.0,0.703712998006,-0.710484353407,0,65.3095550537,60.3102607727,100.59198761,6.76057434082
1646248076742442166,187,1646248076742442166,r1000913c5/base_front_laser_link,0,1646248076742442166,v/m1vw10zy74w/map,-10.1186944886,-2.77634401129,0.165,0.0,0.0,0.703724060417,-0.710473396258,0,65.3117218018,60.3368644714,100.593864441,6.75233364105
1646248076899387030,188,1646248076899387030,r1000913c5/base_front_laser_link,0,1646248076899387030,v/m1vw10zy74w/map,-10.1183204012,-2.76174996178,0.165,0.0,0.0,0.703168587854,-0.711023162109,0,64.7197265625,60.3600540161,100.585731506,6.74189329147
1646248077056306524,189,1646248077056306524,r1000913c5/base_front_laser_link,0,1646248077056306524,v/m1vw10zy74w/map,-10.1200623063,-2.73543878091,0.165,0.0,0.0,0.704744808647,-0.709460890173,0,68.9341812134,60.4051818848,100.663414001,6.75274419785
1646248077135499329,190,1646248077135499329,r1000913c5/base_front_laser_link,0,1646248077135499329,v/m1vw10zy74w/map,-10.1213319792,-2.72032047233,0.165,0.0,0.0,0.705999309979,-0.708212520582,0,69.0526351929,60.4504547119,100.7423172,6.76395368576
1646248077371394143,191,1646248077371394143,r1000913c5/base_front_laser_link,0,1646248077371394143,v/m1vw10zy74w/map,-10.1268363792,-2.66020042871,0.165,0.0,0.0,0.712038880942,-0.702140037334,0,71.7544631958,60.5093307495,100.895439148,6.79537057877
1646248077608758586,192,1646248077608758586,r1000913c5/base_front_laser_link,0,1646248077608758586,v/m1vw10zy74w/map,-10.1263931007,-2.58808369044,0.165,0.0,0.0,0.712785115996,-0.701382476553,0,72.3626937866,60.5707473755,101.064186096,6.83114528656
1646248077765563077,193,1646248077765563077,r1000913c5/base_front_laser_link,0,1646248077765563077,v/m1vw10zy74w/map,-10.1240205116,-2.54073741667,0.165,0.0,0.0,0.710967884634,-0.703224478399,0,68.2051467896,60.6100997925,101.116409302,6.83543682098
1646248077845324107,194,1646248077845324107,r1000913c5/base_front_laser_link,0,1646248077845324107,v/m1vw10zy74w/map,-10.1231347355,-2.51739028762,0.165,0.0,0.0,0.710286440609,-0.703912759002,0,68.0994110107,60.6485061646,101.165084839,6.83885908127
1646248077923886159,195,1646248077923886159,r1000913c5/base_front_laser_link,0,1646248077923886159,v/m1vw10zy74w/map,-10.1225068699,-2.49502069298,0.165,0.0,0.0,0.709820223625,-0.704382886031,0,68.4129638672,60.6881217957,101.219551086,6.84380960464
1646248078161270702,196,1646248078161270702,r1000913c5/base_front_laser_link,0,1646248078161270702,v/m1vw10zy74w/map,-10.1179666084,-2.43105038557,0.165,0.0,0.0,0.708456067528,-0.705754915239,0,66.2470092773,60.7163391113,101.229766846,6.83780813217
1646248078240393300,197,1646248078240393300,r1000913c5/base_front_laser_link,0,1646248078240393300,v/m1vw10zy74w/map,-10.1180640889,-2.40807985565,0.165,0.0,0.0,0.70865397689,-0.705556192686,0,69.9305114746,60.7628746033,101.318252563,6.85179376602
1646248078317823321,198,1646248078317823321,r1000913c5/base_front_laser_link,0,1646248078317823321,v/m1vw10zy74w/map,-10.1181154472,-2.38610949974,0.165,0.0,0.0,0.708815362877,-0.705394061039,0,68.4091262817,60.8013000488,101.369087219,6.85592937469
1646248078475464525,199,1646248078475464525,r1000913c5/base_front_laser_link,0,1646248078475464525,v/m1vw10zy74w/map,-10.1263103642,-2.35288945881,0.165,0.0,0.0,0.709768231114,-0.70443527602,0,67.7335357666,60.8359603882,101.404640198,6.85622692108
1646248078633594396,200,1646248078633594396,r1000913c5/base_front_laser_link,0,1646248078633594396,v/m1vw10zy74w/map,-10.1258144533,-2.30778151285,0.165,0.0,0.0,0.709593380824,-0.704611406302,0,67.837600708,60.8707923889,101.441413879,6.85687255859
1646248078712452409,201,1646248078712452409,r1000913c5/base_front_laser_link,0,1646248078712452409,v/m1vw10zy74w/map,-10.1256391497,-2.28511424347,0.165,0.0,0.0,0.709576461437,-0.704628444909,0,67.3301467896,60.9027709961,101.467399597,6.85487699509
1646248078791468529,202,1646248078791468529,r1000913c5/base_front_laser_link,0,1646248078791468529,v/m1vw10zy74w/map,-10.1256203904,-2.26236167853,0.165,0.0,0.0,0.70979419739,-0.704409112201,0,66.9923553467,60.9327697754,101.486465454,6.85123300552
1646248078869461573,203,1646248078869461573,r1000913c5/base_front_laser_link,0,1646248078869461573,v/m1vw10zy74w/map,-10.1248904698,-2.23580374083,0.165,0.0,0.0,0.710099331374,-0.704101512271,0,65.6105651855,60.9556999207,101.48223877,6.84218025208
1646248079027490051,204,1646248079027490051,r1000913c5/base_front_laser_link,0,1646248079027490051,v/m1vw10zy74w/map,-10.1245874554,-2.1908811317,0.165,0.0,0.0,0.710186217339,-0.704013875361,0,63.5895462036,60.968547821,101.452148438,6.82786798477
1646248079185567540,205,1646248079185567540,r1000913c5/base_front_laser_link,0,1646248079185567540,v/m1vw10zy74w/map,-10.1242609459,-2.14547836931,0.165,0.0,0.0,0.710265004479,-0.703934388571,0,64.932762146,60.9877891541,101.438163757,6.81679201126
1646248079263510771,206,1646248079263510771,r1000913c5/base_front_laser_link,0,1646248079263510771,v/m1vw10zy74w/map,-10.1255742929,-2.12422066975,0.165,0.0,0.0,0.711102400074,-0.70308845575,0,63.2030639648,60.9984931946,101.404403687,6.80196905136
1646248079421381680,207,1646248079421381680,r1000913c5/base_front_laser_link,0,1646248079421381680,v/m1vw10zy74w/map,-10.1255625651,-2.0837755072,0.165,0.0,0.0,0.710928516649,-0.703264277647,0,62.2694587708,61.0046043396,101.362876892,6.7860918045
1646248079500528545,208,1646248079500528545,r1000913c5/base_front_laser_link,0,1646248079500528545,v/m1vw10zy74w/map,-10.125317263,-2.06119506399,0.165,0.0,0.0,0.710928539211,-0.70326425484,0,63.2176246643,61.0151901245,101.329658508,6.77148962021
1646248079580412947,209,1646248079580412947,r1000913c5/base_front_laser_link,0,1646248079580412947,v/m1vw10zy74w/map,-10.1251148846,-2.03904196036,0.165,0.0,0.0,0.710968816774,-0.703223535993,0,62.0165061951,61.0199584961,101.286834717,6.75562381744
1646248079658464567,210,1646248079658464567,r1000913c5/base_front_laser_link,0,1646248079658464567,v/m1vw10zy74w/map,-10.1244817453,-2.01487857035,0.165,0.0,0.0,0.71110977141,-0.703081000316,0,62.3639259338,61.0263290405,101.246795654,6.74015522003
1646248079736239142,211,1646248079736239142,r1000913c5/base_front_laser_link,0,1646248079736239142,v/m1vw10zy74w/map,-10.1253687267,-1.98722017134,0.165,0.0,0.0,0.71071272937,-0.70348234968,0,56.3504219055,61.0042724609,101.199760437,6.73182868958
1646248079816252236,212,1646248079816252236,r1000913c5/base_front_laser_link,0,1646248079816252236,v/m1vw10zy74w/map,-10.1251335196,-1.96427030966,0.165,0.0,0.0,0.710712277845,-0.703482805845,0,56.200920105,60.9817237854,101.153701782,6.72399234772
1646248080132331586,213,1646248080132331586,r1000913c5/base_front_laser_link,0,1646248080132331586,v/m1vw10zy74w/map,-10.1235712344,-1.8812193606,0.165,0.0,0.0,0.711901401587,-0.702279427592,0,57.4157028198,60.965057373,101.102912903,6.71261739731
1646248080367493959,214,1646248080367493959,r1000913c5/base_front_laser_link,0,1646248080367493959,v/m1vw10zy74w/map,-10.1228142787,-1.81480385186,0.165,0.0,0.0,0.712442986627,-0.701729998508,0,58.353931427,60.9529151917,101.050758362,6.69928264618
1646248080525484295,215,1646248080525484295,r1000913c5/base_front_laser_link,0,1646248080525484295,v/m1vw10zy74w/map,-10.1215144492,-1.76924797405,0.165,0.0,0.0,0.71234683806,-0.701827601556,0,57.806022644,60.9383430481,100.999687195,6.6871137619
1646248080682409130,216,1646248080682409130,r1000913c5/base_front_laser_link,0,1646248080682409130,v/m1vw10zy74w/map,-10.1188680425,-1.72292043047,0.165,0.0,0.0,0.712184478758,-0.701992356237,0,59.1707954407,60.9301986694,100.948287964,6.67269515991
1646248080762327092,217,1646248080762327092,r1000913c5/base_front_laser_link,0,1646248080762327092,v/m1vw10zy74w/map,-10.1185192386,-1.70009029088,0.165,0.0,0.0,0.712162822303,-0.702014326442,0,57.9250068665,60.9164123535,100.897651672,6.66041326523
1646248080998651437,218,1646248080998651437,r1000913c5/base_front_laser_link,0,1646248080998651437,v/m1vw10zy74w/map,-10.1195278244,-1.6407950065,0.165,0.0,0.0,0.711421342303,-0.702765731746,0,56.966178894,60.8983764648,100.849815369,6.65047883987
1646248081234715403,219,1646248081234715403,r1000913c5/base_front_laser_link,0,1646248081234715403,v/m1vw10zy74w/map,-10.1196437338,-1.57469514378,0.165,0.0,0.0,0.711777297156,-0.702405210155,0,59.2522468567,60.8908958435,100.799507141,6.63620567322
1646248081313779016,220,1646248081313779016,r1000913c5/base_front_laser_link,0,1646248081313779016,v/m1vw10zy74w/map,-10.1193352565,-1.55219129644,0.165,0.0,0.0,0.711766125826,-0.702416530363,0,58.1901550293,60.8786735535,100.749465942,6.62359809875
1646248081392579277,221,1646248081392579277,r1000913c5/base_front_laser_link,0,1646248081392579277,v/m1vw10zy74w/map,-10.117481871,-1.52888235569,0.165,0.0,0.0,0.711970046451,-0.702209835417,0,61.631477356,60.8820648193,100.708427429,6.6087884903
1646248081471531463,222,1646248081471531463,r1000913c5/base_front_laser_link,0,1646248081471531463,v/m1vw10zy74w/map,-10.1130380134,-1.50124410091,0.165,0.0,0.0,0.711857059694,-0.702324374177,0,61.0927886963,60.8830108643,100.664718628,6.59390211105
1646248081628481127,223,1646248081628481127,r1000913c5/base_front_laser_link,0,1646248081628481127,v/m1vw10zy74w/map,-10.1124326756,-1.45671383905,0.165,0.0,0.0,0.711851612413,-0.702329895352,0,65.385093689,60.9031066895,100.66103363,6.58597421646
1646248081787538677,224,1646248081787538677,r1000913c5/base_front_laser_link,0,1646248081787538677,v/m1vw10zy74w/map,-10.1118374725,-1.41110533612,0.165,0.0,0.0,0.711873871031,-0.702307334252,0,63.5817298889,60.9150123596,100.636062622,6.57368278503
1646248082024777610,225,1646248082024777610,r1000913c5/base_front_laser_link,0,1646248082024777610,v/m1vw10zy74w/map,-10.1124443222,-1.35179567851,0.165,0.0,0.0,0.713146684383,-0.701014840466,0,59.836807251,60.910243988,100.588592529,6.55945062637
1646248082181719756,226,1646248082181719756,r1000913c5/base_front_laser_link,0,1646248082181719756,v/m1vw10zy74w/map,-10.1116551392,-1.30710039284,0.165,0.0,0.0,0.713122264986,-0.701039681602,0,62.8003501892,60.9185676575,100.556945801,6.54612493515
1646248082260635099,227,1646248082260635099,r1000913c5/base_front_laser_link,0,1646248082260635099,v/m1vw10zy74w/map,-10.110247838,-1.28019533157,0.165,0.0,0.0,0.712647461394,-0.701522341604,0,61.1494827271,60.9195823669,100.514701843,6.53170776367
1646248082497579793,228,1646248082497579793,r1000913c5/base_front_laser_link,0,1646248082497579793,v/m1vw10zy74w/map,-10.1066878864,-1.20841733506,0.165,0.0,0.0,0.71309131508,-0.701071163547,0,62.2989349365,60.9256057739,100.479621887,6.51800584793
1646248082655580467,229,1646248082655580467,r1000913c5/base_front_laser_link,0,1646248082655580467,v/m1vw10zy74w/map,-10.1057341114,-1.16293379652,0.165,0.0,0.0,0.712886672557,-0.701279253999,0,61.7846565247,60.9293403625,100.441352844,6.50400543213
1646248082891794889,230,1646248082891794889,r1000913c5/base_front_laser_link,0,1646248082891794889,v/m1vw10zy74w/map,-10.1128421109,-1.09897755199,0.165,0.0,0.0,0.712742847582,-0.701425429551,0,63.2755432129,60.9394950867,100.414558411,6.49168634415
1646248083128025388,231,1646248083128025388,r1000913c5/base_front_laser_link,0,1646248083128025388,v/m1vw10zy74w/map,-10.1082479478,-1.03797280669,0.165,0.0,0.0,0.713006553702,-0.70115736777,0,61.2536582947,60.9408493042,100.373809814,6.47765254974
1646248083284802608,232,1646248083284802608,r1000913c5/base_front_laser_link,0,1646248083284802608,v/m1vw10zy74w/map,-10.1095212081,-0.996277815936,0.165,0.0,0.0,0.7131811182,-0.700979809012,0,61.7476501465,60.9443130493,100.335990906,6.46389341354
1646248083363640644,233,1646248083363640644,r1000913c5/base_front_laser_link,0,1646248083363640644,v/m1vw10zy74w/map,-10.1090697556,-0.973908466867,0.165,0.0,0.0,0.713110289357,-0.701051863426,0,61.765171051,60.9478225708,100.29851532,6.45023059845
1646248083442840572,234,1646248083442840572,r1000913c5/base_front_laser_link,0,1646248083442840572,v/m1vw10zy74w/map,-10.1086180463,-0.951544472786,0.165,0.0,0.0,0.713034022726,-0.70112943344,0,62.1825942993,60.9530754089,100.263885498,6.43693733215
1646248083521662368,235,1646248083521662368,r1000913c5/base_front_laser_link,0,1646248083521662368,v/m1vw10zy74w/map,-10.1082517711,-0.929343668364,0.165,0.0,0.0,0.713042516446,-0.701120795398,0,61.2989768982,60.9545402527,100.224342346,6.42326641083
1646248083678627483,236,1646248083678627483,r1000913c5/base_front_laser_link,0,1646248083678627483,v/m1vw10zy74w/map,-10.1084129188,-0.887420171695,0.165,0.0,0.0,0.711455875684,-0.702730771316,0,62.6749763489,60.9617996216,100.193656921,6.41061782837
1646248083837741003,237,1646248083837741003,r1000913c5/base_front_laser_link,0,1646248083837741003,v/m1vw10zy74w/map,-10.1078393587,-0.841569632458,0.165,0.0,0.0,0.711446811779,-0.70273994764,0,62.0418510437,60.9663391113,100.158721924,6.39746189117
