%time,field.header.seq,field.header.stamp,field.header.frame_id,field.pose.header.seq,field.pose.header.stamp,field.pose.header.frame_id,field.pose.pose.position.x,field.pose.pose.position.y,field.pose.pose.position.z,field.pose.pose.orientation.x,field.pose.pose.orientation.y,field.pose.pose.orientation.z,field.pose.pose.orientation.w,field.label,field.current_error,field.mean,field.threshold,field.std_dev
1646391836574344947,0,1646391836574344947,r1000913c5/base_front_laser_link,0,1646391836574344947,v/m1vw10zy74w/map,-2.84402095838,-2.29989748927,0.165,0.0,0.0,0.700220731042,-0.713926416249,0,57.6484794617,57.6484794617,nan,nan
1646391836732402477,1,1646391836732402477,r1000913c5/base_front_laser_link,0,1646391836732402477,v/m1vw10zy74w/map,-2.84154107813,-2.29829828531,0.165,0.0,0.0,0.697536737938,-0.716549020812,0,55.9006156921,56.7745475769,80.4823226929,1.2359251976
1646391836889466788,2,1646391836889466788,r1000913c5/base_front_laser_link,0,1646391836889466788,v/m1vw10zy74w/map,-2.83121524112,-2.29930792579,0.165,0.0,0.0,0.686439768861,-0.727186663606,0,61.1437683105,58.2309532166,86.2399597168,2.66966724396
1646391837047554820,3,1646391837047554820,r1000913c5/base_front_laser_link,0,1646391837047554820,v/m1vw10zy74w/map,-2.81292911551,-2.29772097698,0.165,0.0,0.0,0.666254600473,-0.745724350782,0,63.7636871338,59.6141395569,90.180015564,3.52195954323
1646391837284513681,4,1646391837284513681,r1000913c5/base_front_laser_link,0,1646391837284513681,v/m1vw10zy74w/map,-2.77780209823,-2.29158345379,0.165,0.0,0.0,0.625615224793,-0.780131777655,0,63.9032173157,60.4719543457,91.2812805176,3.60310792923
1646391837441266265,5,1646391837441266265,r1000913c5/base_front_laser_link,0,1646391837441266265,v/m1vw10zy74w/map,-2.75410529067,-2.28555735546,0.165,0.0,0.0,0.59670637375,-0.802459658504,0,63.0527076721,60.9020805359,91.0737838745,3.39056921005
1646391837679160075,6,1646391837679160075,r1000913c5/base_front_laser_link,0,1646391837679160075,v/m1vw10zy74w/map,-2.72157724844,-2.26704168137,0.165,0.0,0.0,0.555723486747,-0.831367191004,0,64.3036193848,61.3880157471,91.4426651001,3.35155081749
1646391837915516444,7,1646391837915516444,r1000913c5/base_front_laser_link,0,1646391837915516444,v/m1vw10zy74w/map,-2.69004149971,-2.25037841498,0.165,0.0,0.0,-0.512243783904,0.858840093296,0,60.5453033447,61.2826766968,90.6342926025,3.11720442772
1646391838071463493,8,1646391838071463493,r1000913c5/base_front_laser_link,0,1646391838071463493,v/m1vw10zy74w/map,-2.669901817,-2.23850083744,0.165,0.0,0.0,-0.481943102242,0.876202514378,0,57.2314109802,60.83253479,90.4727554321,3.21340656281
1646391838150468850,9,1646391838150468850,r1000913c5/base_front_laser_link,0,1646391838150468850,v/m1vw10zy74w/map,-2.66160411288,-2.22290022469,0.165,0.0,0.0,-0.466359234125,0.88459542433,0,58.6630706787,60.6155891418,89.9345855713,3.10633349419
1646391838229650812,10,1646391838229650812,r1000913c5/base_front_laser_link,0,1646391838229650812,v/m1vw10zy74w/map,-2.6520297525,-2.21505138208,0.165,0.0,0.0,-0.450317093131,0.892868700109,0,54.3760452271,60.0483589172,90.5370559692,3.49623227119
1646391838465565393,11,1646391838465565393,r1000913c5/base_front_laser_link,0,1646391838465565393,v/m1vw10zy74w/map,-2.6237553664,-2.18632987816,0.165,0.0,0.0,-0.40201090028,0.915634881411,0,54.8105964661,59.6118774414,90.5930938721,3.66040682793
1646391838622422336,12,1646391838622422336,r1000913c5/base_front_laser_link,0,1646391838622422336,v/m1vw10zy74w/map,-2.60353458145,-2.17197759775,0.165,0.0,0.0,-0.369381140497,0.929277984806,0,55.3197898865,59.2817153931,90.3854064941,3.70123052597
1646391838780370561,13,1646391838780370561,r1000913c5/base_front_laser_link,0,1646391838780370561,v/m1vw10zy74w/map,-2.59172970628,-2.14530062325,0.165,0.0,0.0,-0.335291642937,0.942114384869,0,57.3249320984,59.1419448853,89.9247817993,3.5942773819
1646391838937715768,14,1646391838937715768,r1000913c5/base_front_laser_link,0,1646391838937715768,v/m1vw10zy74w/map,-2.57549858858,-2.12481810796,0.165,0.0,0.0,-0.301202366494,0.95356024163,0,55.8880996704,58.9250221252,89.61693573,3.56397128105
1646391839095445830,15,1646391839095445830,r1000913c5/base_front_laser_link,0,1646391839095445830,v/m1vw10zy74w/map,-2.56125637448,-2.10514933235,0.165,0.0,0.0,-0.267361877559,0.963596194694,0,54.6482582092,58.6577262878,89.4736557007,3.60531115532
1646391839252484249,16,1646391839252484249,r1000913c5/base_front_laser_link,0,1646391839252484249,v/m1vw10zy74w/map,-2.54645486297,-2.08565932163,0.165,0.0,0.0,-0.232422975658,0.972614805761,0,57.1656227112,58.5699539185,89.0985641479,3.50953578949
1646391839410493086,17,1646391839410493086,r1000913c5/base_front_laser_link,0,1646391839410493086,v/m1vw10zy74w/map,-2.53391990026,-2.06653172463,0.165,0.0,0.0,-0.197878576235,0.980226539667,0,54.0702781677,58.3199729919,89.0183105469,3.56611251831
1646391839646441918,18,1646391839646441918,r1000913c5/base_front_laser_link,0,1646391839646441918,v/m1vw10zy74w/map,-2.52357510951,-2.03423901531,0.165,0.0,0.0,-0.145246379419,0.989395517104,0,51.8343505859,57.9786224365,89.2932434082,3.77153921127
1646391839724332145,19,1646391839724332145,r1000913c5/base_front_laser_link,0,1646391839724332145,v/m1vw10zy74w/map,-2.52132909601,-2.02287285671,0.165,0.0,0.0,-0.128225863258,0.991744991413,0,48.985370636,57.5289611816,90.0859527588,4.18566322327
1646391839882615003,20,1646391839882615003,r1000913c5/base_front_laser_link,0,1646391839882615003,v/m1vw10zy74w/map,-2.51698723625,-1.99438546109,0.165,0.0,0.0,-0.0922461669586,0.995736232484,0,51.780632019,57.25522995,90.0597457886,4.26817035675
1646391840039624669,21,1646391840039624669,r1000913c5/base_front_laser_link,0,1646391840039624669,v/m1vw10zy74w/map,-2.51657608279,-1.96772556363,0.165,0.0,0.0,-0.0566885640519,0.998391910377,0,51.1186485291,56.9762954712,90.0741424561,4.36594820023
1646391840276033957,22,1646391840276033957,r1000913c5/base_front_laser_link,0,1646391840276033957,v/m1vw10zy74w/map,-2.51140025325,-1.92750970044,0.165,0.0,0.0,-0.00392604192611,0.999992293068,0,50.570400238,56.6977806091,90.1072158813,4.46981239319
1646391840433698871,23,1646391840433698871,r1000913c5/base_front_laser_link,0,1646391840433698871,v/m1vw10zy74w/map,-2.51134395165,-1.90344416829,0.165,0.0,0.0,0.0315642812769,0.999501723934,0,51.1971054077,56.468585968,90.0089492798,4.51345586777
1646391840512631408,24,1646391840512631408,r1000913c5/base_front_laser_link,0,1646391840512631408,v/m1vw10zy74w/map,-2.51113803639,-1.89073565909,0.165,0.0,0.0,0.0491869969442,0.998789587116,0,50.1285209656,56.2149810791,90.0053024292,4.59677457809
1646391840590554577,25,1646391840590554577,r1000913c5/base_front_laser_link,0,1646391840590554577,v/m1vw10zy74w/map,-2.51255681985,-1.87899283123,0.165,0.0,0.0,0.0666743038845,0.997774792827,0,48.4478340149,55.9162445068,90.1798019409,4.75451946259
1646391840905614430,26,1646391840905614430,r1000913c5/base_front_laser_link,0,1646391840905614430,v/m1vw10zy74w/map,-2.52431993893,-1.83212420593,0.165,0.0,0.0,0.137130435025,0.990552998981,0,49.8283538818,55.6907691956,90.1122207642,4.80715036392
1646391841063780155,27,1646391841063780155,r1000913c5/base_front_laser_link,0,1646391841063780155,v/m1vw10zy74w/map,-2.53414330058,-1.80537453743,0.165,0.0,0.0,0.172055991301,0.985087171705,0,53.9462394714,55.6284637451,89.8148498535,4.72879600525
1646391841378786522,28,1646391841378786522,r1000913c5/base_front_laser_link,0,1646391841378786522,v/m1vw10zy74w/map,-2.55347547674,-1.7549127397,0.165,0.0,0.0,0.240782373606,0.970579130499,0,55.281703949,55.6165046692,89.5485992432,4.6440320015
1646391841535738696,29,1646391841535738696,r1000913c5/base_front_laser_link,0,1646391841535738696,v/m1vw10zy74w/map,-2.56510317548,-1.73430047822,0.165,0.0,0.0,0.274937956252,0.961461970237,0,52.491985321,55.5123558044,89.3086929321,4.59877824783
1646391841851715257,30,1646391841851715257,r1000913c5/base_front_laser_link,0,1646391841851715257,v/m1vw10zy74w/map,-2.59388778018,-1.69305494537,0.165,0.0,0.0,0.341838031715,0.939758884009,0,54.0154838562,55.4640693665,89.0524749756,4.52946805954
1646391842007566320,31,1646391842007566320,r1000913c5/base_front_laser_link,0,1646391842007566320,v/m1vw10zy74w/map,-2.60964004166,-1.67529534004,0.165,0.0,0.0,0.374710381066,0.927141914877,0,52.7782936096,55.3801383972,88.8232498169,4.48103666306
1646391842322637268,32,1646391842322637268,r1000913c5/base_front_laser_link,0,1646391842322637268,v/m1vw10zy74w/map,-2.64581948077,-1.64251239963,0.165,0.0,0.0,0.439440712699,0.898271595912,0,53.5419197083,55.3244361877,88.5906066895,4.42205810547
1646391843345954111,33,1646391843345954111,r1000913c5/base_front_laser_link,0,1646391843345954111,v/m1vw10zy74w/map,-2.72246137276,-1.57627219366,0.165,0.0,0.0,0.56538344536,0.82482820012,0,54.9103431702,55.3122558594,88.3776168823,4.35512065887
1646391843582831139,34,1646391843582831139,r1000913c5/base_front_laser_link,0,1646391843582831139,v/m1vw10zy74w/map,-2.7270763575,-1.5541374984,0.165,0.0,0.0,0.578020145182,0.816022494643,0,57.738494873,55.3815765381,88.3120346069,4.31015205383
1646391843739773626,35,1646391843739773626,r1000913c5/base_front_laser_link,0,1646391843739773626,v/m1vw10zy74w/map,-2.7299346961,-1.53578723674,0.165,0.0,0.0,0.588434577112,0.80854483392,0,60.3102455139,55.5184860229,88.4989547729,4.32682323456
1646391843975931441,36,1646391843975931441,r1000913c5/base_front_laser_link,0,1646391843975931441,v/m1vw10zy74w/map,-2.73281188867,-1.50437783516,0.165,0.0,0.0,0.602693484899,0.797972783534,0,56.8254966736,55.5538101196,88.3689498901,4.27171278
1646391844211701572,37,1646391844211701572,r1000913c5/base_front_laser_link,0,1646391844211701572,v/m1vw10zy74w/map,-2.73643578013,-1.46595090778,0.165,0.0,0.0,0.618426559777,0.785842598847,0,58.0312042236,55.6190032959,88.3171463013,4.23271369934
1646391844448810390,38,1646391844448810390,r1000913c5/base_front_laser_link,0,1646391844448810390,v/m1vw10zy74w/map,-2.74121791678,-1.42752923846,0.165,0.0,0.0,0.630401956918,0.776268879135,0,56.858669281,55.6507911682,88.1948776245,4.18136358261
1646391844685566650,39,1646391844685566650,r1000913c5/base_front_laser_link,0,1646391844685566650,v/m1vw10zy74w/map,-2.74085944731,-1.37846813829,0.165,0.0,0.0,0.640863585274,0.767654782483,0,56.2982902527,55.6669769287,88.0530090332,4.128677845
1646391844921278649,40,1646391844921278649,r1000913c5/base_front_laser_link,0,1646391844921278649,v/m1vw10zy74w/map,-2.73956500717,-1.32327856756,0.165,0.0,0.0,0.649919623619,0.760002949228,0,57.9601593018,55.72290802,88.0002365112,4.09244298935
1646391845235789353,41,1646391845235789353,r1000913c5/base_front_laser_link,0,1646391845235789353,v/m1vw10zy74w/map,-2.73707020486,-1.23716258466,0.165,0.0,0.0,0.662488255331,0.749072300615,0,56.6056976318,55.743927002,87.877494812,4.04452180862
1646391845392654923,42,1646391845392654923,r1000913c5/base_front_laser_link,0,1646391845392654923,v/m1vw10zy74w/map,-2.74019368631,-1.19162085712,0.165,0.0,0.0,0.671611289123,0.740903688965,0,56.6022186279,55.7638893127,87.7585678101,3.99822545052
1646391845628812286,43,1646391845628812286,r1000913c5/base_front_laser_link,0,1646391845628812286,v/m1vw10zy74w/map,-2.7568328476,-1.11864562058,0.165,0.0,0.0,0.6934701645,0.72048534402,0,58.2849769592,55.8211860657,87.7302780151,3.96969723701
1646391845786718693,44,1646391845786718693,r1000913c5/base_front_laser_link,0,1646391845786718693,v/m1vw10zy74w/map,-2.77434739791,-1.06641255107,0.165,0.0,0.0,0.712880166546,0.701285867636,0,57.238609314,55.852684021,87.6427230835,3.93001198769
1646391846023185056,45,1646391846023185056,r1000913c5/base_front_laser_link,0,1646391846023185056,v/m1vw10zy74w/map,-2.81463981857,-0.98029489167,0.165,0.0,0.0,0.750302806052,0.661094319466,0,56.7033233643,55.8711738586,87.5355453491,3.88812327385
1646391846181809901,46,1646391846181809901,r1000913c5/base_front_laser_link,0,1646391846181809901,v/m1vw10zy74w/map,-2.85628955216,-0.925865680117,0.165,0.0,0.0,0.778868136474,0.627187711921,0,57.2917976379,55.9014015198,87.4550247192,3.85120773315
1646391846337891114,47,1646391846337891114,r1000913c5/base_front_laser_link,0,1646391846337891114,v/m1vw10zy74w/map,-2.90048102591,-0.874049494523,0.165,0.0,0.0,0.805888512479,0.592067314968,0,60.5638999939,55.9985389709,87.6055221558,3.86899542809
1646391846417174252,48,1646391846417174252,r1000913c5/base_front_laser_link,0,1646391846417174252,v/m1vw10zy74w/map,-2.9214339374,-0.850619781367,0.165,0.0,0.0,0.815486722883,0.578775781112,0,59.8717079163,56.077583313,87.6823577881,3.86825799942
1646391846573968391,49,1646391846573968391,r1000913c5/base_front_laser_link,0,1646391846573968391,v/m1vw10zy74w/map,-2.96511814871,-0.795280332649,0.165,0.0,0.0,0.833155250031,0.553039175236,0,59.4485549927,56.1450004578,87.7194442749,3.85814905167
1646391846652846431,50,1646391846652846431,r1000913c5/base_front_laser_link,0,1646391846652846431,v/m1vw10zy74w/map,-2.98473831675,-0.764086469126,0.165,0.0,0.0,0.841469223378,0.540305049122,0,55.9855575562,56.1418762207,87.600189209,3.81943798065
1646391846889260384,51,1646391846889260384,r1000913c5/base_front_laser_link,0,1646391846889260384,v/m1vw10zy74w/map,-3.07610941529,-0.690671338438,0.165,0.0,0.0,0.874122123986,0.48570619963,0,62.4375991821,56.2629470825,87.9067687988,3.88127541542
1646391847205746065,52,1646391847205746065,r1000913c5/base_front_laser_link,0,1646391847205746065,v/m1vw10zy74w/map,-3.22969971672,-0.619466494516,0.165,0.0,0.0,0.922653482333,0.385630070843,0,67.8981628418,56.4824790955,88.9708786011,4.16280031204
1646391847520809647,53,1646391847520809647,r1000913c5/base_front_laser_link,0,1646391847520809647,v/m1vw10zy74w/map,-3.41845342794,-0.586634735807,0.165,0.0,0.0,0.965104915131,0.261863519395,0,59.2088279724,56.5329666138,88.9529647827,4.13999938965
1646391847756730582,54,1646391847756730582,r1000913c5/base_front_laser_link,0,1646391847756730582,v/m1vw10zy74w/map,-3.56152634581,-0.594158791944,0.165,0.0,0.0,0.985782081043,0.168028832926,0,62.8298835754,56.6474571228,89.2128067017,4.18845129013
1646391848070983946,55,1646391848070983946,r1000913c5/base_front_laser_link,0,1646391848070983946,v/m1vw10zy74w/map,-3.74772334724,-0.615218861067,0.165,0.0,0.0,0.997275048206,0.0737731538279,0,60.0071601868,56.7074508667,89.2306900024,4.17441320419
1646391848386006640,56,1646391848386006640,r1000913c5/base_front_laser_link,0,1646391848386006640,v/m1vw10zy74w/map,-3.95564629941,-0.64260071557,0.165,0.0,0.0,0.999919437364,0.0126932573436,0,70.007232666,56.9407806396,90.4300384521,4.49641895294
1646391848621009135,57,1646391848621009135,r1000913c5/base_front_laser_link,0,1646391848621009135,v/m1vw10zy74w/map,-4.10432160357,-0.661083317108,0.165,0.0,0.0,0.999924362477,-0.0122991595161,0,68.2560882568,57.1358718872,91.2296829224,4.69793605804
1646391848937091656,58,1646391848937091656,r1000913c5/base_front_laser_link,0,1646391848937091656,v/m1vw10zy74w/map,-4.3175165789,-0.674071802994,0.165,0.0,0.0,0.999734348219,-0.0230484921728,0,65.3889312744,57.2757530212,91.6145401001,4.7795958519
1646391849172814056,59,1646391849172814056,r1000913c5/base_front_laser_link,0,1646391849172814056,v/m1vw10zy74w/map,-4.48070443309,-0.69424695628,0.165,0.0,0.0,0.999500158312,-0.0316138187145,0,64.0413131714,57.3885116577,91.8447189331,4.81873607635
1646391849408285619,60,1646391849408285619,r1000913c5/base_front_laser_link,0,1646391849408285619,v/m1vw10zy74w/map,-4.6546345915,-0.720152730323,0.165,0.0,0.0,0.999338967784,-0.0363541946513,0,65.7596588135,57.5257453918,92.2171707153,4.89714241028
1646391849566765710,61,1646391849566765710,r1000913c5/base_front_laser_link,0,1646391849566765710,v/m1vw10zy74w/map,-4.76924544716,-0.729553266173,0.165,0.0,0.0,0.99941638268,-0.0341598306716,0,63.3729743958,57.6200561523,92.3598937988,4.91327857971
1646391849802072784,62,1646391849802072784,r1000913c5/base_front_laser_link,0,1646391849802072784,v/m1vw10zy74w/map,-4.94301702742,-0.736119669694,0.165,0.0,0.0,0.999639624882,-0.0268443730889,0,65.5084762573,57.7452697754,92.6666641235,4.97379970551
1646391849958982016,63,1646391849958982016,r1000913c5/base_front_laser_link,0,1646391849958982016,v/m1vw10zy74w/map,-5.06282934263,-0.740502398146,0.165,0.0,0.0,0.999793442065,-0.0203242024213,0,62.8766708374,57.8254470825,92.7525024414,4.97568416595
1646391850117068303,64,1646391850117068303,r1000913c5/base_front_laser_link,0,1646391850117068303,v/m1vw10zy74w/map,-5.18416324851,-0.740511382225,0.165,0.0,0.0,0.999869909773,-0.0161295855623,0,59.9243888855,57.8577384949,92.688293457,4.94351863861
1646391850352925309,65,1646391850352925309,r1000913c5/base_front_laser_link,0,1646391850352925309,v/m1vw10zy74w/map,-5.37364688129,-0.746287481655,0.165,0.0,0.0,0.999921460195,-0.0125328943924,0,63.6460380554,57.945438385,92.8158950806,4.95681762695
1646391850667935133,66,1646391850667935133,r1000913c5/base_front_laser_link,0,1646391850667935133,v/m1vw10zy74w/map,-5.64348085843,-0.746984243179,0.165,0.0,0.0,0.999977030134,-0.00677784655724,0,66.8491210938,58.0783309937,93.1921920776,5.03795433044
1646391850825072825,67,1646391850825072825,r1000913c5/base_front_laser_link,0,1646391850825072825,v/m1vw10zy74w/map,-5.77888700231,-0.74530408948,0.165,0.0,0.0,0.99999538939,-0.00303664270281,0,69.3248519897,58.2437210083,93.7923583984,5.18287801743
1646391850983114231,68,1646391850983114231,r1000913c5/base_front_laser_link,0,1646391850983114231,v/m1vw10zy74w/map,-5.92899570371,-0.747952466889,0.165,0.0,0.0,0.999997746776,0.00212283852421,0,68.8140945435,58.3969154358,94.2959289551,5.29967069626
1646391851219081408,69,1646391851219081408,r1000913c5/base_front_laser_link,0,1646391851219081408,v/m1vw10zy74w/map,-6.15060287507,-0.748208895076,0.165,0.0,0.0,0.999958725644,0.00908553843301,0,64.3871994019,58.4824905396,94.4113540649,5.30962133408
1646391851376080228,70,1646391851376080228,r1000913c5/base_front_laser_link,0,1646391851376080228,v/m1vw10zy74w/map,-6.31061863548,-0.741596150641,0.165,0.0,0.0,0.99991711087,0.012875223835,0,64.1364746094,58.562122345,94.5044021606,5.31409311295
1646391851613204456,71,1646391851613204456,r1000913c5/base_front_laser_link,0,1646391851613204456,v/m1vw10zy74w/map,-6.54434104444,-0.743268985192,0.165,0.0,0.0,0.999939337139,0.0110146285172,0,60.7442703247,58.5924301147,94.4408340454,5.2828001976
1646391851771105800,72,1646391851771105800,r1000913c5/base_front_laser_link,0,1646391851771105800,v/m1vw10zy74w/map,-6.70662688628,-0.745674491225,0.165,0.0,0.0,0.999969254632,0.00784154258211,0,63.4126091003,58.6584625244,94.487159729,5.2762336731
1646391852007918146,73,1646391852007918146,r1000913c5/base_front_laser_link,0,1646391852007918146,v/m1vw10zy74w/map,-6.96035373817,-0.745615728713,0.165,0.0,0.0,0.999970246928,0.00771396519671,0,63.6317329407,58.7256660461,94.5409698486,5.27176713943
1646391852165003646,74,1646391852165003646,r1000913c5/base_front_laser_link,0,1646391852165003646,v/m1vw10zy74w/map,-7.12606241711,-0.741180715589,0.165,0.0,0.0,0.999971922536,0.00749360662428,0,64.9766159058,58.8090133667,94.6656417847,5.2855424881
1646391852322350785,75,1646391852322350785,r1000913c5/base_front_laser_link,0,1646391852322350785,v/m1vw10zy74w/map,-7.30104649697,-0.709170335478,0.165,0.0,0.0,0.999994727741,0.00324722815276,0,63.7178497314,58.8736038208,94.7144927979,5.28029584885
1646391852478986529,76,1646391852478986529,r1000913c5/base_front_laser_link,0,1646391852478986529,v/m1vw10zy74w/map,-7.47514557931,-0.7165151504,0.165,0.0,0.0,0.999999581355,-0.000915035167643,0,61.3831825256,58.9061965942,94.6658935547,5.25323295593
1646391852558118126,77,1646391852558118126,r1000913c5/base_front_laser_link,0,1646391852558118126,v/m1vw10zy74w/map,-7.56441206115,-0.719019816202,0.165,0.0,0.0,0.999996911212,-0.00248547127412,0,59.7350120544,58.9168205261,94.5763778687,5.21985340118
1646391852715130440,78,1646391852715130440,r1000913c5/base_front_laser_link,0,1646391852715130440,v/m1vw10zy74w/map,-7.73687663892,-0.72699843027,0.165,0.0,0.0,0.999973954246,-0.00721739774629,0,58.0686340332,58.906085968,94.4675750732,5.18716239929
1646391853030088498,79,1646391853030088498,r1000913c5/base_front_laser_link,0,1646391853030088498,v/m1vw10zy74w/map,-8.07036811405,-0.709775991676,0.165,0.0,0.0,0.999957691491,-0.00919865360153,0,65.2074203491,58.9848518372,94.5913085938,5.20215368271
1646391853188237103,80,1646391853188237103,r1000913c5/base_front_laser_link,0,1646391853188237103,v/m1vw10zy74w/map,-8.25565643323,-0.71346063054,0.165,0.0,0.0,0.999944716368,-0.0105149516326,0,60.1160049438,58.9988174438,94.512008667,5.17106533051
1646391853424109778,81,1646391853424109778,r1000913c5/base_front_laser_link,0,1646391853424109778,v/m1vw10zy74w/map,-8.53166623591,-0.710959154167,0.165,0.0,0.0,0.999936748382,-0.0112471878916,0,61.8695144653,59.0338249207,94.4802703857,5.14881467819
1646391853581263341,82,1646391853581263341,r1000913c5/base_front_laser_link,0,1646391853581263341,v/m1vw10zy74w/map,-8.7299680496,-0.734613824362,0.165,0.0,0.0,0.999930372836,-0.0118004016703,0,60.0237846375,59.045753479,94.401184082,5.11847686768
1646391853738996960,83,1646391853738996960,r1000913c5/base_front_laser_link,0,1646391853738996960,v/m1vw10zy74w/map,-8.92204808595,-0.736918607745,0.165,0.0,0.0,0.999968913976,-0.00788486404051,0,63.187713623,59.0950622559,94.4178085327,5.10758209229
1646391853975258160,84,1646391853975258160,r1000913c5/base_front_laser_link,0,1646391853975258160,v/m1vw10zy74w/map,-9.21159290101,-0.735908036033,0.165,0.0,0.0,0.999998092954,-0.00195296916745,0,62.8151321411,59.1388244629,94.4181213379,5.09309720993
1646391854290118846,85,1646391854290118846,r1000913c5/base_front_laser_link,0,1646391854290118846,v/m1vw10zy74w/map,-9.60667955091,-0.728421436022,0.165,0.0,0.0,0.999998938328,0.00145716964744,0,56.2547988892,59.1052894592,94.3230667114,5.07259130478
1646391854447273073,86,1646391854447273073,r1000913c5/base_front_laser_link,0,1646391854447273073,v/m1vw10zy74w/map,-9.81273413155,-0.730100244816,0.165,0.0,0.0,0.999997377614,0.00229014512279,0,58.023475647,59.0928573608,94.2258987427,5.04434680939
1646391854605141921,87,1646391854605141921,r1000913c5/base_front_laser_link,0,1646391854605141921,v/m1vw10zy74w/map,-10.0271670008,-0.731223009482,0.165,0.0,0.0,0.999987209138,0.00505782177482,0,62.1154327393,59.127204895,94.2040405273,5.02561235428
1646391854841457946,88,1646391854841457946,r1000913c5/base_front_laser_link,0,1646391854841457946,v/m1vw10zy74w/map,-10.3475087278,-0.717290141887,0.165,0.0,0.0,0.999925903932,0.0121731936998,0,58.627822876,59.1215934753,94.1133651733,4.99725627899
1646391855077226889,89,1646391855077226889,r1000913c5/base_front_laser_link,0,1646391855077226889,v/m1vw10zy74w/map,-10.6774009373,-0.704544024283,0.165,0.0,0.0,0.999924493255,0.0122885226663,0,60.5917892456,59.137928009,94.052482605,4.97151851654
1646391855157134369,90,1646391855157134369,r1000913c5/base_front_laser_link,0,1646391855157134369,v/m1vw10zy74w/map,-10.7710260367,-0.701019966271,0.165,0.0,0.0,0.999938580498,0.011083105717,0,61.9028091431,59.1683120728,94.0252456665,4.95231056213
1646391855235356237,91,1646391855235356237,r1000913c5/base_front_laser_link,0,1646391855235356237,v/m1vw10zy74w/map,-10.8691779946,-0.697497469911,0.165,0.0,0.0,0.999917801849,0.0128214486561,0,62.4837493896,59.2043495178,94.0157699585,4.93713998795
1646391855471330083,92,1646391855471330083,r1000913c5/base_front_laser_link,0,1646391855471330083,v/m1vw10zy74w/map,-11.0952090345,-0.693018053362,0.165,0.0,0.0,0.999883187926,0.0152843221259,0,54.1193237305,59.1496696472,93.9650650024,4.93846511841
1646391855550764882,93,1646391855550764882,r1000913c5/base_front_laser_link,0,1646391855550764882,v/m1vw10zy74w/map,-11.161988988,-0.692182058667,0.165,0.0,0.0,0.999887015519,0.0150318394304,0,57.2645149231,59.1296157837,93.8766860962,4.91568946838
1646391855786167951,94,1646391855786167951,r1000913c5/base_front_laser_link,0,1646391855786167951,v/m1vw10zy74w/map,-11.3040137415,-0.690918388234,0.165,0.0,0.0,0.999875250206,0.0157950633346,0,55.1442222595,59.0876655579,93.8072814941,4.90653991699
1646391855864232717,95,1646391855864232717,r1000913c5/base_front_laser_link,0,1646391855864232717,v/m1vw10zy74w/map,-11.3251377798,-0.688115309022,0.165,0.0,0.0,0.999895060878,0.0144867951071,0,55.4501495361,59.0497741699,93.7340164185,4.89474725723
1646391856101256406,96,1646391856101256406,r1000913c5/base_front_laser_link,0,1646391856101256406,v/m1vw10zy74w/map,-11.4167865111,-0.694899557274,0.165,0.0,0.0,0.999944936109,0.0104940340516,0,52.1937866211,58.979095459,93.7351837158,4.91869544983
1646391856338255083,97,1646391856338255083,r1000913c5/base_front_laser_link,0,1646391856338255083,v/m1vw10zy74w/map,-11.4857017526,-0.698268324787,0.165,0.0,0.0,0.999947733292,0.0102240248737,0,52.3697395325,58.9116516113,93.7274932861,4.93861293793
1646391856494409231,98,1646391856494409231,r1000913c5/base_front_laser_link,0,1646391856494409231,v/m1vw10zy74w/map,-11.5317525867,-0.697167288253,0.165,0.0,0.0,0.999945443409,0.0104455830383,0,56.3029212952,58.8852996826,93.6463241577,4.9203414917
1646391856573124842,99,1646391856573124842,r1000913c5/base_front_laser_link,0,1646391856573124842,v/m1vw10zy74w/map,-11.5540980987,-0.696583723804,0.165,0.0,0.0,0.999943681821,0.0106128783172,0,55.0817642212,58.8472671509,93.5778121948,4.91018199921
1646391856730348201,100,1646391856730348201,r1000913c5/base_front_laser_link,0,1646391856730348201,v/m1vw10zy74w/map,-11.6125389832,-0.689125603154,0.165,0.0,0.0,0.999947350842,0.0102613616779,0,57.0711975098,58.8296813965,93.4959716797,4.88876485825
1646391856966413756,101,1646391856966413756,r1000913c5/base_front_laser_link,0,1646391856966413756,v/m1vw10zy74w/map,-11.6759343301,-0.684784549726,0.165,0.0,0.0,0.999894807813,0.0145042513767,0,57.175151825,58.8134613037,93.4152374268,4.86726045609
1646391857045296057,102,1646391857045296057,r1000913c5/base_front_laser_link,0,1646391857045296057,v/m1vw10zy74w/map,-11.7027472436,-0.683918676808,0.165,0.0,0.0,0.999847823266,0.0174450654732,0,51.9429092407,58.7467536926,93.4180297852,4.89042568207
1646391857124378886,103,1646391857124378886,r1000913c5/base_front_laser_link,0,1646391857124378886,v/m1vw10zy74w/map,-11.7229288344,-0.681773262207,0.165,0.0,0.0,0.999795240153,0.0202355570314,0,55.5347671509,58.7158699036,93.3462982178,4.87680912018
1646391857754436317,104,1646391857754436317,r1000913c5/base_front_laser_link,0,1646391857754436317,v/m1vw10zy74w/map,-11.8595022498,-0.654498334506,0.165,0.0,0.0,0.99892546918,0.0463455178317,0,56.6444854736,58.696144104,93.2686843872,4.85751438141
1646391857990431181,105,1646391857990431181,r1000913c5/base_front_laser_link,0,1646391857990431181,v/m1vw10zy74w/map,-11.8657909528,-0.655474264557,0.165,0.0,0.0,0.999477856457,0.03231121249,0,57.7912483215,58.6876068115,93.1929855347,4.83512687683
1646391858147573076,106,1646391858147573076,r1000913c5/base_front_laser_link,0,1646391858147573076,v/m1vw10zy74w/map,-11.8639630715,-0.667082887984,0.165,0.0,0.0,0.999896729012,0.014371197291,0,57.0353775024,58.672164917,93.1169128418,4.81491565704
1646391858385376936,107,1646391858385376936,r1000913c5/base_front_laser_link,0,1646391858385376936,v/m1vw10zy74w/map,-11.8652928257,-0.696973352939,0.165,0.0,0.0,0.999540053092,-0.0303262636304,0,59.2876281738,58.6778640747,93.0560531616,4.79272937775
1646391858541414904,108,1646391858541414904,r1000913c5/base_front_laser_link,0,1646391858541414904,v/m1vw10zy74w/map,-11.8636300488,-0.721328200345,0.165,0.0,0.0,0.997770509904,-0.0667383665229,0,59.388710022,58.684387207,92.9973068237,4.77097511292
1646391858620657774,109,1646391858620657774,r1000913c5/base_front_laser_link,0,1646391858620657774,v/m1vw10zy74w/map,-11.8619162578,-0.733766608227,0.165,0.0,0.0,0.99634431052,-0.0854284197151,0,61.66065979,58.71144104,92.9839706421,4.75751018524
1646391858936327069,110,1646391858936327069,r1000913c5/base_front_laser_link,0,1646391858936327069,v/m1vw10zy74w/map,-11.8561853407,-0.775302860301,0.165,0.0,0.0,0.988040953651,-0.154191679113,0,57.6171607971,58.7015838623,92.9125061035,4.73697471619
1646391859093486548,111,1646391859093486548,r1000913c5/base_front_laser_link,0,1646391859093486548,v/m1vw10zy74w/map,-11.847591019,-0.796565572644,0.165,0.0,0.0,0.98201600718,-0.188797673824,0,58.3442344666,58.6983947754,92.8455200195,4.71570968628
1646391859330399388,112,1646391859330399388,r1000913c5/base_front_laser_link,0,1646391859330399388,v/m1vw10zy74w/map,-11.8337960667,-0.827540723571,0.165,0.0,0.0,0.971137976761,-0.238518406192,0,62.89427948,58.7355270386,92.8690490723,4.71117448807
1646391859565344279,113,1646391859565344279,r1000913c5/base_front_laser_link,0,1646391859565344279,v/m1vw10zy74w/map,-11.8210890509,-0.855580435307,0.165,0.0,0.0,0.957686250807,-0.287814254366,0,60.1734428406,58.7481384277,92.8247833252,4.69221496582
1646391859644401041,114,1646391859644401041,r1000913c5/base_front_laser_link,0,1646391859644401041,v/m1vw10zy74w/map,-11.8106341537,-0.861202206309,0.165,0.0,0.0,0.952856555708,-0.303421133483,0,58.7453994751,58.7481155396,92.7628860474,4.67158985138
1646391859801490529,115,1646391859801490529,r1000913c5/base_front_laser_link,0,1646391859801490529,v/m1vw10zy74w/map,-11.7957820713,-0.879507038289,0.165,0.0,0.0,0.941614432529,-0.336693125046,0,59.8530883789,58.7576408386,92.7147369385,4.65236568451
1646391859880516402,116,1646391859880516402,r1000913c5/base_front_laser_link,0,1646391859880516402,v/m1vw10zy74w/map,-11.7878652448,-0.889506973084,0.165,0.0,0.0,0.935601026388,-0.353059087721,0,64.5553970337,58.8071937561,92.7967224121,4.66317653656
1646391860195410685,117,1646391860195410685,r1000913c5/base_front_laser_link,0,1646391860195410685,v/m1vw10zy74w/map,-11.7514767011,-0.923526845554,0.165,0.0,0.0,0.911492167018,-0.411317431511,0,62.0112686157,58.8343467712,92.7920379639,4.6525645256
1646391860275558333,118,1646391860275558333,r1000913c5/base_front_laser_link,0,1646391860275558333,v/m1vw10zy74w/map,-11.7391078121,-0.92799900084,0.165,0.0,0.0,0.90393235029,-0.427675468199,0,66.7775802612,58.901096344,92.9701461792,4.68968296051
1646391860352583072,119,1646391860352583072,r1000913c5/base_front_laser_link,0,1646391860352583072,v/m1vw10zy74w/map,-11.7298978507,-0.935147800074,0.165,0.0,0.0,0.896352237398,-0.443342606244,0,62.4324760437,58.9305267334,92.9736785889,4.6810503006
1646391860510753097,120,1646391860510753097,r1000913c5/base_front_laser_link,0,1646391860510753097,v/m1vw10zy74w/map,-11.7139971952,-0.943060433105,0.165,0.0,0.0,0.881219550364,-0.472707207536,0,64.732170105,58.9784736633,93.0522155762,4.69124746323
1646391860588554703,121,1646391860588554703,r1000913c5/base_front_laser_link,0,1646391860588554703,v/m1vw10zy74w/map,-11.7041430043,-0.949369675885,0.165,0.0,0.0,0.872823170868,-0.488036589197,0,63.9550628662,59.0192642212,93.0997619629,4.69349813461
1646391860747591125,122,1646391860747591125,r1000913c5/base_front_laser_link,0,1646391860747591125,v/m1vw10zy74w/map,-11.6838796185,-0.954447796683,0.165,0.0,0.0,0.85619252743,-0.516656903538,0,63.2636222839,59.0537719727,93.1233596802,4.68986320496
1646391860903856311,123,1646391860903856311,r1000913c5/base_front_laser_link,0,1646391860903856311,v/m1vw10zy74w/map,-11.662615472,-0.964339571475,0.165,0.0,0.0,0.837555515498,-0.546352229298,0,63.409286499,59.0888977051,93.1502227783,4.68710851669
1646391861061480290,124,1646391861061480290,r1000913c5/base_front_laser_link,0,1646391861061480290,v/m1vw10zy74w/map,-11.6376360225,-0.967935994892,0.165,0.0,0.0,0.81876411423,-0.574130059524,0,67.673866272,59.1575775146,93.3502807617,4.73090171814
1646391861139780326,125,1646391861139780326,r1000913c5/base_front_laser_link,0,1646391861139780326,v/m1vw10zy74w/map,-11.6274346298,-0.971376689231,0.165,0.0,0.0,0.809428866144,-0.587217941358,0,65.6032714844,59.208732605,93.4491348267,4.74680089951
1646391861298515359,126,1646391861298515359,r1000913c5/base_front_laser_link,0,1646391861298515359,v/m1vw10zy74w/map,-11.6084826049,-0.974717609206,0.165,0.0,0.0,0.791880922022,-0.610675531963,0,63.1524391174,59.2397842407,93.4623641968,4.74086046219
1646391861376219320,127,1646391861376219320,r1000913c5/base_front_laser_link,0,1646391861376219320,v/m1vw10zy74w/map,-11.5993529951,-0.976927950195,0.165,0.0,0.0,0.783238484645,-0.621721381465,0,63.9680213928,59.276725769,93.4985733032,4.74061584473
1646391861534482443,128,1646391861534482443,r1000913c5/base_front_laser_link,0,1646391861534482443,v/m1vw10zy74w/map,-11.5832277783,-0.977966005535,0.165,0.0,0.0,0.76774899599,-0.640750715299,0,63.6276473999,59.3104515076,93.5231781006,4.73757457733
1646391863736756564,129,1646391863736756564,r1000913c5/base_front_laser_link,0,1646391863736756564,v/m1vw10zy74w/map,-11.5222003863,-0.980333415175,0.165,0.0,0.0,0.715790430231,-0.69831515807,0,60.0917243958,59.3164634705,93.4754867554,4.71967363358
1646391863815682750,130,1646391863815682750,r1000913c5/base_front_laser_link,0,1646391863815682750,v/m1vw10zy74w/map,-11.522218827,-0.980444601064,0.165,0.0,0.0,0.715801498241,-0.698303812904,0,60.2370147705,59.3234901428,93.4300079346,4.70217418671
1646391863972587876,131,1646391863972587876,r1000913c5/base_front_laser_link,0,1646391863972587876,v/m1vw10zy74w/map,-11.5212841046,-0.98866713598,0.165,0.0,0.0,0.714644348193,-0.69948799532,0,56.8752212524,59.3049430847,93.3720550537,4.68903684616
1646391864130866896,132,1646391864130866896,r1000913c5/base_front_laser_link,0,1646391864130866896,v/m1vw10zy74w/map,-11.5221396593,-1.01590203942,0.165,0.0,0.0,0.715021447719,-0.699102517019,0,61.0732688904,59.3182373047,93.3395080566,4.6737575531
1646391864209373923,133,1646391864209373923,r1000913c5/base_front_laser_link,0,1646391864209373923,v/m1vw10zy74w/map,-11.5265807074,-1.03675925885,0.165,0.0,0.0,0.71912656875,-0.694879110434,0,61.4515037537,59.3341560364,93.3135528564,4.65979957581
1646391864367803998,134,1646391864367803998,r1000913c5/base_front_laser_link,0,1646391864367803998,v/m1vw10zy74w/map,-11.5422545695,-1.08394223372,0.165,0.0,0.0,0.732879890369,-0.680358042719,0,62.9864578247,59.3612098694,93.3202438354,4.65300941467
1646391864444759752,135,1646391864444759752,r1000913c5/base_front_laser_link,0,1646391864444759752,v/m1vw10zy74w/map,-11.5509642189,-1.10675842662,0.165,0.0,0.0,0.739829057831,-0.672794890876,0,62.6599693298,59.3854675293,93.3185653687,4.64436626434
1646391864523845495,136,1646391864523845495,r1000913c5/base_front_laser_link,0,1646391864523845495,v/m1vw10zy74w/map,-11.5603136264,-1.12944400355,0.165,0.0,0.0,0.746781821852,-0.665069102087,0,59.4904098511,59.3862342834,93.2680358887,4.62726831436
1646391864602623050,137,1646391864602623050,r1000913c5/base_front_laser_link,0,1646391864602623050,v/m1vw10zy74w/map,-11.569779333,-1.15147375529,0.165,0.0,0.0,0.753387887386,-0.65757637666,0,64.8804855347,59.4260482788,93.328086853,4.63401222229
1646391864917843027,138,1646391864917843027,r1000913c5/base_front_laser_link,0,1646391864917843027,v/m1vw10zy74w/map,-11.608266704,-1.23943381108,0.165,0.0,0.0,0.775994173009,-0.630740075987,0,62.4075584412,59.4474945068,93.3198318481,4.62411212921
1646391865075952734,139,1646391865075952734,r1000913c5/base_front_laser_link,0,1646391865075952734,v/m1vw10zy74w/map,-11.6243287453,-1.28088642479,0.165,0.0,0.0,0.782357964781,-0.622829041507,0,58.7841148376,59.4427566528,93.26612854,4.60778951645
1646391865232280539,140,1646391865232280539,r1000913c5/base_front_laser_link,0,1646391865232280539,v/m1vw10zy74w/map,-11.634018031,-1.32492543458,0.165,0.0,0.0,0.781945497244,-0.623346805029,0,58.4725074768,59.435874939,93.2119674683,4.59203100204
1646391865469016697,141,1646391865469016697,r1000913c5/base_front_laser_link,0,1646391865469016697,v/m1vw10zy74w/map,-11.6396205488,-1.39369183359,0.165,0.0,0.0,0.772402174615,-0.635133750206,0,62.8777885437,59.4601173401,93.21459198,4.58482551575
1646391865705798014,142,1646391865705798014,r1000913c5/base_front_laser_link,0,1646391865705798014,v/m1vw10zy74w/map,-11.637398443,-1.46244457421,0.165,0.0,0.0,0.758788132123,-0.651337524291,0,58.3952178955,59.4526672363,93.1612319946,4.56952095032
1646391865784966126,143,1646391865784966126,r1000913c5/base_front_laser_link,0,1646391865784966126,v/m1vw10zy74w/map,-11.6358531886,-1.48556987513,0.165,0.0,0.0,0.754005198015,-0.65686845058,0,57.7449150085,59.4408111572,93.1080245972,4.55573892593
1646391866020720988,144,1646391866020720988,r1000913c5/base_front_laser_link,0,1646391866020720988,v/m1vw10zy74w/map,-11.6201968069,-1.55991030748,0.165,0.0,0.0,0.734965797277,-0.678104178451,0,62.4604415894,59.4616355896,93.1020736694,4.54681301117
1646391866256729135,145,1646391866256729135,r1000913c5/base_front_laser_link,0,1646391866256729135,v/m1vw10zy74w/map,-11.6126955527,-1.62764190181,0.165,0.0,0.0,0.72291161582,-0.690940515321,0,61.4525871277,59.4752693176,93.0775756836,4.53410243988
1646391866414009978,146,1646391866414009978,r1000913c5/base_front_laser_link,0,1646391866414009978,v/m1vw10zy74w/map,-11.6136567065,-1.67463038031,0.165,0.0,0.0,0.717039137674,-0.69703290815,0,61.2015190125,59.4870147705,93.0493850708,4.52079057693
1646391872005085425,147,1646391872005085425,r1000913c5/base_front_laser_link,0,1646391872005085425,v/m1vw10zy74w/map,-11.6160321568,-2.60399177074,0.165,0.0,0.0,0.709193870751,-0.705013513125,0,67.8950424194,59.5438270569,93.2180938721,4.55808973312
1646391872083174073,148,1646391872083174073,r1000913c5/base_front_laser_link,0,1646391872083174073,v/m1vw10zy74w/map,-11.6161450794,-2.6196753344,0.165,0.0,0.0,0.709214315008,-0.704992947048,0,66.6491928101,59.5915107727,93.3309326172,4.57980775833
1646391875626419514,149,1646391875626419514,r1000913c5/base_front_laser_link,0,1646391875626419514,v/m1vw10zy74w/map,-11.6283268386,-2.76447633289,0.165,0.0,0.0,0.711919072372,-0.702261514247,0,70.2752075195,59.6627349854,93.603805542,4.64702177048
1646391875784641741,150,1646391875784641741,r1000913c5/base_front_laser_link,0,1646391875784641741,v/m1vw10zy74w/map,-11.6283248468,-2.76438099375,0.165,0.0,0.0,0.71191834868,-0.702262247891,0,71.2062606812,59.7391853333,93.9166259766,4.72581386566
1646391875941479356,151,1646391875941479356,r1000913c5/base_front_laser_link,0,1646391875941479356,v/m1vw10zy74w/map,-11.6283837861,-2.76050964103,0.165,0.0,0.0,0.71203608664,-0.702142871018,0,71.5845336914,59.8171157837,94.2385101318,4.80713224411
1646391876020355902,152,1646391876020355902,r1000913c5/base_front_laser_link,0,1646391876020355902,v/m1vw10zy74w/map,-11.6285997305,-2.75322686237,0.165,0.0,0.0,0.712370669336,-0.701803412267,0,68.3366241455,59.8727989197,94.3944320679,4.8405456543
1646391876177513466,153,1646391876177513466,r1000913c5/base_front_laser_link,0,1646391876177513466,v/m1vw10zy74w/map,-11.6295563106,-2.73352247793,0.165,0.0,0.0,0.71371025253,-0.700441057786,0,65.5430526733,59.9096183777,94.4484863281,4.84628915787
1646391876335455008,154,1646391876335455008,r1000913c5/base_front_laser_link,0,1646391876335455008,v/m1vw10zy74w/map,-11.6298016944,-2.70471990001,0.165,0.0,0.0,0.71456170487,-0.699572419362,0,66.4704666138,59.9519462585,94.529510498,4.85918855667
1646391876491546862,155,1646391876491546862,r1000913c5/base_front_laser_link,0,1646391876491546862,v/m1vw10zy74w/map,-11.6294828507,-2.66352278108,0.165,0.0,0.0,0.715164998142,-0.698955667716,0,70.624168396,60.0203552246,94.7751998901,4.91828107834
1646391876570622856,156,1646391876570622856,r1000913c5/base_front_laser_link,0,1646391876570622856,v/m1vw10zy74w/map,-11.6290423988,-2.6413113011,0.165,0.0,0.0,0.715234367389,-0.698884682695,0,67.5848922729,60.0685386658,94.8871078491,4.93952417374
1646391876727616290,157,1646391876727616290,r1000913c5/base_front_laser_link,0,1646391876727616290,v/m1vw10zy74w/map,-11.6286988996,-2.59249144775,0.165,0.0,0.0,0.716102729971,-0.697994899786,0,69.2369995117,60.1265678406,95.0590744019,4.97750139236
1646391876885598000,158,1646391876885598000,r1000913c5/base_front_laser_link,0,1646391876885598000,v/m1vw10zy74w/map,-11.6288178836,-2.5443399578,0.165,0.0,0.0,0.71758877865,-0.696467044989,0,71.4850387573,60.1980018616,95.3264923096,5.04282951355
1646391876964983023,159,1646391876964983023,r1000913c5/base_front_laser_link,0,1646391876964983023,v/m1vw10zy74w/map,-11.6286982252,-2.52087920511,0.165,0.0,0.0,0.71821570131,-0.695820527429,0,68.8374938965,60.2519989014,95.4714050293,5.07313489914
1646391877121446153,160,1646391877121446153,r1000913c5/base_front_laser_link,0,1646391877121446153,v/m1vw10zy74w/map,-11.627841989,-2.47626654163,0.165,0.0,0.0,0.718830480779,-0.695185399662,0,62.094871521,60.2634468079,95.4414672852,5.05934143066
1646391877200445074,161,1646391877200445074,r1000913c5/base_front_laser_link,0,1646391877200445074,v/m1vw10zy74w/map,-11.6182612535,-2.46168028565,0.165,0.0,0.0,0.719725887574,-0.69425834295,0,62.9581184387,60.2800788879,95.4242172241,5.04804611206
1646391877279673831,162,1646391877279673831,r1000913c5/base_front_laser_link,0,1646391877279673831,v/m1vw10zy74w/map,-11.6175999752,-2.44235735524,0.165,0.0,0.0,0.719729921473,-0.69425416105,0,62.0575523376,60.2909851074,95.3940887451,5.0343670845
1646391877357536495,163,1646391877357536495,r1000913c5/base_front_laser_link,0,1646391877357536495,v/m1vw10zy74w/map,-11.6168853379,-2.42027258621,0.165,0.0,0.0,0.719816527316,-0.694164365984,0,62.5907936096,60.3050079346,95.37134552,5.02211236954
1646391877436565738,164,1646391877436565738,r1000913c5/base_front_laser_link,0,1646391877436565738,v/m1vw10zy74w/map,-11.6160785166,-2.39779577578,0.165,0.0,0.0,0.719826060958,-0.6941544799,0,62.5771789551,60.3187789917,95.3484802246,5.00990152359
1646391877594465322,165,1646391877594465322,r1000913c5/base_front_laser_link,0,1646391877594465322,v/m1vw10zy74w/map,-11.6128379028,-2.34568356876,0.165,0.0,0.0,0.718269967843,-0.695764509942,0,66.1125411987,60.353679657,95.3983764648,5.01489877701
1646391877751488891,166,1646391877751488891,r1000913c5/base_front_laser_link,0,1646391877751488891,v/m1vw10zy74w/map,-11.6099647012,-2.30159535776,0.165,0.0,0.0,0.716974971025,-0.69709891043,0,67.6096115112,60.3971290588,95.4907302856,5.0311999321
1646391877830541111,167,1646391877830541111,r1000913c5/base_front_laser_link,0,1646391877830541111,v/m1vw10zy74w/map,-11.6092761589,-2.27907254515,0.165,0.0,0.0,0.716915115618,-0.69716046718,0,69.4019775391,60.4507293701,95.6427230835,5.063996315
1646391877909662239,168,1646391877909662239,r1000913c5/base_front_laser_link,0,1646391877909662239,v/m1vw10zy74w/map,-11.6086719562,-2.25675427013,0.165,0.0,0.0,0.716936401351,-0.697138577629,0,67.3817367554,60.4917411804,95.7226638794,5.07697439194
1646391877987716796,169,1646391877987716796,r1000913c5/base_front_laser_link,0,1646391877987716796,v/m1vw10zy74w/map,-11.6080764507,-2.23479790086,0.165,0.0,0.0,0.716957603438,-0.697116772767,0,67.3640136719,60.5321655273,95.8000640869,5.08929872513
1646391878224548567,170,1646391878224548567,r1000913c5/base_front_laser_link,0,1646391878224548567,v/m1vw10zy74w/map,-11.6047768964,-2.17304273604,0.165,0.0,0.0,0.717031292156,-0.697040978759,0,63.3327217102,60.5485458374,95.7850189209,5.07882547379
1646391878302443154,171,1646391878302443154,r1000913c5/base_front_laser_link,0,1646391878302443154,v/m1vw10zy74w/map,-11.6041176626,-2.15080068363,0.165,0.0,0.0,0.716998649536,-0.697074555957,0,63.5560340881,60.566028595,95.7734603882,5.06914329529
1646391878382545084,172,1646391878382545084,r1000913c5/base_front_laser_link,0,1646391878382545084,v/m1vw10zy74w/map,-11.6035084113,-2.12815285035,0.165,0.0,0.0,0.717030368826,-0.697041928567,0,62.7747344971,60.5787963867,95.7503204346,5.05717468262
1646391878460535255,173,1646391878460535255,r1000913c5/base_front_laser_link,0,1646391878460535255,v/m1vw10zy74w/map,-11.6028922999,-2.10595962885,0.165,0.0,0.0,0.717042930993,-0.697029005934,0,66.9502334595,60.6154136658,95.8122711182,5.06561803818
1646391878696586255,174,1646391878696586255,r1000913c5/base_front_laser_link,0,1646391878696586255,v/m1vw10zy74w/map,-11.6007754178,-2.04675195921,0.165,0.0,0.0,0.717617707001,-0.69643723809,0,68.7006988525,60.6616172791,95.9252700806,5.08788442612
1646391878776448846,175,1646391878776448846,r1000913c5/base_front_laser_link,0,1646391878776448846,v/m1vw10zy74w/map,-11.6000718894,-2.02386834679,0.165,0.0,0.0,0.717598569577,-0.696456956991,0,67.4818267822,60.7003669739,95.9982910156,5.09930753708
1646391878933643198,176,1646391878933643198,r1000913c5/base_front_laser_link,0,1646391878933643198,v/m1vw10zy74w/map,-11.5987502594,-1.979413373,0.165,0.0,0.0,0.717607742056,-0.696447505948,0,64.2570114136,60.7204627991,95.9959335327,5.09182262421
1646391879011636445,177,1646391879011636445,r1000913c5/base_front_laser_link,0,1646391879011636445,v/m1vw10zy74w/map,-11.5975768511,-1.96446357889,0.165,0.0,0.0,0.718851227237,-0.695163946921,0,63.9646263123,60.7386856079,95.9884033203,5.08323764801
1646391879169677695,178,1646391879169677695,r1000913c5/base_front_laser_link,0,1646391879169677695,v/m1vw10zy74w/map,-11.5958736654,-1.92252010311,0.165,0.0,0.0,0.719289166953,-0.694710799041,0,61.9245910645,60.7453117371,95.9544525146,5.06971406937
1646391879247881554,179,1646391879247881554,r1000913c5/base_front_laser_link,0,1646391879247881554,v/m1vw10zy74w/map,-11.5950944937,-1.90024851919,0.165,0.0,0.0,0.719284317392,-0.69471582014,0,58.1240348816,60.7307510376,95.9086685181,5.05930662155
1646391879484951210,180,1646391879484951210,r1000913c5/base_front_laser_link,0,1646391879484951210,v/m1vw10zy74w/map,-11.5970278187,-1.84489412515,0.165,0.0,0.0,0.717828323695,-0.696220150312,0,57.8370132446,60.7147636414,95.8642120361,5.04981660843
1646391879720815666,181,1646391879720815666,r1000913c5/base_front_laser_link,0,1646391879720815666,v/m1vw10zy74w/map,-11.5954327582,-1.78021953141,0.165,0.0,0.0,0.717863371739,-0.696184012683,0,60.0852737427,60.7113037109,95.8194961548,5.03606367111
1646391879878622047,182,1646391879878622047,r1000913c5/base_front_laser_link,0,1646391879878622047,v/m1vw10zy74w/map,-11.5940279281,-1.73543701152,0.165,0.0,0.0,0.717828740971,-0.696219720085,0,61.2512779236,60.7142524719,95.7813568115,5.02236795425
1646391880035696015,183,1646391880035696015,r1000913c5/base_front_laser_link,0,1646391880035696015,v/m1vw10zy74w/map,-11.5911087161,-1.70839821777,0.165,0.0,0.0,0.718997082702,-0.695013089852,0,61.9421577454,60.7209281921,95.7492599487,5.00944471359
1646391880193714085,184,1646391880193714085,r1000913c5/base_front_laser_link,0,1646391880193714085,v/m1vw10zy74w/map,-11.5895669459,-1.66340530804,0.165,0.0,0.0,0.718979934805,-0.695030829063,0,61.0148391724,60.7225151062,95.7100982666,4.99586009979
1646391880271692550,185,1646391880271692550,r1000913c5/base_front_laser_link,0,1646391880271692550,v/m1vw10zy74w/map,-11.5888261979,-1.6414817701,0.165,0.0,0.0,0.718982195272,-0.695028490698,0,61.1159820557,60.7246322632,95.6718978882,4.98242282867
1646391880350945847,186,1646391880350945847,r1000913c5/base_front_laser_link,0,1646391880350945847,v/m1vw10zy74w/map,-11.5880847481,-1.61915029469,0.165,0.0,0.0,0.718998739302,-0.695011376081,0,61.5367431641,60.7289733887,95.6370697021,4.96936607361
1646391880429774489,187,1646391880429774489,r1000913c5/base_front_laser_link,0,1646391880429774489,v/m1vw10zy74w/map,-11.5923574248,-1.58776765593,0.165,0.0,0.0,0.716717990796,-0.697363120383,0,61.4844551086,60.7329940796,95.6020965576,4.95636749268
1646391880508659439,188,1646391880508659439,r1000913c5/base_front_laser_link,0,1646391880508659439,v/m1vw10zy74w/map,-11.5916128191,-1.56496482563,0.165,0.0,0.0,0.716695691279,-0.697386038075,0,61.3406791687,60.7362098694,95.5663070679,4.94336605072
1646391880744552491,189,1646391880744552491,r1000913c5/base_front_laser_link,0,1646391880744552491,v/m1vw10zy74w/map,-11.5896979308,-1.49784918588,0.165,0.0,0.0,0.716600841717,-0.697483500629,0,64.3985290527,60.7554855347,95.5677566528,4.93742465973
1646391880901783977,190,1646391880901783977,r1000913c5/base_front_laser_link,0,1646391880901783977,v/m1vw10zy74w/map,-11.5874018975,-1.45565522606,0.165,0.0,0.0,0.716770449516,-0.697309201646,0,60.0517044067,60.7518005371,95.5258331299,4.92467784882
1646391880981335339,191,1646391880981335339,r1000913c5/base_front_laser_link,0,1646391880981335339,v/m1vw10zy74w/map,-11.5866765233,-1.43351669083,0.165,0.0,0.0,0.716680487268,-0.697401662724,0,63.5816841125,60.7665367126,95.5145797729,4.91601276398
1646391881060736896,192,1646391881060736896,r1000913c5/base_front_laser_link,0,1646391881060736896,v/m1vw10zy74w/map,-11.5858128184,-1.41132676235,0.165,0.0,0.0,0.716493021709,-0.697594258751,0,61.2263259888,60.7689208984,95.4788360596,4.90330600739
1646391881296701386,193,1646391881296701386,r1000913c5/base_front_laser_link,0,1646391881296701386,v/m1vw10zy74w/map,-11.5839246322,-1.34352879906,0.165,0.0,0.0,0.716405454549,-0.69768418693,0,61.3409461975,60.7718696594,95.4441452026,4.89075899124
1646391881374676535,194,1646391881374676535,r1000913c5/base_front_laser_link,0,1646391881374676535,v/m1vw10zy74w/map,-11.580563999,-1.31320419876,0.165,0.0,0.0,0.717026249001,-0.697046166508,0,62.6155357361,60.7813224792,95.4210968018,4.8799238205
1646391881454420897,195,1646391881454420897,r1000913c5/base_front_laser_link,0,1646391881454420897,v/m1vw10zy74w/map,-11.5799177198,-1.29035315286,0.165,0.0,0.0,0.717028359592,-0.697043995413,0,66.8865814209,60.8124732971,95.4731445312,4.88689184189
1646391881532827805,196,1646391881532827805,r1000913c5/base_front_laser_link,0,1646391881532827805,v/m1vw10zy74w/map,-11.5792969311,-1.26771211391,0.165,0.0,0.0,0.717056480335,-0.697015067275,0,64.9720535278,60.8335876465,95.4838180542,4.88340997696
1646391881611732212,197,1646391881611732212,r1000913c5/base_front_laser_link,0,1646391881611732212,v/m1vw10zy74w/map,-11.5786550705,-1.2453011091,0.165,0.0,0.0,0.717049514566,-0.697022233262,0,65.3747253418,60.8565216064,95.5015563965,4.88167905807
1646391881925853711,198,1646391881925853711,r1000913c5/base_front_laser_link,0,1646391881925853711,v/m1vw10zy74w/map,-11.5773719276,-1.15302688465,0.165,0.0,0.0,0.716833450286,-0.69724443673,0,61.6307601929,60.8604125977,95.4693527222,4.86964511871
1646391882084795361,199,1646391882084795361,r1000913c5/base_front_laser_link,0,1646391882084795361,v/m1vw10zy74w/map,-11.5760837503,-1.10743650004,0.165,0.0,0.0,0.716807383379,-0.697271234982,0,66.0984115601,60.8866043091,95.5010910034,4.87149524689
1646391882241644349,200,1646391882241644349,r1000913c5/base_front_laser_link,0,1646391882241644349,v/m1vw10zy74w/map,-11.5748623214,-1.06302193422,0.165,0.0,0.0,0.716815608852,-0.697262778947,0,64.0700683594,60.9024429321,95.4959030151,4.8644862175
1646391882397743067,201,1646391882397743067,r1000913c5/base_front_laser_link,0,1646391882397743067,v/m1vw10zy74w/map,-11.5735780736,-1.01935246062,0.165,0.0,0.0,0.716176486243,-0.697919222083,0,63.3666801453,60.914642334,95.4810409546,4.85546731949
1646391882476892164,202,1646391882476892164,r1000913c5/base_front_laser_link,0,1646391882476892164,v/m1vw10zy74w/map,-11.5729968443,-0.996841109563,0.165,0.0,0.0,0.716176580129,-0.69791912574,0,61.5669288635,60.9178543091,95.4488067627,4.84365034103
1646391882634720767,203,1646391882634720767,r1000913c5/base_front_laser_link,0,1646391882634720767,v/m1vw10zy74w/map,-11.5718154604,-0.951020337744,0.165,0.0,0.0,0.716179354941,-0.697916278329,0,62.2839241028,60.9245491028,95.4225082397,4.83265209198
1646391882712758706,204,1646391882712758706,r1000913c5/base_front_laser_link,0,1646391882712758706,v/m1vw10zy74w/map,-11.5703501477,-0.934447300119,0.165,0.0,0.0,0.717810252688,-0.696238781695,0,61.2161712646,60.9259719849,95.3884811401,4.82083559036
1646391882871692969,205,1646391882871692969,r1000913c5/base_front_laser_link,0,1646391882871692969,v/m1vw10zy74w/map,-11.5686707563,-0.890027472741,0.165,0.0,0.0,0.717978084051,-0.696065708696,0,62.8921585083,60.9355163574,95.368560791,4.81101369858
1646391883028559999,206,1646391883028559999,r1000913c5/base_front_laser_link,0,1646391883028559999,v/m1vw10zy74w/map,-11.5672737651,-0.84559195471,0.165,0.0,0.0,0.717957173936,-0.69608727642,0,61.5037002563,60.9382629395,95.3367156982,4.79948472977
1646391883106746325,207,1646391883106746325,r1000913c5/base_front_laser_link,0,1646391883106746325,v/m1vw10zy74w/map,-11.5670465063,-0.81043100676,0.165,0.0,0.0,0.71793097729,-0.696114295103,0,61.9958572388,60.9433479309,95.3086624146,4.78843927383
1646391885942984531,208,1646391885942984531,r1000913c5/base_front_laser_link,0,1646391885942984531,v/m1vw10zy74w/map,-11.5575877442,-0.695847627338,0.165,0.0,0.0,0.713587757012,-0.700565852039,0,59.5516738892,60.9366874695,95.2703399658,4.77788496017
1646391886179831753,209,1646391886179831753,r1000913c5/base_front_laser_link,0,1646391886179831753,v/m1vw10zy74w/map,-11.5523227722,-0.722992056386,0.165,0.0,0.0,0.707720661242,-0.706492367723,0,60.2504882812,60.9334220886,95.2334518433,4.7666759491
1646391886257010205,210,1646391886257010205,r1000913c5/base_front_laser_link,0,1646391886257010205,v/m1vw10zy74w/map,-11.5487820192,-0.73254689973,0.165,0.0,0.0,0.703988128439,-0.710211739566,0,59.6633338928,60.9274024963,95.1957550049,4.75611686707
1646391886415163343,211,1646391886415163343,r1000913c5/base_front_laser_link,0,1646391886415163343,v/m1vw10zy74w/map,-11.5365595366,-0.753966460932,0.165,0.0,0.0,0.691443780618,-0.722430272237,0,59.9591407776,60.922832489,95.1587295532,4.74529933929
1646391886573051860,212,1646391886573051860,r1000913c5/base_front_laser_link,0,1646391886573051860,v/m1vw10zy74w/map,-11.5203900203,-0.77844924244,0.165,0.0,0.0,0.675482922139,-0.737375631479,0,63.8445625305,60.9365501404,95.1515274048,4.73832511902
1646391886730079045,213,1646391886730079045,r1000913c5/base_front_laser_link,0,1646391886730079045,v/m1vw10zy74w/map,-11.4991855915,-0.804308330385,0.165,0.0,0.0,0.655133584665,-0.755513061597,0,58.5833015442,60.9255561829,95.1153335571,4.72992563248
1646391886967305768,214,1646391886967305768,r1000913c5/base_front_laser_link,0,1646391886967305768,v/m1vw10zy74w/map,-11.4575538092,-0.844646026603,0.165,0.0,0.0,0.616566052451,-0.787303183637,0,59.71276474,60.9199142456,95.0786743164,4.71958637238
1646391887202950924,215,1646391887202950924,r1000913c5/base_front_laser_link,0,1646391887202950924,v/m1vw10zy74w/map,-11.4036224554,-0.884583622793,0.165,0.0,0.0,0.564500625058,-0.825432640685,0,55.5208129883,60.8949165344,95.0636367798,4.72290658951
1646391887283102410,216,1646391887283102410,r1000913c5/base_front_laser_link,0,1646391887283102410,v/m1vw10zy74w/map,-11.380133889,-0.895831133308,0.165,0.0,0.0,0.542775151419,-0.839878047696,0,56.3375968933,60.873916626,95.0402374268,4.72210645676
1646391887518969230,217,1646391887518969230,r1000913c5/base_front_laser_link,0,1646391887518969230,v/m1vw10zy74w/map,-11.3115301535,-0.915301128088,0.165,0.0,0.0,-0.473491006003,0.880798653061,0,56.670009613,60.8546333313,95.0140609741,4.71980905533
1646391887676056971,218,1646391887676056971,r1000913c5/base_front_laser_link,0,1646391887676056971,v/m1vw10zy74w/map,-11.2884287224,-0.906968063278,0.165,0.0,0.0,-0.44238637701,0.896824561124,0,58.2613945007,60.842792511,94.9794845581,4.71223115921
1646391887833951401,219,1646391887833951401,r1000913c5/base_front_laser_link,0,1646391887833951401,v/m1vw10zy74w/map,-11.2731422839,-0.894227142015,0.165,0.0,0.0,-0.418687001275,0.908130604574,0,54.9938850403,60.816204071,94.9701080322,4.7179684639
1646391888384049705,220,1646391888384049705,r1000913c5/base_front_laser_link,0,1646391888384049705,v/m1vw10zy74w/map,-11.2423317444,-0.836617198049,0.165,0.0,0.0,-0.341668045287,0.939820699298,0,57.3128471375,60.8003540039,94.939743042,4.71312904358
1646391888463004124,221,1646391888463004124,r1000913c5/base_front_laser_link,0,1646391888463004124,v/m1vw10zy74w/map,-11.2397538722,-0.83597933672,0.165,0.0,0.0,-0.338656945508,0.940909917717,0,58.5911865234,60.7904014587,94.9047698975,4.70479059219
1646391888541072781,222,1646391888541072781,r1000913c5/base_front_laser_link,0,1646391888541072781,v/m1vw10zy74w/map,-11.2308112111,-0.844008568568,0.165,0.0,0.0,-0.336078936777,0.941833821995,0,57.6698074341,60.7764091492,94.8729019165,4.69883108139
1646391888778155149,223,1646391888778155149,r1000913c5/base_front_laser_link,0,1646391888778155149,v/m1vw10zy74w/map,-11.2078367394,-0.851130507514,0.165,0.0,0.0,-0.320964869647,0.947091100398,0,56.4341583252,60.7570228577,94.848777771,4.69725227356
1646391888935132996,224,1646391888935132996,r1000913c5/base_front_laser_link,0,1646391888935132996,v/m1vw10zy74w/map,-11.1898693925,-0.849826986583,0.165,0.0,0.0,-0.304292712963,0.952578576726,0,57.6626205444,60.743270874,94.8171539307,4.69129371643
1646391889250257728,225,1646391889250257728,r1000913c5/base_front_laser_link,0,1646391889250257728,v/m1vw10zy74w/map,-11.1450811559,-0.841369556798,0.165,0.0,0.0,-0.261472469743,0.965210934235,0,60.3280563354,60.7414321899,94.7842483521,4.6809387207
1646391889566096114,226,1646391889566096114,r1000913c5/base_front_laser_link,0,1646391889566096114,v/m1vw10zy74w/map,-11.0879473296,-0.83105206583,0.165,0.0,0.0,-0.209973741086,0.977707025675,0,62.9462776184,60.7511444092,94.7697372437,4.67286300659
1646391889723114855,227,1646391889723114855,r1000913c5/base_front_laser_link,0,1646391889723114855,v/m1vw10zy74w/map,-11.0550025708,-0.825927546041,0.165,0.0,0.0,-0.183955453307,0.982934581342,0,60.8842468262,60.7517280579,94.7394332886,4.66256713867
1646391890038865774,228,1646391890038865774,r1000913c5/base_front_laser_link,0,1646391890038865774,v/m1vw10zy74w/map,-10.9877071252,-0.80839847813,0.165,0.0,0.0,-0.125355000482,0.992111951271,0,58.911907196,60.7436943054,94.7054519653,4.65391969681
1646391890276009925,229,1646391890276009925,r1000913c5/base_front_laser_link,0,1646391890276009925,v/m1vw10zy74w/map,-10.9296099544,-0.791219509373,0.165,0.0,0.0,-0.0827683886564,0.996568810389,0,61.6757354736,60.7477493286,94.6802062988,4.64415359497
1646391890511233671,230,1646391890511233671,r1000913c5/base_front_laser_link,0,1646391890511233671,v/m1vw10zy74w/map,-10.869879537,-0.775213276406,0.165,0.0,0.0,-0.0493932132955,0.998779410321,0,61.4214324951,60.7506637573,94.6534423828,4.6342587471
1646391890590101899,231,1646391890590101899,r1000913c5/base_front_laser_link,0,1646391890590101899,v/m1vw10zy74w/map,-10.8480138059,-0.768778174923,0.165,0.0,0.0,-0.0406809680733,0.999172186781,0,63.2234039307,60.7613220215,94.6425170898,4.62706565857
1646391890668288977,232,1646391890668288977,r1000913c5/base_front_laser_link,0,1646391890668288977,v/m1vw10zy74w/map,-10.8254485945,-0.764888228273,0.165,0.0,0.0,-0.032673008195,0.99946609474,0,65.1589889526,60.7801971436,94.6583862305,4.62606287003
1646391890904081910,233,1646391890904081910,r1000913c5/base_front_laser_link,0,1646391890904081910,v/m1vw10zy74w/map,-10.7489969149,-0.755607634318,0.165,0.0,0.0,-0.0117349647432,0.999931142931,0,64.0679779053,60.7942466736,94.657623291,4.62112569809
1646391891141185165,234,1646391891141185165,r1000913c5/base_front_laser_link,0,1646391891141185165,v/m1vw10zy74w/map,-10.6700034126,-0.746090997516,0.165,0.0,0.0,0.00364358861501,0.999993362109,0,64.6932220459,60.810836792,94.6655883789,4.61824989319
1646391891298154644,235,1646391891298154644,r1000913c5/base_front_laser_link,0,1646391891298154644,v/m1vw10zy74w/map,-10.6144121132,-0.741088493374,0.165,0.0,0.0,0.00998196840334,0.999950178912,0,67.2175750732,60.8379859924,94.7197189331,4.62724542618
1646391891456179547,236,1646391891456179547,r1000913c5/base_front_laser_link,0,1646391891456179547,v/m1vw10zy74w/map,-10.5574236155,-0.734791981328,0.165,0.0,0.0,0.0153867658356,0.999881616711,0,67.0347671509,60.8641319275,94.7689590454,4.63494300842
1646391891535325664,237,1646391891535325664,r1000913c5/base_front_laser_link,0,1646391891535325664,v/m1vw10zy74w/map,-10.5267588007,-0.732604733439,0.165,0.0,0.0,0.0171538553807,0.999852861798,0,65.064781189,60.8817825317,94.7812728882,4.63316249847
1646391891850142452,238,1646391891850142452,r1000913c5/base_front_laser_link,0,1646391891850142452,v/m1vw10zy74w/map,-10.4048777911,-0.721714728204,0.165,0.0,0.0,0.0198438066064,0.999803092283,0,64.9699249268,60.8988876343,94.791809082,4.63097476959
