%time,field.header.seq,field.header.stamp,field.header.frame_id,field.pose.header.seq,field.pose.header.stamp,field.pose.header.frame_id,field.pose.pose.position.x,field.pose.pose.position.y,field.pose.pose.position.z,field.pose.pose.orientation.x,field.pose.pose.orientation.y,field.pose.pose.orientation.z,field.pose.pose.orientation.w,field.label,field.current_error,field.mean,field.threshold,field.std_dev
1646506480159866575,0,1646506480159866575,r1000913c5/base_front_laser_link,0,1646506480159866575,v/m1vw10zy74w/map,-2.88367945187,-2.26363720063,0.165,0.0,0.0,-0.69441066571,0.719578923641,0,61.0971450806,61.0971450806,nan,nan
1646506480396653295,1,1646506480396653295,r1000913c5/base_front_laser_link,0,1646506480396653295,v/m1vw10zy74w/map,-2.88049064262,-2.26265293579,0.165,0.0,0.0,-0.690937759427,0.722914249823,0,59.9846420288,60.5408935547,82.9008712769,0.786658644676
1646506480475941099,2,1646506480475941099,r1000913c5/base_front_laser_link,0,1646506480475941099,v/m1vw10zy74w/map,-2.87663982691,-2.26364998089,0.165,0.0,0.0,-0.686819081352,0.726828418191,0,61.0330696106,60.70495224,82.5788421631,0.624629259109
1646506480632812441,3,1646506480632812441,r1000913c5/base_front_laser_link,0,1646506480632812441,v/m1vw10zy74w/map,-2.86168492536,-2.26207772835,0.165,0.0,0.0,-0.670339464191,0.742054582054,0,61.7933197021,60.9770431519,83.2144927979,0.745816767216
1646506480870688046,4,1646506480870688046,r1000913c5/base_front_laser_link,0,1646506480870688046,v/m1vw10zy74w/map,-2.82851949616,-2.25644912034,0.165,0.0,0.0,-0.632233688223,0.77477775102,0,61.3524436951,61.0521240234,83.0541992188,0.667358279228
1646506481026877205,5,1646506481026877205,r1000913c5/base_front_laser_link,0,1646506481026877205,v/m1vw10zy74w/map,-2.80437589827,-2.25074914864,0.165,0.0,0.0,-0.603083349429,0.797678176736,0,58.0647659302,60.5542297363,84.6276931763,1.35782182217
1646506481185669915,6,1646506481185669915,r1000913c5/base_front_laser_link,0,1646506481185669915,v/m1vw10zy74w/map,-2.78097149238,-2.24368524461,0.165,0.0,0.0,-0.573543025906,0.819175437519,0,57.1745414734,60.0714187622,85.4112091064,1.77993142605
1646506481421932260,7,1646506481421932260,r1000913c5/base_front_laser_link,0,1646506481421932260,v/m1vw10zy74w/map,-2.75283531044,-2.23607832169,0.165,0.0,0.0,-0.532808514022,0.846235834378,0,55.2952003479,59.4743919373,86.5527954102,2.35946941376
1646506481656858131,8,1646506481656858131,r1000913c5/base_front_laser_link,0,1646506481656858131,v/m1vw10zy74w/map,-2.72123331025,-2.22066430064,0.165,0.0,0.0,-0.488220120951,0.87272052428,0,56.3881072998,59.1314697266,86.4366760254,2.43506836891
1646506481736934563,9,1646506481736934563,r1000913c5/base_front_laser_link,0,1646506481736934563,v/m1vw10zy74w/map,-2.70982501871,-2.21522481318,0.165,0.0,0.0,-0.472724746493,0.881210141824,0,57.0639381409,58.9247169495,86.0859832764,2.38708758354
1646506481972883987,10,1646506481972883987,r1000913c5/base_front_laser_link,0,1646506481972883987,v/m1vw10zy74w/map,-2.68247395738,-2.19847581702,0.165,0.0,0.0,-0.424185948392,0.905575110737,0,58.9873390198,58.9304084778,85.7244186401,2.26466870308
1646506482209976894,11,1646506482209976894,r1000913c5/base_front_laser_link,0,1646506482209976894,v/m1vw10zy74w/map,-2.65451527759,-2.17062724142,0.165,0.0,0.0,-0.373626618512,0.927579187961,0,53.8940620422,58.5107154846,86.32006073,2.60311579704
1646506482524299712,12,1646506482524299712,r1000913c5/base_front_laser_link,0,1646506482524299712,v/m1vw10zy74w/map,-2.61868296945,-2.12551779269,0.165,0.0,0.0,-0.305578077768,0.952167022317,0,49.4457588196,57.8134117126,88.4338150024,3.54013586044
1646506482602734528,13,1646506482602734528,r1000913c5/base_front_laser_link,0,1646506482602734528,v/m1vw10zy74w/map,-2.6098064467,-2.11695487881,0.165,0.0,0.0,-0.288715992239,0.957414787762,0,48.5197715759,57.1495780945,89.7845077515,4.21164178848
1646506482838939612,14,1646506482838939612,r1000913c5/base_front_laser_link,0,1646506482838939612,v/m1vw10zy74w/map,-2.59077245784,-2.0916791733,0.165,0.0,0.0,-0.237548865013,0.97137558994,0,50.4953460693,56.7059631348,89.9273757935,4.40713691711
1646506482918078541,15,1646506482918078541,r1000913c5/base_front_laser_link,0,1646506482918078541,v/m1vw10zy74w/map,-2.58497627575,-2.08055928116,0.165,0.0,0.0,-0.22002788549,0.975493582555,0,52.6330757141,56.4514083862,89.5846862793,4.3777589798
1646506482996975017,16,1646506482996975017,r1000913c5/base_front_laser_link,0,1646506482996975017,v/m1vw10zy74w/map,-2.57998884972,-2.06962098579,0.165,0.0,0.0,-0.20247588507,0.979287248955,0,50.3204650879,56.090763092,89.5667648315,4.49199962616
1646506483153925413,17,1646506483153925413,r1000913c5/base_front_laser_link,0,1646506483153925413,v/m1vw10zy74w/map,-2.57355259042,-2.04356683666,0.165,0.0,0.0,-0.167495053141,0.98587291634,0,51.7577590942,55.8500404358,89.2779083252,4.47595453262
1646506483468839232,18,1646506483468839232,r1000913c5/base_front_laser_link,0,1646506483468839232,v/m1vw10zy74w/map,-2.55790386852,-1.99679462066,0.165,0.0,0.0,-0.0975472335219,0.995230896442,0,48.8035964966,55.4791755676,89.4007415771,4.64052200317
1646506483626973354,19,1646506483626973354,r1000913c5/base_front_laser_link,0,1646506483626973354,v/m1vw10zy74w/map,-2.55141773232,-1.97424872785,0.165,0.0,0.0,-0.0622739373241,0.998059094809,0,48.8970108032,55.1500663757,89.4015808105,4.75050497055
1646506483863113482,20,1646506483863113482,r1000913c5/base_front_laser_link,0,1646506483863113482,v/m1vw10zy74w/map,-2.54316375672,-1.93972415657,0.165,0.0,0.0,-0.00793590177429,0.999968510236,0,52.4923400879,55.0235099792,89.0227127075,4.66639995575
1646506484020077353,21,1646506484020077353,r1000913c5/base_front_laser_link,0,1646506484020077353,v/m1vw10zy74w/map,-2.54568221818,-1.91615620526,0.165,0.0,0.0,0.0264750765338,0.999649473727,0,52.116897583,54.8913917542,88.6791229248,4.59591007233
1646506484099584160,22,1646506484099584160,r1000913c5/base_front_laser_link,0,1646506484099584160,v/m1vw10zy74w/map,-2.54662057028,-1.90422870754,0.165,0.0,0.0,0.0443265362966,0.99901709604,0,52.1359214783,54.7715873718,88.352142334,4.52685260773
1646506484335961766,23,1646506484335961766,r1000913c5/base_front_laser_link,0,1646506484335961766,v/m1vw10zy74w/map,-2.55995621065,-1.84423438785,0.165,0.0,0.0,0.0977883633662,0.995207232686,0,54.4159317017,54.7567672729,88.0406036377,4.42794418335
1646506484493068332,24,1646506484493068332,r1000913c5/base_front_laser_link,0,1646506484493068332,v/m1vw10zy74w/map,-2.55911413607,-1.84142360187,0.165,0.0,0.0,0.132258079775,0.99121531482,0,55.6077308655,54.7908058167,87.8049697876,4.33805370331
1646506484571988560,25,1646506484571988560,r1000913c5/base_front_laser_link,0,1646506484571988560,v/m1vw10zy74w/map,-2.56238654446,-1.83003150163,0.165,0.0,0.0,0.149787420446,0.988718225116,0,55.5924034119,54.8216362,87.5815811157,4.25331354141
1646506484729073585,26,1646506484729073585,r1000913c5/base_front_laser_link,0,1646506484729073585,v/m1vw10zy74w/map,-2.56797111151,-1.79983165547,0.165,0.0,0.0,0.183469992634,0.983025310866,0,49.2757873535,54.6162338257,87.531578064,4.30511426926
1646506484808000255,27,1646506484808000255,r1000913c5/base_front_laser_link,0,1646506484808000255,v/m1vw10zy74w/map,-2.57246872579,-1.7888647663,0.165,0.0,0.0,0.20084247929,0.979623549387,0,49.9415817261,54.4492835999,87.3973388672,4.31601715088
1646506484965127317,28,1646506484965127317,r1000913c5/base_front_laser_link,0,1646506484965127317,v/m1vw10zy74w/map,-2.56808821937,-1.7281303174,0.165,0.0,0.0,0.236274656966,0.971686310738,0,51.2746772766,54.3398132324,87.1769561768,4.27904653549
1646506485280320617,29,1646506485280320617,r1000913c5/base_front_laser_link,0,1646506485280320617,v/m1vw10zy74w/map,-2.60835136358,-1.71981477177,0.165,0.0,0.0,0.303325268625,0.952887076948,0,51.6624946594,54.2505722046,86.9493942261,4.23294067383
1646506486226186792,30,1646506486226186792,r1000913c5/base_front_laser_link,0,1646506486226186792,v/m1vw10zy74w/map,-2.69477841573,-1.63672575972,0.165,0.0,0.0,0.446069060096,0.894998543924,0,51.3729476929,54.1577453613,86.7390365601,4.19376325607
1646506486461453338,31,1646506486461453338,r1000913c5/base_front_laser_link,0,1646506486461453338,v/m1vw10zy74w/map,-2.68245187946,-1.61766501082,0.165,0.0,0.0,0.453220523238,0.89139842793,0,49.6586608887,54.0171470642,86.6217422485,4.20153045654
1646506486697333264,32,1646506486697333264,r1000913c5/base_front_laser_link,0,1646506486697333264,v/m1vw10zy74w/map,-2.68223059103,-1.59106114271,0.165,0.0,0.0,0.473084646012,0.881016979239,0,49.3376045227,53.8753433228,86.5198287964,4.21482944489
1646506486855764273,33,1646506486855764273,r1000913c5/base_front_laser_link,0,1646506486855764273,v/m1vw10zy74w/map,-2.6794702168,-1.57129146259,0.165,0.0,0.0,0.484110102184,0.875007090807,0,48.9666786194,53.73097229,86.4359359741,4.2349896431
1646506487012318706,34,1646506487012318706,r1000913c5/base_front_laser_link,0,1646506487012318706,v/m1vw10zy74w/map,-2.67613719614,-1.54940604445,0.165,0.0,0.0,0.49526915702,0.868739582444,0,50.9906311035,53.6526756287,86.2463150024,4.19787883759
1646506487328380772,35,1646506487328380772,r1000913c5/base_front_laser_link,0,1646506487328380772,v/m1vw10zy74w/map,-2.67825073563,-1.49896970303,0.165,0.0,0.0,0.518612994766,0.855009100337,0,54.7582359314,53.6833839417,86.1081161499,4.14157581329
1646506487485252876,36,1646506487485252876,r1000913c5/base_front_laser_link,0,1646506487485252876,v/m1vw10zy74w/map,-2.67198033643,-1.47002228846,0.165,0.0,0.0,0.528184240765,0.849129794441,0,55.8148803711,53.7409934998,86.0369567871,4.09865570068
1646506487642501203,37,1646506487642501203,r1000913c5/base_front_laser_link,0,1646506487642501203,v/m1vw10zy74w/map,-2.66483570511,-1.43755000295,0.165,0.0,0.0,0.537806937535,0.843068026875,0,56.0419044495,53.8015441895,85.9817886353,4.06008291245
1646506487879324475,38,1646506487879324475,r1000913c5/base_front_laser_link,0,1646506487879324475,v/m1vw10zy74w/map,-2.65175387085,-1.37967775086,0.165,0.0,0.0,0.55212573182,0.833760862755,0,54.8642425537,53.828792572,85.858543396,4.00991678238
1646506488036326177,39,1646506488036326177,r1000913c5/base_front_laser_link,0,1646506488036326177,v/m1vw10zy74w/map,-2.64444668348,-1.34032351594,0.165,0.0,0.0,0.562303165535,0.826931164021,0,55.2622375488,53.8646278381,85.7585983276,3.96465730667
1646506488272243363,40,1646506488272243363,r1000913c5/base_front_laser_link,0,1646506488272243363,v/m1vw10zy74w/map,-2.62158644895,-1.28542263932,0.165,0.0,0.0,0.579512717928,0.814963195341,0,57.1950302124,53.9458580017,85.7934188843,3.94918632507
1646506488431040949,41,1646506488431040949,r1000913c5/base_front_laser_link,0,1646506488431040949,v/m1vw10zy74w/map,-2.61645186005,-1.23860357769,0.165,0.0,0.0,0.593609409078,0.804753297262,0,56.2944107056,54.0017776489,85.7543487549,3.91752552986
1646506488588138629,42,1646506488588138629,r1000913c5/base_front_laser_link,0,1646506488588138629,v/m1vw10zy74w/map,-2.61739594477,-1.18759203852,0.165,0.0,0.0,0.611534200098,0.791217999106,0,55.7402496338,54.0422058105,85.6812362671,3.87967634201
1646506488903179856,43,1646506488903179856,r1000913c5/base_front_laser_link,0,1646506488903179856,v/m1vw10zy74w/map,-2.64911929385,-1.04493668573,0.165,0.0,0.0,0.660925939452,0.750451132692,0,57.5087356567,54.1209907532,85.7302322388,3.86974859238
1646506488982349330,44,1646506488982349330,r1000913c5/base_front_laser_link,0,1646506488982349330,v/m1vw10zy74w/map,-2.65937239947,-1.01500729423,0.165,0.0,0.0,0.675926549431,0.736968995124,0,59.9460258484,54.2504348755,86.0189437866,3.92283535004
1646506489218000272,45,1646506489218000272,r1000913c5/base_front_laser_link,0,1646506489218000272,v/m1vw10zy74w/map,-2.70339796614,-0.920936596087,0.165,0.0,0.0,0.723810286287,0.689999035843,0,59.3960266113,54.3622970581,86.2197952271,3.9525001049
1646506489376295362,46,1646506489376295362,r1000913c5/base_front_laser_link,0,1646506489376295362,v/m1vw10zy74w/map,-2.74364013348,-0.85906294626,0.165,0.0,0.0,0.758656794202,0.651490497714,0,59.7599983215,54.477142334,86.440536499,3.98779892921
1646506489612151937,47,1646506489612151937,r1000913c5/base_front_laser_link,0,1646506489612151937,v/m1vw10zy74w/map,-2.83020795189,-0.776003172097,0.165,0.0,0.0,0.813753403405,0.58121028763,0,66.3103408813,54.7236671448,87.6206512451,4.29899597168
1646506489770379254,48,1646506489770379254,r1000913c5/base_front_laser_link,0,1646506489770379254,v/m1vw10zy74w/map,-2.90059070787,-0.728550810401,0.165,0.0,0.0,0.852148605164,0.52329987074,0,60.9252510071,54.850227356,87.8859939575,4.3452539444
1646506489849442209,49,1646506489849442209,r1000913c5/base_front_laser_link,0,1646506489849442209,v/m1vw10zy74w/map,-2.94158783857,-0.708179832183,0.165,0.0,0.0,0.870004842108,0.493043177326,0,62.5434799194,55.0040931702,88.3126068115,4.43617200851
1646506490007364500,50,1646506490007364500,r1000913c5/base_front_laser_link,0,1646506490007364500,v/m1vw10zy74w/map,-3.03228075571,-0.66308624292,0.165,0.0,0.0,0.903541651734,0.428500272558,0,62.6556930542,55.1541252136,88.7153244019,4.52039909363
1646506490085161050,51,1646506490085161050,r1000913c5/base_front_laser_link,0,1646506490085161050,v/m1vw10zy74w/map,-3.07597133309,-0.650501084979,0.165,0.0,0.0,0.918675842432,0.3950122739,0,64.7501983643,55.3386650085,89.34715271,4.66949653625
1646506490400183146,52,1646506490400183146,r1000913c5/base_front_laser_link,0,1646506490400183146,v/m1vw10zy74w/map,-3.25822593949,-0.618138615169,0.165,0.0,0.0,-0.962523494272,-0.271198309313,0,67.0635375977,55.5598907471,90.2503051758,4.89680624008
1646506490557376745,53,1646506490557376745,r1000913c5/base_front_laser_link,0,1646506490557376745,v/m1vw10zy74w/map,-3.35559181026,-0.604851442501,0.165,0.0,0.0,-0.976522020429,-0.215417602851,0,67.9834289551,55.7899551392,91.1997146606,5.13658571243
1646506490637451262,54,1646506490637451262,r1000913c5/base_front_laser_link,0,1646506490637451262,v/m1vw10zy74w/map,-3.40301200386,-0.601970479561,0.165,0.0,0.0,-0.982252063004,-0.187565681096,0,72.9288787842,56.1015701294,92.8685073853,5.58897924423
1646506490873192724,55,1646506490873192724,r1000913c5/base_front_laser_link,0,1646506490873192724,v/m1vw10zy74w/map,-3.54504669757,-0.608949680576,0.165,0.0,0.0,-0.993443785258,-0.114321675688,0,75.3515548706,56.4453201294,94.7639846802,6.10622024536
1646506491029327449,56,1646506491029327449,r1000913c5/base_front_laser_link,0,1646506491029327449,v/m1vw10zy74w/map,-3.64250336178,-0.616225549085,0.165,0.0,0.0,-0.997400200649,-0.0720613609706,0,71.87550354,56.7160263062,95.8778152466,6.38726329803
1646506491187561049,57,1646506491187561049,r1000913c5/base_front_laser_link,0,1646506491187561049,v/m1vw10zy74w/map,-3.73940096713,-0.636125234344,0.165,0.0,0.0,-0.999291259564,-0.0376427756505,0,72.5336761475,56.9887428284,96.9776535034,6.66296863556
1646506491345191549,58,1646506491345191549,r1000913c5/base_front_laser_link,0,1646506491345191549,v/m1vw10zy74w/map,-3.82221998602,-0.659383926926,0.165,0.0,0.0,-0.999853280283,-0.0171294455983,0,70.148765564,57.2117958069,97.683380127,6.82386064529
1646506491423376032,59,1646506491423376032,r1000913c5/base_front_laser_link,0,1646506491423376032,v/m1vw10zy74w/map,-3.87060859802,-0.664206254812,0.165,0.0,0.0,-0.999954489736,-0.00954035932358,0,70.5582122803,57.4342346191,98.3794403076,6.98173475266
1646506491659406484,60,1646506491659406484,r1000913c5/base_front_laser_link,0,1646506491659406484,v/m1vw10zy74w/map,-4.02049372517,-0.678629676545,0.165,0.0,0.0,-0.999993412465,0.00362974201622,0,67.02784729,57.591506958,98.685798645,7.03143072128
1646506491738425553,61,1646506491738425553,r1000913c5/base_front_laser_link,0,1646506491738425553,v/m1vw10zy74w/map,-4.07374915122,-0.680392183621,0.165,0.0,0.0,-0.999984825478,0.00550897569632,0,65.236289978,57.7148094177,98.8372650146,7.04081916809
1646506491895545724,62,1646506491895545724,r1000913c5/base_front_laser_link,0,1646506491895545724,v/m1vw10zy74w/map,-4.17640022119,-0.692116627237,0.165,0.0,0.0,-0.999981213875,0.00612959199819,0,66.7564849854,57.8583297729,99.0866317749,7.07610177994
1646506492052401460,63,1646506492052401460,r1000913c5/base_front_laser_link,0,1646506492052401460,v/m1vw10zy74w/map,-4.27953995146,-0.698296322646,0.165,0.0,0.0,-0.999940421282,0.0109157631882,0,64.3193054199,57.9592819214,99.1573486328,7.06602334976
1646506492132261613,64,1646506492132261613,r1000913c5/base_front_laser_link,0,1646506492132261613,v/m1vw10zy74w/map,-4.33664003904,-0.701358447687,0.165,0.0,0.0,-0.999916224163,0.0129439041951,0,63.9094200134,58.0508232117,99.1988525391,7.04934263229
1646506492446515465,65,1646506492446515465,r1000913c5/base_front_laser_link,0,1646506492446515465,v/m1vw10zy74w/map,-4.5654534654,-0.718004104488,0.165,0.0,0.0,-0.999822628651,0.0188337791815,0,68.0011901855,58.201587677,99.505569458,7.10132837296
1646506492524630487,66,1646506492524630487,r1000913c5/base_front_laser_link,0,1646506492524630487,v/m1vw10zy74w/map,-4.61923309922,-0.728650402729,0.165,0.0,0.0,-0.999776253304,0.0211528562806,0,69.1953887939,58.3656730652,99.8881835938,7.17417097092
1646506492683199349,67,1646506492683199349,r1000913c5/base_front_laser_link,0,1646506492683199349,v/m1vw10zy74w/map,-4.74326217887,-0.732917486388,0.165,0.0,0.0,-0.99981847921,0.019052785381,0,67.6128768921,58.5016593933,100.126243591,7.20819330215
1646506492761408110,68,1646506492761408110,r1000913c5/base_front_laser_link,0,1646506492761408110,v/m1vw10zy74w/map,-4.79647142941,-0.735784115363,0.165,0.0,0.0,-0.999841649199,0.0177954074659,0,67.4918365479,58.6319541931,100.341117859,7.23638820648
1646506492918154178,69,1646506492918154178,r1000913c5/base_front_laser_link,0,1646506492918154178,v/m1vw10zy74w/map,-4.92318072259,-0.736139930821,0.165,0.0,0.0,-0.999922954847,0.0124130725425,0,65.7147598267,58.7331352234,100.433540344,7.23346757889
1646506493154205240,70,1646506493154205240,r1000913c5/base_front_laser_link,0,1646506493154205240,v/m1vw10zy74w/map,-5.11417159022,-0.747782049375,0.165,0.0,0.0,-0.999978493511,0.00655839270263,0,65.6873397827,58.8310813904,100.517723083,7.2288813591
1646506493234608779,71,1646506493234608779,r1000913c5/base_front_laser_link,0,1646506493234608779,v/m1vw10zy74w/map,-5.18193084576,-0.747377132313,0.165,0.0,0.0,-0.999992199891,0.00394970345721,0,61.4735527039,58.8677825928,100.421417236,7.18454551697
1646506493391389674,72,1646506493391389674,r1000913c5/base_front_laser_link,0,1646506493391389674,v/m1vw10zy74w/map,-5.31332669313,-0.7500030405,0.165,0.0,0.0,-0.999999726316,0.00073984284604,0,63.9433937073,58.9373130798,100.41481781,7.15916776657
1646506493627329468,73,1646506493627329468,r1000913c5/base_front_laser_link,0,1646506493627329468,v/m1vw10zy74w/map,-5.5284145476,-0.749688804283,0.165,0.0,0.0,-0.999998011951,-0.00199401477333,0,63.5305671692,58.999382019,100.389335632,7.12998485565
1646506493706378321,74,1646506493706378321,r1000913c5/base_front_laser_link,0,1646506493706378321,v/m1vw10zy74w/map,-5.5984760576,-0.749632785017,0.165,0.0,0.0,-0.999994302452,-0.00337565750625,0,63.2589912415,59.0561790466,100.352294922,7.09870576859
1646506493942708431,75,1646506493942708431,r1000913c5/base_front_laser_link,0,1646506493942708431,v/m1vw10zy74w/map,-5.80550903108,-0.744840623758,0.165,0.0,0.0,-0.999978004113,-0.00663259306048,0,65.2159423828,59.1372261047,100.396835327,7.0865354538
1646506494021456312,76,1646506494021456312,r1000913c5/base_front_laser_link,0,1646506494021456312,v/m1vw10zy74w/map,-5.8791206305,-0.743078932008,0.165,0.0,0.0,-0.999971127239,-0.00759899263403,0,65.5786361694,59.2208824158,100.454666138,7.07792758942
1646506494178542259,77,1646506494178542259,r1000913c5/base_front_laser_link,0,1646506494178542259,v/m1vw10zy74w/map,-6.02186051636,-0.738401508868,0.165,0.0,0.0,-0.999951173865,-0.00988179564801,0,63.0309486389,59.2697296143,100.404846191,7.04503774643
1646506494336397267,78,1646506494336397267,r1000913c5/base_front_laser_link,0,1646506494336397267,v/m1vw10zy74w/map,-6.17143880758,-0.737211498463,0.165,0.0,0.0,-0.999943092508,-0.0106682588129,0,66.4261016846,59.3603172302,100.49797821,7.04588651657
1646506494414394767,79,1646506494414394767,r1000913c5/base_front_laser_link,0,1646506494414394767,v/m1vw10zy74w/map,-6.25353916481,-0.735484190656,0.165,0.0,0.0,-0.999947847914,-0.0102128082501,0,63.3658485413,59.4103851318,100.456764221,7.01545858383
1646506494572365187,80,1646506494572365187,r1000913c5/base_front_laser_link,0,1646506494572365187,v/m1vw10zy74w/map,-6.40475223236,-0.739245434456,0.165,0.0,0.0,-0.999974284724,-0.00717146360279,0,66.0739212036,59.4926528931,100.524688721,7.01068019867
1646506494729490029,81,1646506494729490029,r1000913c5/base_front_laser_link,0,1646506494729490029,v/m1vw10zy74w/map,-6.56778784134,-0.73503884757,0.165,0.0,0.0,-0.999978161158,-0.0066088733161,0,63.0882530212,59.5364990234,100.472229004,6.97857522964
1646506494808453008,82,1646506494808453008,r1000913c5/base_front_laser_link,0,1646506494808453008,v/m1vw10zy74w/map,-6.64113757326,-0.734442212065,0.165,0.0,0.0,-0.9999885878,-0.0047774751593,0,59.5934562683,59.5371856689,100.344871521,6.93589496613
1646506494887448997,83,1646506494887448997,r1000913c5/base_front_laser_link,0,1646506494887448997,v/m1vw10zy74w/map,-6.71688949181,-0.734084937922,0.165,0.0,0.0,-0.999993577412,-0.0035840109684,0,61.8667068481,59.5649185181,100.260925293,6.8986697197
1646506494966705411,84,1646506494966705411,r1000913c5/base_front_laser_link,0,1646506494966705411,v/m1vw10zy74w/map,-6.79904220473,-0.734006980992,0.165,0.0,0.0,-0.99999595058,-0.00284584306158,0,62.0609703064,59.5942840576,100.182762146,6.86282587051
1646506495045493799,85,1646506495045493799,r1000913c5/base_front_laser_link,0,1646506495045493799,v/m1vw10zy74w/map,-6.87749962523,-0.736529307882,0.165,0.0,0.0,-0.999998127027,-0.00193544366894,0,61.098072052,59.6117706299,100.084564209,6.82426357269
1646506495202556863,86,1646506495202556863,r1000913c5/base_front_laser_link,0,1646506495202556863,v/m1vw10zy74w/map,-7.04376446246,-0.735761670233,0.165,0.0,0.0,-0.999993120906,-0.00370919671976,0,65.1233520508,59.6751213074,100.10559082,6.81015586853
1646506495439630728,87,1646506495439630728,r1000913c5/base_front_laser_link,0,1646506495439630728,v/m1vw10zy74w/map,-7.29500863599,-0.734107207694,0.165,0.0,0.0,-0.999993001478,-0.00374125571043,0,62.6501350403,59.7089271545,100.043907166,6.77832698822
1646506495676462550,88,1646506495676462550,r1000913c5/base_front_laser_link,0,1646506495676462550,v/m1vw10zy74w/map,-7.55728770892,-0.73058047338,0.165,0.0,0.0,-0.999996071913,-0.00280288407022,0,60.4096450806,59.7168006897,99.9371414185,6.74011278152
1646506495832588334,89,1646506495832588334,r1000913c5/base_front_laser_link,0,1646506495832588334,v/m1vw10zy74w/map,-7.72881728437,-0.725957563529,0.165,0.0,0.0,-0.999997941081,-0.00202924467291,0,62.5691680908,59.7484931946,99.8751373291,6.70888090134
1646506496068621110,90,1646506496068621110,r1000913c5/base_front_laser_link,0,1646506496068621110,v/m1vw10zy74w/map,-7.97741076663,-0.720520285552,0.165,0.0,0.0,-0.999989781491,-0.00452072057265,0,66.664932251,59.8245010376,99.9568634033,6.7107872963
1646506496383922667,91,1646506496383922667,r1000913c5/base_front_laser_link,0,1646506496383922667,v/m1vw10zy74w/map,-8.2154689405,-0.718060159536,0.165,0.0,0.0,-0.999994202195,-0.00340522776553,0,65.8635101318,59.8901405334,100.000480652,6.70344591141
1646506496542701927,92,1646506496542701927,r1000913c5/base_front_laser_link,0,1646506496542701927,v/m1vw10zy74w/map,-8.28932517409,-0.719277749195,0.165,0.0,0.0,-0.999999757101,-0.00069699205066,0,64.6299819946,59.9411087036,99.996131897,6.68500709534
1646506496857645152,93,1646506496857645152,r1000913c5/base_front_laser_link,0,1646506496857645152,v/m1vw10zy74w/map,-8.4121889366,-0.727527913672,0.165,0.0,0.0,-0.999970908303,0.00762774848772,0,63.3408584595,59.9772758484,99.9519042969,6.65820932388
1646506497172290758,94,1646506497172290758,r1000913c5/base_front_laser_link,0,1646506497172290758,v/m1vw10zy74w/map,-8.52142912418,-0.729176060013,0.165,0.0,0.0,-0.999961922758,0.00872657052612,0,62.8916625977,60.0079536438,99.8962860107,6.62944507599
1646506497407707045,95,1646506497407707045,r1000913c5/base_front_laser_link,0,1646506497407707045,v/m1vw10zy74w/map,-8.60980352081,-0.732400843117,0.165,0.0,0.0,-0.999923069466,0.0124038361132,0,66.1499023438,60.0719299316,99.9444961548,6.62418842316
1646506497644730791,96,1646506497644730791,r1000913c5/base_front_laser_link,0,1646506497644730791,v/m1vw10zy74w/map,-8.68070966503,-0.742352142053,0.165,0.0,0.0,-0.999713117685,0.0239516664985,0,67.061050415,60.1439819336,100.027076721,6.6276974678
1646506497801492447,97,1646506497801492447,r1000913c5/base_front_laser_link,0,1646506497801492447,v/m1vw10zy74w/map,-8.73722422408,-0.755340021947,0.165,0.0,0.0,-0.999243408907,0.0388922840197,0,65.1316375732,60.1948776245,100.03288269,6.61266708374
1646506498039788500,98,1646506498039788500,r1000913c5/base_front_laser_link,0,1646506498039788500,v/m1vw10zy74w/map,-8.8033719531,-0.777463823849,0.165,0.0,0.0,-0.99807395924,0.0620352471407,0,66.3128204346,60.2566757202,100.079216003,6.60751438141
1646506498196555293,99,1646506498196555293,r1000913c5/base_front_laser_link,0,1646506498196555293,v/m1vw10zy74w/map,-8.84289324355,-0.794265203068,0.165,0.0,0.0,-0.996902722531,0.078644528164,0,61.6551971436,60.2706604004,99.9972991943,6.57554578781
1646506498432047401,100,1646506498432047401,r1000913c5/base_front_laser_link,0,1646506498432047401,v/m1vw10zy74w/map,-8.90730318735,-0.816457379884,0.165,0.0,0.0,-0.994465391462,0.105064671438,0,65.4609451294,60.3220481873,100.010864258,6.56293725967
1646506498668568765,101,1646506498668568765,r1000913c5/base_front_laser_link,0,1646506498668568765,v/m1vw10zy74w/map,-8.95802091505,-0.852341745337,0.165,0.0,0.0,-0.990341236468,0.138651488814,0,66.8582458496,60.3861312866,100.073204041,6.56235694885
1646506498904593202,102,1646506498904593202,r1000913c5/base_front_laser_link,0,1646506498904593202,v/m1vw10zy74w/map,-9.00120702117,-0.890963778852,0.165,0.0,0.0,-0.9846047226,0.174795709996,0,62.366443634,60.4053573608,100.004425049,6.53302383423
1646506499062850114,103,1646506499062850114,r1000913c5/base_front_laser_link,0,1646506499062850114,v/m1vw10zy74w/map,-9.00395619792,-0.911739940938,0.165,0.0,0.0,-0.979559520439,0.201154532432,0,60.8935508728,60.4100494385,99.914276123,6.5014090538
1646506499220745875,104,1646506499220745875,r1000913c5/base_front_laser_link,0,1646506499220745875,v/m1vw10zy74w/map,-8.99326403246,-0.923666842119,0.165,0.0,0.0,-0.974160260719,0.225857889915,0,59.5376434326,60.4017410278,99.8136520386,6.47063684464
1646506499535696417,105,1646506499535696417,r1000913c5/base_front_laser_link,0,1646506499535696417,v/m1vw10zy74w/map,-8.96877658898,-0.961747585346,0.165,0.0,0.0,-0.955513352683,0.294947847668,0,63.458480835,60.4305801392,99.7703552246,6.44659137726
1646506499692704599,106,1646506499692704599,r1000913c5/base_front_laser_link,0,1646506499692704599,v/m1vw10zy74w/map,-8.95427572615,-0.981414303614,0.165,0.0,0.0,-0.944111510959,0.329626235114,0,61.3363189697,60.4390449524,99.6891708374,6.41670799255
1646506499851763434,107,1646506499851763434,r1000913c5/base_front_laser_link,0,1646506499851763434,v/m1vw10zy74w/map,-8.94193359381,-0.998396259701,0.165,0.0,0.0,-0.932421290932,0.361373126031,0,65.292930603,60.4839859009,99.6951141357,6.40370893478
1646506500008770334,108,1646506500008770334,r1000913c5/base_front_laser_link,0,1646506500008770334,v/m1vw10zy74w/map,-8.92542046789,-1.01491093723,0.165,0.0,0.0,-0.919253753958,0.39366551263,0,61.0281715393,60.4889793396,99.6115951538,6.37420654297
1646506500245106330,109,1646506500245106330,r1000913c5/base_front_laser_link,0,1646506500245106330,v/m1vw10zy74w/map,-8.90308540474,-1.03959791952,0.165,0.0,0.0,-0.898116108226,0.439758406566,0,65.2398147583,60.532169342,99.6153106689,6.36104822159
1646506500401788906,110,1646506500401788906,r1000913c5/base_front_laser_link,0,1646506500401788906,v/m1vw10zy74w/map,-8.8840919337,-1.05082907075,0.165,0.0,0.0,-0.883018716472,0.469337774275,0,61.8542671204,60.5440788269,99.5440139771,6.33331155777
1646506500559585766,111,1646506500559585766,r1000913c5/base_front_laser_link,0,1646506500559585766,v/m1vw10zy74w/map,-8.86401681903,-1.06332923897,0.165,0.0,0.0,-0.865889931545,0.500234571425,0,66.2907333374,60.5953903198,99.5795669556,6.32805919647
1646506500797015406,112,1646506500797015406,r1000913c5/base_front_laser_link,0,1646506500797015406,v/m1vw10zy74w/map,-8.8272842524,-1.07274489722,0.165,0.0,0.0,-0.839282367677,0.543695785624,0,66.3834915161,60.64661026,99.6163101196,6.32323312759
1646506500875117892,113,1646506500875117892,r1000913c5/base_front_laser_link,0,1646506500875117892,v/m1vw10zy74w/map,-8.81331624043,-1.07679611775,0.165,0.0,0.0,-0.830341446124,0.557254953184,0,65.782951355,60.6916656494,99.63230896,6.31354618073
1646506501031744048,114,1646506501031744048,r1000913c5/base_front_laser_link,0,1646506501031744048,v/m1vw10zy74w/map,-8.79237429588,-1.08441950743,0.165,0.0,0.0,-0.811576734504,0.584245842101,0,65.2368469238,60.7311897278,99.6313934326,6.30006742477
1646506501111002794,115,1646506501111002794,r1000913c5/base_front_laser_link,0,1646506501111002794,v/m1vw10zy74w/map,-8.77979940182,-1.08543224806,0.165,0.0,0.0,-0.80249710285,0.596656014733,0,61.0417900085,60.7338676453,99.5519180298,6.27268218994
1646506501346990484,116,1646506501346990484,r1000913c5/base_front_laser_link,0,1646506501346990484,v/m1vw10zy74w/map,-8.75434732548,-1.08983777582,0.165,0.0,0.0,-0.777786593629,0.628528451839,0,61.2441902161,60.7382316589,99.4755249023,6.24576425552
1646506505836205666,117,1646506505836205666,r1000913c5/base_front_laser_link,0,1646506505836205666,v/m1vw10zy74w/map,-8.68406023849,-1.10174759471,0.165,0.0,0.0,-0.713826404059,0.700322686244,0,67.68309021,60.7970848083,99.5524597168,6.2517914772
1646506505913343918,118,1646506505913343918,r1000913c5/base_front_laser_link,0,1646506505913343918,v/m1vw10zy74w/map,-8.68405798189,-1.10175095809,0.165,0.0,0.0,-0.713823975204,0.700325161924,0,67.8241195679,60.856136322,99.6315841675,6.25848388672
1646506506072175409,119,1646506506072175409,r1000913c5/base_front_laser_link,0,1646506506072175409,v/m1vw10zy74w/map,-8.68395782858,-1.10237247834,0.165,0.0,0.0,-0.713707277184,0.700444089485,0,67.9256668091,60.9150466919,99.7114181519,6.26545715332
1646506506151338440,120,1646506506151338440,r1000913c5/base_front_laser_link,0,1646506506151338440,v/m1vw10zy74w/map,-8.68362764437,-1.10630679541,0.165,0.0,0.0,-0.713290172631,0.700868839105,0,69.7690200806,60.9882202148,99.8612289429,6.29100131989
1646506506229270714,121,1646506506229270714,r1000913c5/base_front_laser_link,0,1646506506229270714,v/m1vw10zy74w/map,-8.68314585223,-1.11111266202,0.165,0.0,0.0,-0.71270069542,0.701468259259,0,68.7534713745,61.0518722534,99.9646911621,6.30427408218
1646506506386275949,122,1646506506386275949,r1000913c5/base_front_laser_link,0,1646506506386275949,v/m1vw10zy74w/map,-8.67820221019,-1.13293531368,0.165,0.0,0.0,-0.707267062139,0.706946463894,0,66.1574554443,61.0933799744,99.979095459,6.29523849487
1646506506465244746,123,1646506506465244746,r1000913c5/base_front_laser_link,0,1646506506465244746,v/m1vw10zy74w/map,-8.67515518041,-1.15173481343,0.165,0.0,0.0,-0.704049432954,0.710150967018,0,65.5165100098,61.1290512085,99.9755477905,6.28216600418
1646506506544218562,124,1646506506544218562,r1000913c5/base_front_laser_link,0,1646506506544218562,v/m1vw10zy74w/map,-8.67247622091,-1.17397190758,0.165,0.0,0.0,-0.701405014046,0.71276293834,0,64.5852355957,61.1567001343,99.9499435425,6.26441526413
1646506506622261762,125,1646506506622261762,r1000913c5/base_front_laser_link,0,1646506506622261762,v/m1vw10zy74w/map,-8.67012516488,-1.19799046328,0.165,0.0,0.0,-0.699319678463,0.714809056542,0,63.432308197,61.1747589111,99.902557373,6.24259996414
1646506506780410586,126,1646506506780410586,r1000913c5/base_front_laser_link,0,1646506506780410586,v/m1vw10zy74w/map,-8.66566583829,-1.24506308705,0.165,0.0,0.0,-0.695835116995,0.718201566384,0,63.7455825806,61.1950035095,99.8608856201,6.2219619751
1646506506859428390,127,1646506506859428390,r1000913c5/base_front_laser_link,0,1646506506859428390,v/m1vw10zy74w/map,-8.663715049,-1.26803579886,0.165,0.0,0.0,-0.694553417996,0.71944113696,0,65.5042190552,61.2286682129,99.8560028076,6.20911073685
1646506506937355507,128,1646506506937355507,r1000913c5/base_front_laser_link,0,1646506506937355507,v/m1vw10zy74w/map,-8.66315461271,-1.29079400581,0.165,0.0,0.0,-0.694811201902,0.719192181347,0,68.5783309937,61.2856445312,99.9413528442,6.21856927872
1646506507016369016,129,1646506507016369016,r1000913c5/base_front_laser_link,0,1646506507016369016,v/m1vw10zy74w/map,-8.66413377521,-1.31343656286,0.165,0.0,0.0,-0.696644995492,0.717416023138,0,64.85597229,61.3131065369,99.9200973511,6.20232915878
1646506507173421312,130,1646506507173421312,r1000913c5/base_front_laser_link,0,1646506507173421312,v/m1vw10zy74w/map,-8.66765049248,-1.35807583968,0.165,0.0,0.0,-0.701505459327,0.712664079728,0,70.8422012329,61.385848999,100.088661194,6.23427057266
1646506507252234037,131,1646506507252234037,r1000913c5/base_front_laser_link,0,1646506507252234037,v/m1vw10zy74w/map,-8.6658949163,-1.3779100551,0.165,0.0,0.0,-0.700810214214,0.713347771885,0,68.6088943481,61.4405670166,100.167076111,6.24216985703
1646506507567471188,132,1646506507567471188,r1000913c5/base_front_laser_link,0,1646506507567471188,v/m1vw10zy74w/map,-8.67529592277,-1.46734157675,0.165,0.0,0.0,-0.711151181003,0.703039115382,0,67.3455734253,61.4849662781,100.203544617,6.23952484131
1646506507883325677,133,1646506507883325677,r1000913c5/base_front_laser_link,0,1646506507883325677,v/m1vw10zy74w/map,-8.68509586062,-1.55744707607,0.165,0.0,0.0,-0.719848519865,0.694131189652,0,70.4717941284,61.5520324707,100.344978333,6.26431655884
1646506507962353088,134,1646506507962353088,r1000913c5/base_front_laser_link,0,1646506507962353088,v/m1vw10zy74w/map,-8.68781331366,-1.57904974362,0.165,0.0,0.0,-0.72177856973,0.692124046887,0,68.2748336792,61.6018295288,100.404823303,6.26766300201
1646506508277064470,135,1646506508277064470,r1000913c5/base_front_laser_link,0,1646506508277064470,v/m1vw10zy74w/map,-8.68655621387,-1.66405796974,0.165,0.0,0.0,-0.718597117209,0.695426619521,0,67.9683685303,61.6486434937,100.453315735,6.26822471619
1646506508434505469,136,1646506508434505469,r1000913c5/base_front_laser_link,0,1646506508434505469,v/m1vw10zy74w/map,-8.68800870011,-1.70879089718,0.165,0.0,0.0,-0.718583675977,0.695440508325,0,69.4817810059,61.7058181763,100.548500061,6.28089237213
1646506514422761257,137,1646506514422761257,r1000913c5/base_front_laser_link,0,1646506514422761257,v/m1vw10zy74w/map,-8.66580786681,-2.63131943689,0.165,0.0,0.0,-0.707636070562,0.706577095326,0,53.3559532166,61.6453132629,100.539810181,6.29816436768
1646506518126013535,138,1646506518126013535,r1000913c5/base_front_laser_link,0,1646506518126013535,v/m1vw10zy74w/map,-8.66210554119,-2.78902592669,0.165,0.0,0.0,-0.709194544982,0.705012834896,0,56.947052002,61.6115112305,100.475341797,6.28794384003
1646506518283298741,139,1646506518283298741,r1000913c5/base_front_laser_link,0,1646506518283298741,v/m1vw10zy74w/map,-8.66214116861,-2.7878811831,0.165,0.0,0.0,-0.709239261529,0.704967850264,0,57.2480621338,61.5803451538,100.408729553,6.27612876892
1646506518440387736,140,1646506518440387736,r1000913c5/base_front_laser_link,0,1646506518440387736,v/m1vw10zy74w/map,-8.66227476043,-2.7790038267,0.165,0.0,0.0,-0.709438443421,0.704767404891,0,57.8851242065,61.5541381836,100.338371277,6.26141166687
1646506518519276849,141,1646506518519276849,r1000913c5/base_front_laser_link,0,1646506518519276849,v/m1vw10zy74w/map,-8.66237815486,-2.76864817717,0.165,0.0,0.0,-0.709619264039,0.704585339122,0,56.9997444153,61.522064209,100.274658203,6.25086355209
1646506518676177183,142,1646506518676177183,r1000913c5/base_front_laser_link,0,1646506518676177183,v/m1vw10zy74w/map,-8.6635859761,-2.74560181891,0.165,0.0,0.0,-0.711078852147,0.703112271284,0,58.6914405823,61.5022697449,100.202201843,6.23331069946
1646506518834975454,143,1646506518834975454,r1000913c5/base_front_laser_link,0,1646506518834975454,v/m1vw10zy74w/map,-8.6673350292,-2.70504475222,0.165,0.0,0.0,-0.715665046072,0.698443656876,0,63.8723754883,61.5187301636,100.162582397,6.21461725235
1646506518991149842,144,1646506518991149842,r1000913c5/base_front_laser_link,0,1646506518991149842,v/m1vw10zy74w/map,-8.66962162153,-2.66144147894,0.165,0.0,0.0,-0.719353428946,0.694644257346,0,64.4593200684,61.5390090942,100.132453918,6.19781398773
1646506519070085045,145,1646506519070085045,r1000913c5/base_front_laser_link,0,1646506519070085045,v/m1vw10zy74w/map,-8.67054429404,-2.63845631663,0.165,0.0,0.0,-0.721186674772,0.692740774122,0,62.2081184387,61.5435943604,100.073554993,6.17665338516
1646506519227047605,146,1646506519227047605,r1000913c5/base_front_laser_link,0,1646506519227047605,v/m1vw10zy74w/map,-8.6695080621,-2.59035391626,0.165,0.0,0.0,-0.722199775788,0.691684526249,0,62.2215957642,61.5482063293,100.015357971,6.15571832657
1646506519385092486,147,1646506519385092486,r1000913c5/base_front_laser_link,0,1646506519385092486,v/m1vw10zy74w/map,-8.6670844861,-2.54274562171,0.165,0.0,0.0,-0.721784644593,0.692117711686,0,62.4077568054,61.5540122986,99.9594650269,6.13515138626
1646506519621103490,148,1646506519621103490,r1000913c5/base_front_laser_link,0,1646506519621103490,v/m1vw10zy74w/map,-8.66309594984,-2.47621878571,0.165,0.0,0.0,-0.721888508858,0.692009379112,0,61.808757782,61.555721283,99.8989944458,6.11442518234
1646506519778982277,149,1646506519778982277,r1000913c5/base_front_laser_link,0,1646506519778982277,v/m1vw10zy74w/map,-8.66127041403,-2.43031295134,0.165,0.0,0.0,-0.722213843089,0.691669838037,0,65.7937545776,61.5839767456,99.8950424194,6.10368919373
1646506519936288968,150,1646506519936288968,r1000913c5/base_front_laser_link,0,1646506519936288968,v/m1vw10zy74w/map,-8.6593396288,-2.3852584815,0.165,0.0,0.0,-0.722233179548,0.691649647119,0,66.5010223389,61.6165390015,99.9059066772,6.0964550972
1646506520015845007,151,1646506520015845007,r1000913c5/base_front_laser_link,0,1646506520015845007,v/m1vw10zy74w/map,-8.66072580603,-2.36630006294,0.165,0.0,0.0,-0.723393743095,0.690435726516,0,67.6016082764,61.6559143066,99.9427032471,6.09559631348
1646506520173208488,152,1646506520173208488,r1000913c5/base_front_laser_link,0,1646506520173208488,v/m1vw10zy74w/map,-8.65882433945,-2.32148041506,0.165,0.0,0.0,-0.723463280398,0.690362862498,0,63.1286697388,61.6655387878,99.8955764771,6.07667827606
1646506520252422768,153,1646506520252422768,r1000913c5/base_front_laser_link,0,1646506520252422768,v/m1vw10zy74w/map,-8.65779680638,-2.29894219079,0.165,0.0,0.0,-0.723493452852,0.690331241999,0,60.1909065247,61.6559638977,99.829826355,6.05795288086
1646506520331115726,154,1646506520331115726,r1000913c5/base_front_laser_link,0,1646506520331115726,v/m1vw10zy74w/map,-8.65676792084,-2.27633810711,0.165,0.0,0.0,-0.723528177679,0.690294847224,0,62.1735954285,61.6593055725,99.7744903564,6.03839540482
1646506520488266602,155,1646506520488266602,r1000913c5/base_front_laser_link,0,1646506520488266602,v/m1vw10zy74w/map,-8.65668745012,-2.22503122586,0.165,0.0,0.0,-0.72398128511,0.68981961324,0,55.0236778259,61.6167678833,99.7436294556,6.0422873497
1646506520566178653,156,1646506520566178653,r1000913c5/base_front_laser_link,0,1646506520566178653,v/m1vw10zy74w/map,-8.65689415637,-2.20049576274,0.165,0.0,0.0,-0.723845756134,0.689961825993,0,60.9853210449,61.6127471924,99.6820449829,6.02310037613
1646506520724090970,157,1646506520724090970,r1000913c5/base_front_laser_link,0,1646506520724090970,v/m1vw10zy74w/map,-8.65475899474,-2.15532307549,0.165,0.0,0.0,-0.723877353297,0.689928675578,0,66.2966690063,61.6423912048,99.6887130737,6.01544046402
1646506520960227908,158,1646506520960227908,r1000913c5/base_front_laser_link,0,1646506520960227908,v/m1vw10zy74w/map,-8.6564003586,-2.09506749182,0.165,0.0,0.0,-0.727217664741,0.68640692602,0,67.5463256836,61.679523468,99.7234039307,6.01462602615
1646506521118310777,159,1646506521118310777,r1000913c5/base_front_laser_link,0,1646506521118310777,v/m1vw10zy74w/map,-8.6555302684,-2.05251781713,0.165,0.0,0.0,-0.727337946316,0.68627947066,0,70.3656845093,61.7338104248,99.8384475708,6.03487920761
1646506521355097303,160,1646506521355097303,r1000913c5/base_front_laser_link,0,1646506521355097303,v/m1vw10zy74w/map,-8.65159372865,-1.98463116409,0.165,0.0,0.0,-0.727351305645,0.686265311797,0,65.755569458,61.7587928772,99.8317947388,6.02433443069
1646506521591185212,161,1646506521591185212,r1000913c5/base_front_laser_link,0,1646506521591185212,v/m1vw10zy74w/map,-8.64779971355,-1.91590035559,0.165,0.0,0.0,-0.727922845847,0.685659048284,0,68.8702545166,61.8026885986,99.897277832,6.03153085709
1646506521827217107,162,1646506521827217107,r1000913c5/base_front_laser_link,0,1646506521827217107,v/m1vw10zy74w/map,-8.64373334866,-1.84878395819,0.165,0.0,0.0,-0.727864810883,0.685720655281,0,69.7760009766,61.8516044617,99.9872970581,6.04523134232
1646506521984434677,163,1646506521984434677,r1000913c5/base_front_laser_link,0,1646506521984434677,v/m1vw10zy74w/map,-8.64205571102,-1.8142225918,0.165,0.0,0.0,-0.728369356178,0.685184705741,0,71.7848358154,61.9121742249,100.141281128,6.07636928558
1646506522141246143,164,1646506522141246143,r1000913c5/base_front_laser_link,0,1646506522141246143,v/m1vw10zy74w/map,-8.63936403256,-1.76994052637,0.165,0.0,0.0,-0.728386062488,0.68516694606,0,73.2098922729,61.9806442261,100.34463501,6.12133073807
1646506522377367931,165,1646506522377367931,r1000913c5/base_front_laser_link,0,1646506522377367931,v/m1vw10zy74w/map,-8.63887663991,-1.71149208399,0.165,0.0,0.0,-0.728871833467,0.68465016642,0,73.8820877075,62.0523414612,100.569137573,6.17226648331
1646506522535429873,166,1646506522535429873,r1000913c5/base_front_laser_link,0,1646506522535429873,v/m1vw10zy74w/map,-8.63702688499,-1.66896587133,0.165,0.0,0.0,-0.728791147106,0.684736054184,0,71.8116989136,62.1107788086,100.710227966,6.19981527328
1646506522771189223,167,1646506522771189223,r1000913c5/base_front_laser_link,0,1646506522771189223,v/m1vw10zy74w/map,-8.63277949192,-1.60200020307,0.165,0.0,0.0,-0.728711840316,0.684820453683,0,71.3505630493,62.1657791138,100.832366943,6.22219562531
1646506522929260152,168,1646506522929260152,r1000913c5/base_front_laser_link,0,1646506522929260152,v/m1vw10zy74w/map,-8.62635752436,-1.57533393373,0.165,0.0,0.0,-0.72679519275,0.686854240574,0,70.8179702759,62.2169761658,100.9347229,6.23924922943
1646506523086296807,169,1646506523086296807,r1000913c5/base_front_laser_link,0,1646506523086296807,v/m1vw10zy74w/map,-8.62373769778,-1.53037401676,0.165,0.0,0.0,-0.726714130816,0.686940006166,0,71.4200592041,62.2711105347,101.053146362,6.26067876816
1646506523323355918,170,1646506523323355918,r1000913c5/base_front_laser_link,0,1646506523323355918,v/m1vw10zy74w/map,-8.61634209144,-1.45933824813,0.165,0.0,0.0,-0.726614599328,0.687045285293,0,70.7910232544,62.3209342957,101.149375916,6.27614784241
1646506523402121791,171,1646506523402121791,r1000913c5/base_front_laser_link,0,1646506523402121791,v/m1vw10zy74w/map,-8.61510805596,-1.43718686484,0.165,0.0,0.0,-0.726621637414,0.687037841783,0,71.2565460205,62.3728866577,101.257141113,6.29475164413
1646506523481407463,172,1646506523481407463,r1000913c5/base_front_laser_link,0,1646506523481407463,v/m1vw10zy74w/map,-8.61380439429,-1.41481312327,0.165,0.0,0.0,-0.726569574182,0.687092900467,0,67.7853012085,62.40417099,101.273872375,6.28990125656
1646506523559427743,173,1646506523559427743,r1000913c5/base_front_laser_link,0,1646506523559427743,v/m1vw10zy74w/map,-8.61253046623,-1.39276330321,0.165,0.0,0.0,-0.726525700621,0.687139291801,0,67.3237304688,62.4324455261,101.280769348,6.28277492523
1646506523716293917,174,1646506523716293917,r1000913c5/base_front_laser_link,0,1646506523716293917,v/m1vw10zy74w/map,-8.61007416601,-1.34878752182,0.165,0.0,0.0,-0.726521630951,0.687143594717,0,67.5946044922,62.4619445801,101.292449951,6.27683639526
1646506523874423508,175,1646506523874423508,r1000913c5/base_front_laser_link,0,1646506523874423508,v/m1vw10zy74w/map,-8.60934217488,-1.3020460716,0.165,0.0,0.0,-0.728697159396,0.684836075195,0,66.5656967163,62.4852600098,101.284805298,6.26651620865
1646506524032309666,176,1646506524032309666,r1000913c5/base_front_laser_link,0,1646506524032309666,v/m1vw10zy74w/map,-8.60645648314,-1.2574692572,0.165,0.0,0.0,-0.728570293055,0.68497104178,0,61.6708564758,62.4806594849,101.227622986,6.24898815155
1646506524110529150,177,1646506524110529150,r1000913c5/base_front_laser_link,0,1646506524110529150,v/m1vw10zy74w/map,-8.6050904087,-1.23518356622,0.165,0.0,0.0,-0.728581024562,0.68495962702,0,63.7660140991,62.4878807068,101.184043884,6.23205566406
1646506524267542092,178,1646506524267542092,r1000913c5/base_front_laser_link,0,1646506524267542092,v/m1vw10zy74w/map,-8.60439137577,-1.19617213137,0.165,0.0,0.0,-0.730258705529,0.683170712925,0,62.6308555603,62.4886779785,101.132278442,6.21453428268
1646506524425428322,179,1646506524425428322,r1000913c5/base_front_laser_link,0,1646506524425428322,v/m1vw10zy74w/map,-8.6012981898,-1.15136866087,0.165,0.0,0.0,-0.730320690652,0.683104449412,0,60.9816169739,62.480304718,101.074813843,6.19816875458
1646506524741537778,180,1646506524741537778,r1000913c5/base_front_laser_link,0,1646506524741537778,v/m1vw10zy74w/map,-8.59467444759,-1.05731910457,0.165,0.0,0.0,-0.727811181912,0.68577757581,0,60.1939315796,62.4676742554,101.017463684,6.18326377869
1646506524819246617,181,1646506524819246617,r1000913c5/base_front_laser_link,0,1646506524819246617,v/m1vw10zy74w/map,-8.5935595958,-1.03456969549,0.165,0.0,0.0,-0.727743880598,0.685848995226,0,61.5823326111,62.4628105164,100.962333679,6.16650819778
1646506524976540391,182,1646506524976540391,r1000913c5/base_front_laser_link,0,1646506524976540391,v/m1vw10zy74w/map,-8.59088984782,-0.989365817111,0.165,0.0,0.0,-0.727756260271,0.685835859106,0,57.431892395,62.4353179932,100.917655945,6.16077899933
1646506525055504878,183,1646506525055504878,r1000913c5/base_front_laser_link,0,1646506525055504878,v/m1vw10zy74w/map,-8.58959325701,-0.966744226472,0.165,0.0,0.0,-0.727805474452,0.685783633049,0,61.4688415527,62.430065155,100.863075256,6.1443362236
1646506525291584910,184,1646506525291584910,r1000913c5/base_front_laser_link,0,1646506525291584910,v/m1vw10zy74w/map,-8.58987818488,-0.900769537766,0.165,0.0,0.0,-0.727547382811,0.6860574362,0,60.9786453247,62.4222183228,100.807861328,6.12854623795
1646506525527514976,185,1646506525527514976,r1000913c5/base_front_laser_link,0,1646506525527514976,v/m1vw10zy74w/map,-8.58606189366,-0.833899371899,0.165,0.0,0.0,-0.72765338579,0.685945005192,0,61.4553184509,62.4170227051,100.754135132,6.1123714447
1646506528126610372,186,1646506528126610372,r1000913c5/base_front_laser_link,0,1646506528126610372,v/m1vw10zy74w/map,-8.57461585472,-0.729484265687,0.165,0.0,0.0,-0.724005486338,0.689794212611,0,58.9352684021,62.3984031677,100.702102661,6.10123300552
1646506528362566198,187,1646506528362566198,r1000913c5/base_front_laser_link,0,1646506528362566198,v/m1vw10zy74w/map,-8.56711063794,-0.756083518465,0.165,0.0,0.0,-0.715170341527,0.698950200372,0,66.4358215332,62.4198799133,100.695930481,6.09201812744
1646506528677815064,188,1646506528677815064,r1000913c5/base_front_laser_link,0,1646506528677815064,v/m1vw10zy74w/map,-8.54728447689,-0.7990065454,0.165,0.0,0.0,-0.694315885625,0.719670376609,0,61.3439674377,62.4141845703,100.643081665,6.07629823685
1646506528835683538,189,1646506528835683538,r1000913c5/base_front_laser_link,0,1646506528835683538,v/m1vw10zy74w/map,-8.53157650719,-0.825491674749,0.165,0.0,0.0,-0.678768620061,0.734352204613,0,64.1417160034,62.4232788086,100.607772827,6.06149816513
1646506529072604131,190,1646506529072604131,r1000913c5/base_front_laser_link,0,1646506529072604131,v/m1vw10zy74w/map,-8.49753412795,-0.867049333321,0.165,0.0,0.0,-0.646354934048,0.763036892444,0,59.6077575684,62.4085350037,100.555404663,6.04895734787
1646506529150645054,191,1646506529150645054,r1000913c5/base_front_laser_link,0,1646506529150645054,v/m1vw10zy74w/map,-8.48369814996,-0.880786438877,0.165,0.0,0.0,-0.633477947785,0.773760744462,0,61.1917953491,62.4021987915,100.503417969,6.03374052048
1646506529467535399,192,1646506529467535399,r1000913c5/base_front_laser_link,0,1646506529467535399,v/m1vw10zy74w/map,-8.41208300204,-0.932505616663,0.165,0.0,0.0,-0.568724345774,0.822528187069,0,64.3357162476,62.4122161865,100.471069336,6.01961612701
1646506529623586891,193,1646506529623586891,r1000913c5/base_front_laser_link,0,1646506529623586891,v/m1vw10zy74w/map,-8.3647128529,-0.963494057694,0.165,0.0,0.0,-0.526896511861,0.849929447536,0,61.6956634521,62.4085235596,100.421188354,6.00422143936
1646506529861450078,194,1646506529861450078,r1000913c5/base_front_laser_link,0,1646506529861450078,v/m1vw10zy74w/map,-8.30203479364,-0.964319073767,0.165,0.0,0.0,-0.458324291003,0.888785038284,0,67.3166427612,62.4336929321,100.430793762,5.99903202057
1646506530017819060,195,1646506530017819060,r1000913c5/base_front_laser_link,0,1646506530017819060,v/m1vw10zy74w/map,-8.28174072696,-0.949234566759,0.165,0.0,0.0,-0.422184964485,0.906509710794,0,64.3145446777,62.4432907104,100.398704529,5.98513793945
1646506530175803890,196,1646506530175803890,r1000913c5/base_front_laser_link,0,1646506530175803890,v/m1vw10zy74w/map,-8.2700821808,-0.929805744316,0.165,0.0,0.0,-0.396810262877,0.91790065654,0,64.2948150635,62.4526901245,100.366615295,5.97130775452
1646506530412816673,197,1646506530412816673,r1000913c5/base_front_laser_link,0,1646506530412816673,v/m1vw10zy74w/map,-8.25703889952,-0.905238591573,0.165,0.0,0.0,-0.359450007885,0.933164343421,0,61.9395370483,62.4500961304,100.318832397,5.95624446869
1646506530568840796,198,1646506530568840796,r1000913c5/base_front_laser_link,0,1646506530568840796,v/m1vw10zy74w/map,-8.24255342653,-0.888566835028,0.165,0.0,0.0,-0.32860439868,0.944467653849,0,60.7333717346,62.4414710999,100.268760681,5.94243049622
1646506531198661558,199,1646506531198661558,r1000913c5/base_front_laser_link,0,1646506531198661558,v/m1vw10zy74w/map,-8.18906039484,-0.852133542603,0.165,0.0,0.0,-0.234046873325,0.972225313951,0,52.0606384277,62.3895645142,100.30783844,5.97275829315
1646506531435225388,200,1646506531435225388,r1000913c5/base_front_laser_link,0,1646506531435225388,v/m1vw10zy74w/map,-8.17708640741,-0.854315641822,0.165,0.0,0.0,-0.22545042768,0.974254640563,0,52.0861663818,62.338306427,100.344215393,6.00196886063
1646506531514799819,201,1646506531514799819,r1000913c5/base_front_laser_link,0,1646506531514799819,v/m1vw10zy74w/map,-8.17034574199,-0.853737039265,0.165,0.0,0.0,-0.2204341822,0.975401851197,0,53.5679855347,62.2948875427,100.351097107,6.01873683929
1646506531591919222,202,1646506531591919222,r1000913c5/base_front_laser_link,0,1646506531591919222,v/m1vw10zy74w/map,-8.16271440944,-0.852933257648,0.165,0.0,0.0,-0.214645398716,0.976692046046,0,54.0739707947,62.2543907166,100.348838806,6.03148269653
1646506531907903398,203,1646506531907903398,r1000913c5/base_front_laser_link,0,1646506531907903398,v/m1vw10zy74w/map,-8.11936452252,-0.850737047173,0.165,0.0,0.0,-0.183307317242,0.983055658366,0,54.4984207153,62.2163696289,100.339561462,6.04106426239
1646506532065826017,204,1646506532065826017,r1000913c5/base_front_laser_link,0,1646506532065826017,v/m1vw10zy74w/map,-8.09461825205,-0.846968779761,0.165,0.0,0.0,-0.165539173934,0.986203215313,0,56.1804237366,62.1869277954,100.309829712,6.04096698761
1646506532380912291,205,1646506532380912291,r1000913c5/base_front_laser_link,0,1646506532380912291,v/m1vw10zy74w/map,-8.04005020396,-0.834324754332,0.165,0.0,0.0,-0.126900201504,0.991915489776,0,52.3079452515,62.1389732361,100.335159302,6.06539583206
1646506532537973467,206,1646506532537973467,r1000913c5/base_front_laser_link,0,1646506532537973467,v/m1vw10zy74w/map,-8.00209918235,-0.823149660635,0.165,0.0,0.0,-0.105388444376,0.994431131749,0,56.5382804871,62.1119155884,100.30140686,6.06316518784
1646506532773996306,207,1646506532773996306,r1000913c5/base_front_laser_link,0,1646506532773996306,v/m1vw10zy74w/map,-7.94939084379,-0.808896917496,0.165,0.0,0.0,-0.0706109977643,0.99750392831,0,52.2945289612,62.0647163391,100.324775696,6.08668613434
1646506532931028781,208,1646506532931028781,r1000913c5/base_front_laser_link,0,1646506532931028781,v/m1vw10zy74w/map,-7.91417321793,-0.797215221211,0.165,0.0,0.0,-0.0527542361529,0.998607525792,0,56.8148841858,62.0395965576,100.288253784,6.08288621902
1646506533246661536,209,1646506533246661536,r1000913c5/base_front_laser_link,0,1646506533246661536,v/m1vw10zy74w/map,-7.83343383584,-0.783314259098,0.165,0.0,0.0,-0.02505011454,0.999686196644,0,58.167591095,62.0211601257,100.243743896,6.07419586182
1646506533325877282,210,1646506533325877282,r1000913c5/base_front_laser_link,0,1646506533325877282,v/m1vw10zy74w/map,-7.81415069611,-0.778809612249,0.165,0.0,0.0,-0.021041517918,0.999778602753,0,57.5220870972,61.999835968,100.202713013,6.06762647629
1646506533482396146,211,1646506533482396146,r1000913c5/base_front_laser_link,0,1646506533482396146,v/m1vw10zy74w/map,-7.76755007334,-0.773707592204,0.165,0.0,0.0,-0.0111485627181,0.999937852844,0,56.5515975952,61.9741363525,100.168495178,6.0647854805
1646506533640027902,212,1646506533640027902,r1000913c5/base_front_laser_link,0,1646506533640027902,v/m1vw10zy74w/map,-7.71793029783,-0.76864934028,0.165,0.0,0.0,-0.00254599306037,0.999996758954,0,59.2492866516,61.9613456726,100.121376038,6.05334472656
1646506533955101905,213,1646506533955101905,r1000913c5/base_front_laser_link,0,1646506533955101905,v/m1vw10zy74w/map,-7.60463065288,-0.759851848233,0.165,0.0,0.0,0.0170241394363,0.999855078837,0,54.431854248,61.926158905,100.109199524,6.0610127449
1646506534112064635,214,1646506534112064635,r1000913c5/base_front_laser_link,0,1646506534112064635,v/m1vw10zy74w/map,-7.54700805558,-0.755541927741,0.165,0.0,0.0,0.0202224378452,0.999795505595,0,50.9840812683,61.8752670288,100.153388977,6.09270811081
1646506534269903510,215,1646506534269903510,r1000913c5/base_front_laser_link,0,1646506534269903510,v/m1vw10zy74w/map,-7.49177463449,-0.749153235019,0.165,0.0,0.0,0.0164769978994,0.999864245055,0,54.7314376831,61.8421936035,100.135971069,6.09792613983
1646506534584986215,216,1646506534584986215,r1000913c5/base_front_laser_link,0,1646506534584986215,v/m1vw10zy74w/map,-7.36203787019,-0.746000012872,0.165,0.0,0.0,0.0197866738283,0.999804224605,0,56.7057991028,61.818523407,100.099861145,6.09377813339
1646506534742028154,217,1646506534742028154,r1000913c5/base_front_laser_link,0,1646506534742028154,v/m1vw10zy74w/map,-7.30148629527,-0.736126246199,0.165,0.0,0.0,0.0145790509149,0.999893719989,0,57.7242660522,61.7997436523,100.057868958,6.0860414505
1646506534821053912,218,1646506534821053912,r1000913c5/base_front_laser_link,0,1646506534821053912,v/m1vw10zy74w/map,-7.26546445943,-0.736092667551,0.165,0.0,0.0,0.0131011428749,0.999914176345,0,54.4286994934,61.7660865784,100.04347229,6.09246110916
1646506535136397628,219,1646506535136397628,r1000913c5/base_front_laser_link,0,1646506535136397628,v/m1vw10zy74w/map,-7.12287020985,-0.732113599446,0.165,0.0,0.0,0.0102892968249,0.999947063784,0,52.690246582,61.7248306274,100.052597046,6.10925579071
1646506535292952430,220,1646506535292952430,r1000913c5/base_front_laser_link,0,1646506535292952430,v/m1vw10zy74w/map,-7.04863418584,-0.729185704925,0.165,0.0,0.0,0.00911783232698,0.999958431703,0,49.98985672,61.6717300415,100.11050415,6.14625740051
1646506535373024465,221,1646506535373024465,r1000913c5/base_front_laser_link,0,1646506535373024465,v/m1vw10zy74w/map,-7.00771098155,-0.732664797724,0.165,0.0,0.0,0.00845797338664,0.999964230703,0,52.3243255615,61.6296272278,100.122657776,6.16434288025
1646506535688065301,222,1646506535688065301,r1000913c5/base_front_laser_link,0,1646506535688065301,v/m1vw10zy74w/map,-6.8314772525,-0.727532656244,0.165,0.0,0.0,0.00519737360288,0.999986493563,0,49.1399612427,61.5736198425,100.194770813,6.20704984665
1646506535845223747,223,1646506535845223747,r1000913c5/base_front_laser_link,0,1646506535845223747,v/m1vw10zy74w/map,-6.74202499528,-0.728159790813,0.165,0.0,0.0,0.00299384882164,0.999995518425,0,48.4552650452,61.5150527954,100.279563904,6.25483512878
1646506535925183661,224,1646506535925183661,r1000913c5/base_front_laser_link,0,1646506535925183661,v/m1vw10zy74w/map,-6.69853140818,-0.723807933636,0.165,0.0,0.0,0.00193618974448,0.999998125583,0,49.0640296936,61.4597167969,100.347167969,6.29581785202
1646506536240099595,225,1646506536240099595,r1000913c5/base_front_laser_link,0,1646506536240099595,v/m1vw10zy74w/map,-6.515446134,-0.725418382286,0.165,0.0,0.0,0.000559689556852,0.999999843374,0,49.7594108582,61.4079437256,100.397468567,6.32984161377
1646506536318068624,226,1646506536318068624,r1000913c5/base_front_laser_link,0,1646506536318068624,v/m1vw10zy74w/map,-6.46692153426,-0.725636926917,0.165,0.0,0.0,0.000172406416584,0.999999985138,0,48.5214004517,61.3511772156,100.471595764,6.37347316742
1646506536632288816,227,1646506536632288816,r1000913c5/base_front_laser_link,0,1646506536632288816,v/m1vw10zy74w/map,-6.26975152862,-0.727505081167,0.165,0.0,0.0,0.000569017597,0.999999838109,0,51.8510971069,61.3095092773,100.480903625,6.39046573639
1646506536712311933,228,1646506536712311933,r1000913c5/base_front_laser_link,0,1646506536712311933,v/m1vw10zy74w/map,-6.2185741424,-0.72960326824,0.165,0.0,0.0,0.000454898518864,0.999999896534,0,51.2188148499,61.2654457092,100.499069214,6.4112071991
1646506536947204001,229,1646506536947204001,r1000913c5/base_front_laser_link,0,1646506536947204001,v/m1vw10zy74w/map,-6.06205689599,-0.736384320666,0.165,0.0,0.0,0.000259029865685,0.999999966452,0,55.2464866638,61.239276886,100.467758179,6.40949296951
1646506537026181017,230,1646506537026181017,r1000913c5/base_front_laser_link,0,1646506537026181017,v/m1vw10zy74w/map,-6.00706685815,-0.736567064528,0.165,0.0,0.0,0.00112715613287,0.999999364759,0,53.5710029602,61.2060813904,100.452323914,6.41541433334
1646506537105081932,231,1646506537105081932,r1000913c5/base_front_laser_link,0,1646506537105081932,v/m1vw10zy74w/map,-5.95990495566,-0.739389891328,0.165,0.0,0.0,0.00187999290335,0.999998232812,0,53.7195129395,61.1738090515,100.434875488,6.42035484314
1646506537341140637,232,1646506537341140637,r1000913c5/base_front_laser_link,0,1646506537341140637,v/m1vw10zy74w/map,-5.79568226595,-0.733712665424,0.165,0.0,0.0,0.00374965063566,0.999992970035,0,56.7184867859,61.1546897888,100.394134521,6.41314840317
1646506537577215389,233,1646506537577215389,r1000913c5/base_front_laser_link,0,1646506537577215389,v/m1vw10zy74w/map,-5.6245280457,-0.733855246902,0.165,0.0,0.0,0.0047480844555,0.999988727783,0,52.0174179077,61.1156387329,100.397209167,6.42718839645
1646506537736177870,234,1646506537736177870,r1000913c5/base_front_laser_link,0,1646506537736177870,v/m1vw10zy74w/map,-5.50023039556,-0.733316905122,0.165,0.0,0.0,0.00388907065123,0.999992437536,0,52.3181114197,61.0782051086,100.395401001,6.43906545639
1646506538050962604,235,1646506538050962604,r1000913c5/base_front_laser_link,0,1646506538050962604,v/m1vw10zy74w/map,-5.25125266832,-0.73375208046,0.165,0.0,0.0,-0.00120516226414,0.999999273792,0,53.9380264282,61.0479507446,100.37436676,6.44213914871
1646506538286317367,236,1646506538286317367,r1000913c5/base_front_laser_link,0,1646506538286317367,v/m1vw10zy74w/map,-5.04097052594,-0.727571845325,0.165,0.0,0.0,-0.000827845904825,0.999999657336,0,52.7533950806,61.0129508972,100.365997314,6.45101547241
1646506538522303447,237,1646506538522303447,r1000913c5/base_front_laser_link,0,1646506538522303447,v/m1vw10zy74w/map,-4.84732188579,-0.72789839536,0.165,0.0,0.0,-0.000981647454092,0.999999518184,0,51.6715774536,60.9737014771,100.371116638,6.46580600739
