%time,field.header.seq,field.header.stamp,field.header.frame_id,field.pose.header.seq,field.pose.header.stamp,field.pose.header.frame_id,field.pose.pose.position.x,field.pose.pose.position.y,field.pose.pose.position.z,field.pose.pose.orientation.x,field.pose.pose.orientation.y,field.pose.pose.orientation.z,field.pose.pose.orientation.w,field.label,field.current_error,field.mean,field.threshold,field.std_dev
1646437136378240548,0,1646437136378240548,r1000913c5/base_front_laser_link,0,1646437136378240548,v/m1vw10zy74w/map,-2.82263597765,-2.30017226232,0.165,0.0,0.0,-0.703395743127,0.710798444392,0,65.9863967896,65.9863967896,nan,nan
1646437136457237651,1,1646437136457237651,r1000913c5/base_front_laser_link,0,1646437136457237651,v/m1vw10zy74w/map,-2.82123965398,-2.29924248996,0.165,0.0,0.0,-0.701902024205,0.71227350675,0,65.2860641479,65.6362304688,87.1218719482,0.495212942362
1646437136693311103,2,1646437136693311103,r1000913c5/base_front_laser_link,0,1646437136693311103,v/m1vw10zy74w/map,-2.80465749586,-2.29975088313,0.165,0.0,0.0,-0.684060827456,0.729424968273,0,69.7454833984,67.0059814453,94.2005157471,2.39817905426
1646437136930233312,3,1646437136930233312,r1000913c5/base_front_laser_link,0,1646437136930233312,v/m1vw10zy74w/map,-2.77334301253,-2.29531013152,0.165,0.0,0.0,-0.648899859401,0.760873821648,0,70.5297088623,67.8869171143,95.7891387939,2.63407373428
1646437137245122955,4,1646437137245122955,r1000913c5/base_front_laser_link,0,1646437137245122955,v/m1vw10zy74w/map,-2.72483294422,-2.28346570115,0.165,0.0,0.0,-0.590367994141,0.807134209097,0,63.3876914978,66.9870681763,96.1123733521,3.04176902771
1646437137403029326,5,1646437137403029326,r1000913c5/base_front_laser_link,0,1646437137403029326,v/m1vw10zy74w/map,-2.69926912388,-2.28242790764,0.165,0.0,0.0,-0.565657219096,0.82464047347,0,63.6836738586,66.4365005493,95.5461502075,3.03654813766
1646437137639606690,6,1646437137639606690,r1000913c5/base_front_laser_link,0,1646437137639606690,v/m1vw10zy74w/map,-2.67113416639,-2.26536251068,0.165,0.0,0.0,-0.517902395434,0.855439716639,0,62.2105865479,65.8328018188,95.430480957,3.19922661781
1646437137875680043,7,1646437137875680043,r1000913c5/base_front_laser_link,0,1646437137875680043,v/m1vw10zy74w/map,-2.64462587938,-2.24163092481,0.165,0.0,0.0,-0.471963452694,0.88161811422,0,61.6578330994,65.3109283447,95.2389373779,3.30933451653
1646437137954200682,8,1646437137954200682,r1000913c5/base_front_laser_link,0,1646437137954200682,v/m1vw10zy74w/map,-2.63448784051,-2.22968396019,0.165,0.0,0.0,-0.456071048622,0.889943368203,0,60.5702171326,64.7841873169,95.2110214233,3.4756128788
1646437138190739753,9,1646437138190739753,r1000913c5/base_front_laser_link,0,1646437138190739753,v/m1vw10zy74w/map,-2.60940008751,-2.20580005081,0.165,0.0,0.0,-0.406687921891,0.913567148155,0,56.0209770203,63.9078636169,96.7823944092,4.2915096283
1646437138426442870,10,1646437138426442870,r1000913c5/base_front_laser_link,0,1646437138426442870,v/m1vw10zy74w/map,-2.5843229335,-2.18025158211,0.165,0.0,0.0,-0.356249764575,0.934390766885,0,55.7763175964,63.1686325073,97.4261932373,4.75251960754
1646437138584302715,11,1646437138584302715,r1000913c5/base_front_laser_link,0,1646437138584302715,v/m1vw10zy74w/map,-2.56952987126,-2.16256974351,0.165,0.0,0.0,-0.323869570394,0.946101739441,0,53.9944763184,62.4041175842,98.1496582031,5.24851322174
1646437138820311949,12,1646437138820311949,r1000913c5/base_front_laser_link,0,1646437138820311949,v/m1vw10zy74w/map,-2.54905250378,-2.12849207733,0.165,0.0,0.0,-0.273153207354,0.96197054285,0,53.3947105408,61.7110862732,98.5472412109,5.61205148697
1646437138977350983,13,1646437138977350983,r1000913c5/base_front_laser_link,0,1646437138977350983,v/m1vw10zy74w/map,-2.53648769927,-2.10804279829,0.165,0.0,0.0,-0.239349082496,0.970933579967,0,54.065071106,61.1649436951,98.4633331299,5.76612949371
1646437139056263465,14,1646437139056263465,r1000913c5/base_front_laser_link,0,1646437139056263465,v/m1vw10zy74w/map,-2.53090874125,-2.097381131,0.165,0.0,0.0,-0.221853732419,0.97507995642,0,54.3810691833,60.7126846313,98.1904678345,5.82592821121
1646437139291541769,15,1646437139291541769,r1000913c5/base_front_laser_link,0,1646437139291541769,v/m1vw10zy74w/map,-2.5167696232,-2.05862705265,0.165,0.0,0.0,-0.170408687531,0.985373471945,0,52.8591384888,60.2218399048,98.104850769,5.96100330353
1646437139449555043,16,1646437139449555043,r1000913c5/base_front_laser_link,0,1646437139449555043,v/m1vw10zy74w/map,-2.5104989099,-2.03498181454,0.165,0.0,0.0,-0.135923701095,0.990719308119,0,49.2423858643,59.5759887695,98.6451797485,6.35639762878
1646437139527787575,17,1646437139527787575,r1000913c5/base_front_laser_link,0,1646437139527787575,v/m1vw10zy74w/map,-2.50783470442,-2.02362569124,0.165,0.0,0.0,-0.118505166125,0.992953435767,0,44.9274330139,58.7621803284,99.9643936157,7.06740570068
1646437139686083751,18,1646437139686083751,r1000913c5/base_front_laser_link,0,1646437139686083751,v/m1vw10zy74w/map,-2.50239085493,-1.9966369895,0.165,0.0,0.0,-0.082989221803,0.996550444817,0,45.0434913635,58.0401420593,100.705276489,7.55504512787
1646437139921183854,19,1646437139921183854,r1000913c5/base_front_laser_link,0,1646437139921183854,v/m1vw10zy74w/map,-2.50025940626,-1.96181534998,0.165,0.0,0.0,-0.0300209348524,0.999549270157,0,52.1386146545,57.7450675964,100.158096313,7.47100830078
1646437140079561592,20,1646437140079561592,r1000913c5/base_front_laser_link,0,1646437140079561592,v/m1vw10zy74w/map,-2.49625167799,-1.92750167865,0.165,0.0,0.0,0.0049974605289,0.999987512616,0,49.5046958923,57.3526687622,99.8544082642,7.50057888031
1646437140236441972,21,1646437140236441972,r1000913c5/base_front_laser_link,0,1646437140236441972,v/m1vw10zy74w/map,-2.4969532113,-1.90087907426,0.165,0.0,0.0,0.0401290057279,0.99919450704,0,52.3710784912,57.1262321472,99.3156280518,7.39646577835
1646437140394618690,22,1646437140394618690,r1000913c5/base_front_laser_link,0,1646437140394618690,v/m1vw10zy74w/map,-2.50332865322,-1.878909212,0.165,0.0,0.0,0.0759115556703,0.997114554961,0,52.1830101013,56.9113082886,98.8099517822,7.29954814911
1646437141181493755,23,1646437141181493755,r1000913c5/base_front_laser_link,0,1646437141181493755,v/m1vw10zy74w/map,-2.52572689701,-1.78061047713,0.165,0.0,0.0,0.199525536979,0.979892626819,0,54.566318512,56.8136024475,98.2789840698,7.15512800217
1646437141574464221,24,1646437141574464221,r1000913c5/base_front_laser_link,0,1646437141574464221,v/m1vw10zy74w/map,-2.5037398923,-1.75379698267,0.165,0.0,0.0,0.217504216358,0.976059381322,0,49.7938766479,56.5328140259,97.9641876221,7.14379167557
1646437141811280148,25,1646437141811280148,r1000913c5/base_front_laser_link,0,1646437141811280148,v/m1vw10zy74w/map,-2.48791346241,-1.72880240519,0.165,0.0,0.0,0.239846842427,0.970810739628,0,53.6664962769,56.4225692749,97.4885559082,7.02199411392
1646437142047532420,26,1646437142047532420,r1000913c5/base_front_laser_link,0,1646437142047532420,v/m1vw10zy74w/map,-2.46844788212,-1.69815992782,0.165,0.0,0.0,0.264839255443,0.964292574262,0,54.0737609863,56.3355789185,97.0369338989,6.90045309067
1646437142126649974,27,1646437142126649974,r1000913c5/base_front_laser_link,0,1646437142126649974,v/m1vw10zy74w/map,-2.462919799,-1.67795145652,0.165,0.0,0.0,0.275015426193,0.961439813694,0,54.3375473022,56.2642173767,96.6101608276,6.78198099136
1646437142284504700,28,1646437142284504700,r1000913c5/base_front_laser_link,0,1646437142284504700,v/m1vw10zy74w/map,-2.44736665803,-1.65296395818,0.165,0.0,0.0,0.292295019794,0.956328197537,0,54.2213058472,56.193775177,96.2054824829,6.67056894302
1646437142362606715,29,1646437142362606715,r1000913c5/base_front_laser_link,0,1646437142362606715,v/m1vw10zy74w/map,-2.43939605457,-1.64026652342,0.165,0.0,0.0,0.300818586798,0.953681381719,0,55.6137695312,56.1744384766,95.8406600952,6.55540561676
1646437142678461843,30,1646437142678461843,r1000913c5/base_front_laser_link,0,1646437142678461843,v/m1vw10zy74w/map,-2.40834181347,-1.5821965722,0.165,0.0,0.0,0.33736980968,0.941372196061,0,53.7484016418,56.0961799622,95.475982666,6.45993471146
1646437142914586097,31,1646437142914586097,r1000913c5/base_front_laser_link,0,1646437142914586097,v/m1vw10zy74w/map,-2.38022668232,-1.53196366303,0.165,0.0,0.0,0.364607589113,0.93116126743,0,53.9964561462,56.0305633545,95.1277236938,6.36571931839
1646437143071567627,32,1646437143071567627,r1000913c5/base_front_laser_link,0,1646437143071567627,v/m1vw10zy74w/map,-2.36553991989,-1.49839710989,0.165,0.0,0.0,0.382887622891,0.923794927588,0,55.0671539307,56.0013694763,94.8044967651,6.26770973206
1646437143307346494,33,1646437143307346494,r1000913c5/base_front_laser_link,0,1646437143307346494,v/m1vw10zy74w/map,-2.33369106111,-1.43403364825,0.165,0.0,0.0,0.41268101853,0.910875610028,0,55.6638259888,55.991443634,94.5083007812,6.17228507996
1646437143465585675,34,1646437143465585675,r1000913c5/base_front_laser_link,0,1646437143465585675,v/m1vw10zy74w/map,-2.31584446075,-1.38728416531,0.165,0.0,0.0,0.434858727969,0.900498687789,0,57.8956756592,56.0458488464,94.3139038086,6.08935165405
1646437143779720141,35,1646437143779720141,r1000913c5/base_front_laser_link,0,1646437143779720141,v/m1vw10zy74w/map,-2.29071576302,-1.28167013238,0.165,0.0,0.0,0.488554871604,0.872533172683,0,52.5627250671,55.9490966797,94.0383148193,6.02974081039
1646437143937630412,36,1646437143937630412,r1000913c5/base_front_laser_link,0,1646437143937630412,v/m1vw10zy74w/map,-2.29060074861,-1.22293011325,0.165,0.0,0.0,0.522941294642,0.852368700949,0,58.0186424255,56.005027771,93.8704223633,5.95513153076
1646437144174511721,37,1646437144174511721,r1000913c5/base_front_laser_link,0,1646437144174511721,v/m1vw10zy74w/map,-2.29574227984,-1.11957294559,0.165,0.0,0.0,0.584419678465,0.811451563202,0,55.1648483276,55.9829177856,93.6099777222,5.87568664551
1646437144330564098,38,1646437144330564098,r1000913c5/base_front_laser_link,0,1646437144330564098,v/m1vw10zy74w/map,-2.30308367328,-1.04044571009,0.165,0.0,0.0,0.624682662318,0.780878717471,0,56.3437728882,55.9921722412,93.3866119385,5.79814767838
1646437144489854574,39,1646437144489854574,r1000913c5/base_front_laser_link,0,1646437144489854574,v/m1vw10zy74w/map,-2.32523556045,-0.971841159075,0.165,0.0,0.0,0.663646971574,0.748045919126,0,58.9940376282,56.0672187805,93.2961502075,5.7429766655
1646437144725534850,40,1646437144725534850,r1000913c5/base_front_laser_link,0,1646437144725534850,v/m1vw10zy74w/map,-2.36502030579,-0.849416484925,0.165,0.0,0.0,0.72098505253,0.692950614422,0,57.7950592041,56.1093597412,93.1408157349,5.67715167999
1646437144960782047,41,1646437144960782047,r1000913c5/base_front_laser_link,0,1646437144960782047,v/m1vw10zy74w/map,-2.43793968129,-0.750583703181,0.165,0.0,0.0,0.782699583402,0.622399680384,0,59.7279548645,56.1955184937,93.1011810303,5.63522148132
1646437145275763612,42,1646437145275763612,r1000913c5/base_front_laser_link,0,1646437145275763612,v/m1vw10zy74w/map,-2.54364717628,-0.705165518647,0.165,0.0,0.0,0.851721070333,0.523995437337,0,60.2311706543,56.2893714905,93.094291687,5.60164165497
1646437145355111812,43,1646437145355111812,r1000913c5/base_front_laser_link,0,1646437145355111812,v/m1vw10zy74w/map,-2.5801608935,-0.718523587539,0.165,0.0,0.0,0.862251089881,0.506481053939,0,58.3143081665,56.3353919983,92.9689941406,5.54453325272
1646437145669685126,44,1646437145669685126,r1000913c5/base_front_laser_link,0,1646437145669685126,v/m1vw10zy74w/map,-2.62646810783,-0.734202530478,0.165,0.0,0.0,0.894351486766,0.447364971941,0,51.7011184692,56.2324066162,92.8059921265,5.52452945709
1646437145827812301,45,1646437145827812301,r1000913c5/base_front_laser_link,0,1646437145827812301,v/m1vw10zy74w/map,-2.62304429206,-0.742791662966,0.165,0.0,0.0,0.910361400598,0.41381411322,0,53.1131629944,56.1645965576,92.6109771729,5.48212623596
1646437146140543114,46,1646437146140543114,r1000913c5/base_front_laser_link,0,1646437146140543114,v/m1vw10zy74w/map,-2.65611264846,-0.776456745727,0.165,0.0,0.0,0.935091831246,0.354405512283,0,58.5629463196,56.2156257629,92.5160827637,5.43348407745
1646437147007660439,47,1646437147007660439,r1000913c5/base_front_laser_link,0,1646437147007660439,v/m1vw10zy74w/map,-2.69965933202,-0.84375024188,0.165,0.0,0.0,0.966611273023,0.25624723777,0,58.5118484497,56.2634658813,92.4201965332,5.38557815552
1646437147242835263,48,1646437147242835263,r1000913c5/base_front_laser_link,0,1646437147242835263,v/m1vw10zy74w/map,-2.72296250003,-0.844572722518,0.165,0.0,0.0,0.971003680815,0.239064534893,0,59.6231040955,56.3320274353,92.3842849731,5.35075187683
1646437147479072459,49,1646437147479072459,r1000913c5/base_front_laser_link,0,1646437147479072459,v/m1vw10zy74w/map,-2.75158874159,-0.843944373715,0.165,0.0,0.0,0.975222217762,0.221227543458,0,61.7657852173,56.4407043457,92.4947052002,5.35133266449
1646437147715622018,50,1646437147715622018,r1000913c5/base_front_laser_link,0,1646437147715622018,v/m1vw10zy74w/map,-2.78601472239,-0.849205334258,0.165,0.0,0.0,0.979948007771,0.199253361492,0,59.6742591858,56.504108429,92.4546966553,5.31686401367
1646437147872647972,51,1646437147872647972,r1000913c5/base_front_laser_link,0,1646437147872647972,v/m1vw10zy74w/map,-2.81191086774,-0.846818699991,0.165,0.0,0.0,0.982161621825,0.188038689143,0,59.4226570129,56.5602340698,92.4002761841,5.28001499176
1646437148029907119,52,1646437148029907119,r1000913c5/base_front_laser_link,0,1646437148029907119,v/m1vw10zy74w/map,-2.84021922091,-0.84421847419,0.165,0.0,0.0,0.984272844467,0.176654939488,0,61.7487754822,56.6581306458,92.4901657104,5.27734518051
1646437148109153910,53,1646437148109153910,r1000913c5/base_front_laser_link,0,1646437148109153910,v/m1vw10zy74w/map,-2.85542137237,-0.842770149637,0.165,0.0,0.0,0.985275561413,0.170973881289,0,61.8564414978,56.7543945312,92.5793075562,5.27497005463
1646437148187085995,54,1646437148187085995,r1000913c5/base_front_laser_link,0,1646437148187085995,v/m1vw10zy74w/map,-2.87131019552,-0.840939898894,0.165,0.0,0.0,0.986171433811,0.165728401718,0,61.218536377,56.835559845,92.6169204712,5.26045274734
1646437148265845696,55,1646437148265845696,r1000913c5/base_front_laser_link,0,1646437148265845696,v/m1vw10zy74w/map,-2.88783959232,-0.838829771361,0.165,0.0,0.0,0.986986393255,0.160803792026,0,66.4832000732,57.0078392029,93.1162796021,5.36948013306
1646437148422961987,56,1646437148422961987,r1000913c5/base_front_laser_link,0,1646437148422961987,v/m1vw10zy74w/map,-2.92186830439,-0.840214578911,0.165,0.0,0.0,0.988650044921,0.150236775387,0,59.2309875488,57.0468444824,93.0352325439,5.3294634819
1646437148739064005,57,1646437148739064005,r1000913c5/base_front_laser_link,0,1646437148739064005,v/m1vw10zy74w/map,-3.00004148051,-0.827887583136,0.165,0.0,0.0,0.990827387678,0.135133592523,0,64.1864700317,57.1699409485,93.265083313,5.36504888535
1646437148975103159,58,1646437148975103159,r1000913c5/base_front_laser_link,0,1646437148975103159,v/m1vw10zy74w/map,-3.06750772706,-0.815440647976,0.165,0.0,0.0,0.991885130811,0.127137277287,0,65.5922088623,57.3126907349,93.6040344238,5.43044710159
1646437149132781710,59,1646437149132781710,r1000913c5/base_front_laser_link,0,1646437149132781710,v/m1vw10zy74w/map,-3.11386975279,-0.805546650088,0.165,0.0,0.0,0.99220117912,0.124646781561,0,64.8991699219,57.4391326904,93.856880188,5.47258377075
1646437149525919302,60,1646437149525919302,r1000913c5/base_front_laser_link,0,1646437149525919302,v/m1vw10zy74w/map,-3.25020563274,-0.782963609112,0.165,0.0,0.0,0.992776660266,0.119977092942,0,63.4463348389,57.5376091003,93.9806747437,5.48102235794
1646437149841042316,61,1646437149841042316,r1000913c5/base_front_laser_link,0,1646437149841042316,v/m1vw10zy74w/map,-3.36281040523,-0.759116336793,0.165,0.0,0.0,0.992790117597,0.119865684835,0,63.3283920288,57.6310119629,94.087310791,5.48543310165
1646437150076852461,62,1646437150076852461,r1000913c5/base_front_laser_link,0,1646437150076852461,v/m1vw10zy74w/map,-3.456771235,-0.745844694799,0.165,0.0,0.0,0.993769341389,0.111456252027,0,67.5480194092,57.7884216309,94.5363006592,5.58262634277
1646437150157058786,63,1646437150157058786,r1000913c5/base_front_laser_link,0,1646437150157058786,v/m1vw10zy74w/map,-3.49029720444,-0.740994432127,0.165,0.0,0.0,0.994192713557,0.107614349928,0,70.2711486816,57.9834671021,95.2447280884,5.75375413895
1646437150392230239,64,1646437150392230239,r1000913c5/base_front_laser_link,0,1646437150392230239,v/m1vw10zy74w/map,-3.5905727793,-0.732015382314,0.165,0.0,0.0,0.995830589841,0.0912219071137,0,72.5074234009,58.2069091797,96.1652908325,5.98612737656
1646437150549262342,65,1646437150549262342,r1000913c5/base_front_laser_link,0,1646437150549262342,v/m1vw10zy74w/map,-3.66624956357,-0.732912642478,0.165,0.0,0.0,0.996614288243,0.0822189787688,0,73.5039672852,58.4386863708,97.1322937012,6.23120307922
1646437150787180184,66,1646437150787180184,r1000913c5/base_front_laser_link,0,1646437150787180184,v/m1vw10zy74w/map,-3.7824353093,-0.724727380661,0.165,0.0,0.0,0.997511188298,0.0705083627705,0,71.0617523193,58.6270904541,97.7467269897,6.37321138382
1646437151021915789,67,1646437151021915789,r1000913c5/base_front_laser_link,0,1646437151021915789,v/m1vw10zy74w/map,-3.89990096844,-0.723098657272,0.165,0.0,0.0,0.998187873334,0.0601744923417,0,64.9616165161,58.7202453613,97.8360748291,6.37194490433
1646437151100938905,68,1646437151100938905,r1000913c5/base_front_laser_link,0,1646437151100938905,v/m1vw10zy74w/map,-3.94142787755,-0.721407421275,0.165,0.0,0.0,0.998461168212,0.0554553475582,0,62.3303527832,58.7725639343,97.7920608521,6.33983278275
1646437151336883682,69,1646437151336883682,r1000913c5/base_front_laser_link,0,1646437151336883682,v/m1vw10zy74w/map,-4.06357616025,-0.718126367226,0.165,0.0,0.0,0.999139588342,0.0414738834457,0,63.1929130554,58.8357124329,97.7832946777,6.31586122513
1646437151494216136,70,1646437151494216136,r1000913c5/base_front_laser_link,0,1646437151494216136,v/m1vw10zy74w/map,-4.14937739394,-0.714320825011,0.165,0.0,0.0,0.999461149828,0.0328239239688,0,61.6866340637,58.8758659363,97.7149887085,6.27970695496
1646437151731093913,71,1646437151731093913,r1000913c5/base_front_laser_link,0,1646437151731093913,v/m1vw10zy74w/map,-4.28954445132,-0.718878501859,0.165,0.0,0.0,0.999767370079,0.0215686282848,0,60.8534660339,58.9033317566,97.6223754883,6.23968076706
1646437151810191333,72,1646437151810191333,r1000913c5/base_front_laser_link,0,1646437151810191333,v/m1vw10zy74w/map,-4.33724005259,-0.719315257417,0.165,0.0,0.0,0.999828187302,0.0185363393716,0,59.1271934509,58.9063987732,97.4951629639,6.19625377655
1646437151888125725,73,1646437151888125725,r1000913c5/base_front_laser_link,0,1646437151888125725,v/m1vw10zy74w/map,-4.38472955185,-0.719561808942,0.165,0.0,0.0,0.999876717773,0.0157018869925,0,60.5877304077,58.9291191101,97.3994293213,6.15677022934
1646437152124068894,74,1646437152124068894,r1000913c5/base_front_laser_link,0,1646437152124068894,v/m1vw10zy74w/map,-4.53516245083,-0.72161749206,0.165,0.0,0.0,0.999957948342,0.00917068959537,0,62.5019111633,58.9767570496,97.3635482788,6.12892961502
1646437152280894616,75,1646437152280894616,r1000913c5/base_front_laser_link,0,1646437152280894616,v/m1vw10zy74w/map,-4.63479108254,-0.723414424605,0.165,0.0,0.0,0.999994410871,0.00334338539748,0,66.9419631958,59.0815620422,97.5499038696,6.1561126709
1646437152359955924,76,1646437152359955924,r1000913c5/base_front_laser_link,0,1646437152359955924,v/m1vw10zy74w/map,-4.68744843201,-0.724550426975,0.165,0.0,0.0,0.999999288171,0.00119317087973,0,68.0508270264,59.1980476379,97.7989730835,6.20031023026
1646437152517182979,77,1646437152517182979,r1000913c5/base_front_laser_link,0,1646437152517182979,v/m1vw10zy74w/map,-4.78965427,-0.724169223827,0.165,0.0,0.0,0.999997560665,-0.00220876974615,0,70.0000457764,59.3365325928,98.1770401001,6.28016805649
1646437152675218661,78,1646437152675218661,r1000913c5/base_front_laser_link,0,1646437152675218661,v/m1vw10zy74w/map,-4.90011882862,-0.725720104377,0.165,0.0,0.0,0.999992265742,-0.00393299570956,0,70.9016952515,59.4829292297,98.6049423218,6.37400531769
1646437152831899521,79,1646437152831899521,r1000913c5/base_front_laser_link,0,1646437152831899521,v/m1vw10zy74w/map,-5.00856562497,-0.724034308879,0.165,0.0,0.0,0.999989363075,-0.00461234602604,0,71.5749130249,59.6340789795,99.0627212524,6.47621536255
1646437152990187795,80,1646437152990187795,r1000913c5/base_front_laser_link,0,1646437152990187795,v/m1vw10zy74w/map,-5.13450886173,-0.724237625517,0.165,0.0,0.0,0.999991964591,-0.00400883447335,0,60.7473449707,59.6478233337,98.9582214355,6.43680047989
1646437153146892051,81,1646437153146892051,r1000913c5/base_front_laser_link,0,1646437153146892051,v/m1vw10zy74w/map,-5.25407619442,-0.725669273466,0.165,0.0,0.0,0.999989112626,-0.00466632930389,0,64.9367370605,59.7123222351,98.9829788208,6.42355155945
1646437153305062814,82,1646437153305062814,r1000913c5/base_front_laser_link,0,1646437153305062814,v/m1vw10zy74w/map,-5.3728719204,-0.730402404867,0.165,0.0,0.0,0.99997561015,-0.00698420400386,0,63.5615653992,59.7586975098,98.9533843994,6.39822912216
1646437153385106836,83,1646437153385106836,r1000913c5/base_front_laser_link,0,1646437153385106836,v/m1vw10zy74w/map,-5.43627105835,-0.73186258608,0.165,0.0,0.0,0.999969793902,-0.00777246954255,0,59.9258384705,59.760684967,98.8394699097,6.35959482193
1646437153541151809,84,1646437153541151809,r1000913c5/base_front_laser_link,0,1646437153541151809,v/m1vw10zy74w/map,-5.56270139282,-0.731869913166,0.165,0.0,0.0,0.999972487094,-0.00741788745115,0,65.2376861572,59.8251228333,98.8735580444,6.34947872162
1646437153699202718,85,1646437153699202718,r1000913c5/base_front_laser_link,0,1646437153699202718,v/m1vw10zy74w/map,-5.68772903682,-0.734286782072,0.165,0.0,0.0,0.999980583203,-0.00623163036785,0,64.6056671143,59.8807106018,98.8798065186,6.33303356171
1646437153857048690,86,1646437153857048690,r1000913c5/base_front_laser_link,0,1646437153857048690,v/m1vw10zy74w/map,-5.81927232702,-0.734861005175,0.165,0.0,0.0,0.999989658213,-0.00454790800496,0,68.518119812,59.9799919128,99.0715179443,6.36384153366
1646437154014183355,87,1646437154014183355,r1000913c5/base_front_laser_link,0,1646437154014183355,v/m1vw10zy74w/map,-5.94516176437,-0.736130743879,0.165,0.0,0.0,0.999992778925,-0.00380027595396,0,69.2696304321,60.0855560303,99.2981185913,6.40418863297
1646437154092903866,88,1646437154092903866,r1000913c5/base_front_laser_link,0,1646437154092903866,v/m1vw10zy74w/map,-6.01347082688,-0.735603955251,0.165,0.0,0.0,0.999997266456,-0.00233817888106,0,69.3026351929,60.1891174316,99.5157546997,6.44221305847
1646437154250233186,89,1646437154250233186,r1000913c5/base_front_laser_link,0,1646437154250233186,v/m1vw10zy74w/map,-6.14569437301,-0.736352922658,0.165,0.0,0.0,0.999999979572,-0.000202127329305,0,70.3879165649,60.3024368286,99.7889404297,6.49550008774
1646437154328273775,90,1646437154328273775,r1000913c5/base_front_laser_link,0,1646437154328273775,v/m1vw10zy74w/map,-6.21501827894,-0.735153018689,0.165,0.0,0.0,0.999998911676,0.00147534660345,0,70.0631866455,60.4096984863,100.029258728,6.53985309601
1646437154723268739,91,1646437154723268739,r1000913c5/base_front_laser_link,0,1646437154723268739,v/m1vw10zy74w/map,-6.56789275487,-0.736517842515,0.165,0.0,0.0,0.999997568501,0.0022052192831,0,69.2663345337,60.5059661865,100.213088989,6.56904029846
1646437154958427393,92,1646437154958427393,r1000913c5/base_front_laser_link,0,1646437154958427393,v/m1vw10zy74w/map,-6.78865110781,-0.745173793977,0.165,0.0,0.0,0.999999377572,0.00111573066689,0,68.7512969971,60.5946235657,100.361480713,6.588950634
1646437155116160286,93,1646437155116160286,r1000913c5/base_front_laser_link,0,1646437155116160286,v/m1vw10zy74w/map,-6.9347163716,-0.74288575928,0.165,0.0,0.0,0.999998079098,0.00196005104934,0,68.6277618408,60.6800842285,100.496887207,6.60559988022
1646437155194114426,94,1646437155194114426,r1000913c5/base_front_laser_link,0,1646437155194114426,v/m1vw10zy74w/map,-7.01540246871,-0.741484979208,0.165,0.0,0.0,0.999997772532,0.00211067080002,0,70.5759735107,60.7842521667,100.729309082,6.64835214615
1646437155351226504,95,1646437155351226504,r1000913c5/base_front_laser_link,0,1646437155351226504,v/m1vw10zy74w/map,-7.16764480803,-0.735620170779,0.165,0.0,0.0,0.999993943951,0.00348023881583,0,69.1872024536,60.8717842102,100.877716064,6.66864585876
1646437155431108006,96,1646437155431108006,r1000913c5/base_front_laser_link,0,1646437155431108006,v/m1vw10zy74w/map,-7.24507238742,-0.736344663289,0.165,0.0,0.0,0.999997486184,0.00224223657929,0,70.2608032227,60.9685745239,101.074485779,6.70196962357
1646437155588146107,97,1646437155588146107,r1000913c5/base_front_laser_link,0,1646437155588146107,v/m1vw10zy74w/map,-7.39984270238,-0.727715885263,0.165,0.0,0.0,0.999998243711,0.00187418667149,0,71.1751403809,61.0727233887,101.312461853,6.7465801239
1646437155666276495,98,1646437155666276495,r1000913c5/base_front_laser_link,0,1646437155666276495,v/m1vw10zy74w/map,-7.48079271638,-0.728202678582,0.165,0.0,0.0,0.999999718647,0.000750137487484,0,70.5100784302,61.1680526733,101.504318237,6.77875518799
1646437155823303719,99,1646437155823303719,r1000913c5/base_front_laser_link,0,1646437155823303719,v/m1vw10zy74w/map,-7.63899906073,-0.723315764889,0.165,0.0,0.0,0.999998578178,-0.00168631030338,0,68.4125442505,61.2404975891,101.590179443,6.78322887421
1646437155981372043,100,1646437155981372043,r1000913c5/base_front_laser_link,0,1646437155981372043,v/m1vw10zy74w/map,-7.80207165868,-0.725909296564,0.165,0.0,0.0,0.999995021151,-0.00315557808215,0,73.1241378784,61.3581581116,101.914245605,6.85202884674
1646437156138232766,101,1646437156138232766,r1000913c5/base_front_laser_link,0,1646437156138232766,v/m1vw10zy74w/map,-7.9655646292,-0.723210327929,0.165,0.0,0.0,0.999993971806,-0.00347222561154,0,72.1462020874,61.4639205933,102.167495728,6.90119123459
1646437156217443780,102,1646437156217443780,r1000913c5/base_front_laser_link,0,1646437156217443780,v/m1vw10zy74w/map,-8.03016339512,-0.721216318343,0.165,0.0,0.0,0.999996886132,-0.00249554122215,0,69.4116439819,61.5410842896,102.276443481,6.91178560257
1646437156296365111,103,1646437156296365111,r1000913c5/base_front_laser_link,0,1646437156296365111,v/m1vw10zy74w/map,-8.09333530225,-0.721105090817,0.165,0.0,0.0,0.999997700635,-0.00214446374829,0,72.6502151489,61.6479034424,102.539543152,6.96388053894
1646437156453207771,104,1646437156453207771,r1000913c5/base_front_laser_link,0,1646437156453207771,v/m1vw10zy74w/map,-8.18382040035,-0.720327263037,0.165,0.0,0.0,0.999997464387,-0.00225193699107,0,74.3719787598,61.7690849304,102.891143799,7.04068517685
1646437156689359271,105,1646437156689359271,r1000913c5/base_front_laser_link,0,1646437156689359271,v/m1vw10zy74w/map,-8.30066709553,-0.722441627221,0.165,0.0,0.0,0.999990730738,-0.00430562862728,0,67.5432891846,61.8235588074,102.912017822,7.02948665619
1646437156847698992,106,1646437156847698992,r1000913c5/base_front_laser_link,0,1646437156847698992,v/m1vw10zy74w/map,-8.35184508163,-0.727331131175,0.165,0.0,0.0,0.999977553433,-0.00670019621892,0,68.8454208374,61.8891830444,102.976501465,7.0291056633
1646437156926370674,107,1646437156926370674,r1000913c5/base_front_laser_link,0,1646437156926370674,v/m1vw10zy74w/map,-8.38182193618,-0.728068818086,0.165,0.0,0.0,0.999974257542,-0.00717525279605,0,69.3522338867,61.9582862854,103.057113647,7.03294277191
1646437157083301071,108,1646437157083301071,r1000913c5/base_front_laser_link,0,1646437157083301071,v/m1vw10zy74w/map,-8.44348798895,-0.736699944266,0.165,0.0,0.0,0.99996100969,-0.00883057755493,0,61.7391242981,61.9562759399,102.957290649,7.00033855438
1646437157319416436,109,1646437157319416436,r1000913c5/base_front_laser_link,0,1646437157319416436,v/m1vw10zy74w/map,-8.53443416771,-0.738258008536,0.165,0.0,0.0,0.999948114216,-0.0101867008831,0,58.01171875,61.9204139709,102.855300903,6.97829532623
1646437157477463224,110,1646437157477463224,r1000913c5/base_front_laser_link,0,1646437157477463224,v/m1vw10zy74w/map,-8.58624008198,-0.740001114426,0.165,0.0,0.0,0.999937278539,-0.011199954821,0,60.8879966736,61.911113739,102.752700806,6.94719457626
1646437157791300910,111,1646437157791300910,r1000913c5/base_front_laser_link,0,1646437157791300910,v/m1vw10zy74w/map,-8.69341330483,-0.747608607704,0.165,0.0,0.0,0.99970749595,-0.0241851719509,0,63.3014564514,61.9235267639,102.674758911,6.91707754135
1646437157949444781,112,1646437157949444781,r1000913c5/base_front_laser_link,0,1646437157949444781,v/m1vw10zy74w/map,-8.74018033707,-0.759481888113,0.165,0.0,0.0,0.999276643299,-0.0380288069352,0,61.9434928894,61.9237060547,102.582092285,6.88612890244
1646437158107259876,113,1646437158107259876,r1000913c5/base_front_laser_link,0,1646437158107259876,v/m1vw10zy74w/map,-8.78270964364,-0.773092154149,0.165,0.0,0.0,0.998617990883,-0.0525557635651,0,65.045539856,61.9510879517,102.536560059,6.86182355881
1646437158264441057,114,1646437158264441057,r1000913c5/base_front_laser_link,0,1646437158264441057,v/m1vw10zy74w/map,-8.83222397001,-0.784590302824,0.165,0.0,0.0,0.997905282503,-0.064691940393,0,61.9826965332,61.9513626099,102.446350098,6.83166217804
1646437158579605963,115,1646437158579605963,r1000913c5/base_front_laser_link,0,1646437158579605963,v/m1vw10zy74w/map,-8.90979345046,-0.816080851356,0.165,0.0,0.0,0.995636933148,-0.0933118285771,0,62.4624023438,61.9557685852,102.361946106,6.80206012726
1646437158816239825,116,1646437158816239825,r1000913c5/base_front_laser_link,0,1646437158816239825,v/m1vw10zy74w/map,-8.96127298325,-0.842287258286,0.165,0.0,0.0,0.992597783785,-0.121448094366,0,64.8482055664,61.9804916382,102.314353943,6.7779545784
1646437158974471896,117,1646437158974471896,r1000913c5/base_front_laser_link,0,1646437158974471896,v/m1vw10zy74w/map,-8.99326074241,-0.867562427505,0.165,0.0,0.0,0.989405640103,-0.14517740641,0,64.0221633911,61.9977912903,102.252426147,6.75154304504
1646437159131291493,118,1646437159131291493,r1000913c5/base_front_laser_link,0,1646437159131291493,v/m1vw10zy74w/map,-9.00825132317,-0.894045593041,0.165,0.0,0.0,0.984538640404,-0.175167535666,0,65.6983947754,62.0288925171,102.223175049,6.73142766953
1646437159367366793,119,1646437159367366793,r1000913c5/base_front_laser_link,0,1646437159367366793,v/m1vw10zy74w/map,-8.9953799976,-0.923904974945,0.165,0.0,0.0,0.976722990981,-0.214504542818,0,65.9895553589,62.0618972778,102.200378418,6.71282863617
1646437159604392394,120,1646437159604392394,r1000913c5/base_front_laser_link,0,1646437159604392394,v/m1vw10zy74w/map,-8.97976396306,-0.946912742977,0.165,0.0,0.0,0.965401988141,-0.260766181269,0,65.615196228,62.0912628174,102.169059753,6.69259977341
1646437159760409840,121,1646437159760409840,r1000913c5/base_front_laser_link,0,1646437159760409840,v/m1vw10zy74w/map,-8.96919096265,-0.967234313491,0.165,0.0,0.0,0.954863484834,-0.297044988731,0,68.1632537842,62.1410331726,102.203590393,6.687520504
1646437159919417100,122,1646437159919417100,r1000913c5/base_front_laser_link,0,1646437159919417100,v/m1vw10zy74w/map,-8.9523166222,-0.989962046417,0.165,0.0,0.0,0.943521688534,-0.331310765395,0,67.3083267212,62.1830444336,102.212043762,6.67633342743
1646437160154791697,123,1646437160154791697,r1000913c5/base_front_laser_link,0,1646437160154791697,v/m1vw10zy74w/map,-8.93191544411,-1.01730517399,0.165,0.0,0.0,0.925149073864,-0.37960399251,0,66.4433059692,62.2173995972,102.197807312,6.660135746
1646437160311667729,124,1646437160311667729,r1000913c5/base_front_laser_link,0,1646437160311667729,v/m1vw10zy74w/map,-8.91914786265,-1.03207409119,0.165,0.0,0.0,-0.912832355257,0.408334533436,0,64.0753860474,62.2322654724,102.138183594,6.63530778885
1646437160390691159,125,1646437160390691159,r1000913c5/base_front_laser_link,0,1646437160390691159,v/m1vw10zy74w/map,-8.91025510522,-1.03997205904,0.165,0.0,0.0,-0.905432839894,0.424489543384,0,62.8875427246,62.2374649048,102.064376831,6.60897111893
1646437160469611833,126,1646437160469611833,r1000913c5/base_front_laser_link,0,1646437160469611833,v/m1vw10zy74w/map,-8.89687332239,-1.04430271075,0.165,0.0,0.0,-0.898687298947,0.438589943696,0,66.4126052856,62.2703399658,102.049667358,6.59311008453
1646437160626527126,127,1646437160626527126,r1000913c5/base_front_laser_link,0,1646437160626527126,v/m1vw10zy74w/map,-8.87920127812,-1.0572643624,0.165,0.0,0.0,-0.882394008812,0.470511225384,0,65.2273864746,62.2934417725,102.010345459,6.57230091095
1646437160941714897,128,1646437160941714897,r1000913c5/base_front_laser_link,0,1646437160941714897,v/m1vw10zy74w/map,-8.84500435253,-1.08427655505,0.165,0.0,0.0,-0.849063876758,0.528290197888,0,67.5461578369,62.3341598511,102.022834778,6.56289243698
1646437161334530695,129,1646437161334530695,r1000913c5/base_front_laser_link,0,1646437161334530695,v/m1vw10zy74w/map,-8.79758614617,-1.10067115051,0.165,0.0,0.0,-0.80243246974,0.596742935867,0,65.1133651733,62.3555374146,101.981384277,6.54194831848
1646437161570587728,130,1646437161570587728,r1000913c5/base_front_laser_link,0,1646437161570587728,v/m1vw10zy74w/map,-8.77095158508,-1.10135324309,0.165,0.0,0.0,-0.776990270973,0.629512604173,0,64.7830505371,62.3740692139,101.934638977,6.52018880844
1646437161728563385,131,1646437161728563385,r1000913c5/base_front_laser_link,0,1646437161728563385,v/m1vw10zy74w/map,-8.75367760596,-1.10459213917,0.165,0.0,0.0,-0.760197286548,0.649692300651,0,65.1145935059,62.3948326111,101.893730164,6.49963331223
1646437163854695418,132,1646437163854695418,r1000913c5/base_front_laser_link,0,1646437163854695418,v/m1vw10zy74w/map,-8.70389989564,-1.10186602963,0.165,0.0,0.0,-0.718374733399,0.695656339305,0,63.4951438904,62.4031028748,101.830116272,6.475669384
1646437164012855058,133,1646437164012855058,r1000913c5/base_front_laser_link,0,1646437164012855058,v/m1vw10zy74w/map,-8.70358681949,-1.10213689121,0.165,0.0,0.0,-0.718030024732,0.696012128905,0,66.6295547485,62.4346466064,101.819450378,6.461602211
1646437164170575231,134,1646437164170575231,r1000913c5/base_front_laser_link,0,1646437164170575231,v/m1vw10zy74w/map,-8.70470931862,-1.11075768425,0.165,0.0,0.0,-0.71893625746,0.695076008584,0,62.9137229919,62.4381942749,101.750930786,6.43757867813
1646437164405602128,135,1646437164405602128,r1000913c5/base_front_laser_link,0,1646437164405602128,v/m1vw10zy74w/map,-8.70362536745,-1.15769425041,0.165,0.0,0.0,-0.716240094249,0.697853944168,0,65.877204895,62.4634819031,101.724884033,6.42046737671
1646437164564881485,136,1646437164564881485,r1000913c5/base_front_laser_link,0,1646437164564881485,v/m1vw10zy74w/map,-8.6946188678,-1.20818320638,0.165,0.0,0.0,-0.706030718347,0.708181208979,0,65.2894134521,62.4841079712,101.688232422,6.40137386322
1646437164721917515,137,1646437164721917515,r1000913c5/base_front_laser_link,0,1646437164721917515,v/m1vw10zy74w/map,-8.68465488746,-1.25446844108,0.165,0.0,0.0,-0.696182580983,0.717864760199,0,61.3953208923,62.4762191772,101.61214447,6.37864160538
1646437164879843639,138,1646437164879843639,r1000913c5/base_front_laser_link,0,1646437164879843639,v/m1vw10zy74w/map,-8.67834275758,-1.30007682637,0.165,0.0,0.0,-0.691296483534,0.722571222686,0,61.6165122986,62.4700317383,101.537757874,6.35590696335
1646437165035803054,139,1646437165035803054,r1000913c5/base_front_laser_link,0,1646437165035803054,v/m1vw10zy74w/map,-8.67752081738,-1.34442289841,0.165,0.0,0.0,-0.692476703751,0.721440236445,0,63.48072052,62.4772529602,101.477989197,6.33357906342
1646437165192871420,140,1646437165192871420,r1000913c5/base_front_laser_link,0,1646437165192871420,v/m1vw10zy74w/map,-8.67336123915,-1.39923370713,0.165,0.0,0.0,-0.692033015272,0.721865850261,0,65.5953063965,62.4993667603,101.448501587,6.31637907028
1646437165429967336,141,1646437165429967336,r1000913c5/base_front_laser_link,0,1646437165429967336,v/m1vw10zy74w/map,-8.67489441319,-1.46834512552,0.165,0.0,0.0,-0.69664418147,0.717416813592,0,66.2132797241,62.5255203247,101.430480957,6.30165243149
1646437165507841727,142,1646437165507841727,r1000913c5/base_front_laser_link,0,1646437165507841727,v/m1vw10zy74w/map,-8.67604966226,-1.49045186526,0.165,0.0,0.0,-0.69852380567,0.715586817173,0,65.9389038086,62.5493888855,101.407112122,6.28590869904
1646437165586975104,143,1646437165586975104,r1000913c5/base_front_laser_link,0,1646437165586975104,v/m1vw10zy74w/map,-8.67755851859,-1.51306058911,0.165,0.0,0.0,-0.70066217388,0.713493180131,0,69.8641281128,62.6001853943,101.480628967,6.29348087311
1646437165665875149,144,1646437165665875149,r1000913c5/base_front_laser_link,0,1646437165665875149,v/m1vw10zy74w/map,-8.67946679919,-1.53559089691,0.165,0.0,0.0,-0.703058642845,0.71113187576,0,69.2330169678,62.6459312439,101.533126831,6.29573297501
1646437165744880887,145,1646437165744880887,r1000913c5/base_front_laser_link,0,1646437165744880887,v/m1vw10zy74w/map,-8.6711901531,-1.55292323704,0.165,0.0,0.0,-0.701909260036,0.712266376208,0,68.2981185913,62.6846427917,101.55884552,6.29140043259
1646437165822835245,146,1646437165822835245,r1000913c5/base_front_laser_link,0,1646437165822835245,v/m1vw10zy74w/map,-8.67323303023,-1.57601511794,0.165,0.0,0.0,-0.704802345723,0.709403730934,0,68.8619918823,62.7266654968,101.598121643,6.29048490524
1646437165901885592,147,1646437165901885592,r1000913c5/base_front_laser_link,0,1646437165901885592,v/m1vw10zy74w/map,-8.6760032769,-1.59853008983,0.165,0.0,0.0,-0.707810073964,0.706402788213,0,68.1796188354,62.7635116577,101.618675232,6.28505563736
1646437165980989766,148,1646437165980989766,r1000913c5/base_front_laser_link,0,1646437165980989766,v/m1vw10zy74w/map,-8.67921001188,-1.62097816222,0.165,0.0,0.0,-0.711049085606,0.703142373818,0,72.4825363159,62.8287391663,101.77130127,6.31418848038
1646437166138061427,149,1646437166138061427,r1000913c5/base_front_laser_link,0,1646437166138061427,v/m1vw10zy74w/map,-8.68399794734,-1.66475752914,0.165,0.0,0.0,-0.715250746275,0.698867920249,0,70.161529541,62.8776245117,101.841766357,6.32138156891
1646437166217207223,150,1646437166217207223,r1000913c5/base_front_laser_link,0,1646437166217207223,v/m1vw10zy74w/map,-8.68524754575,-1.68734957582,0.165,0.0,0.0,-0.715988843031,0.698111722187,0,70.0209274292,62.9249305725,101.906044006,6.32703638077
1646437166295849309,151,1646437166295849309,r1000913c5/base_front_laser_link,0,1646437166295849309,v/m1vw10zy74w/map,-8.67118486948,-1.70820868252,0.165,0.0,0.0,-0.711287322088,0.70290137675,0,72.528427124,62.9881134033,102.050048828,6.35397815704
1646437166531894155,152,1646437166531894155,r1000913c5/base_front_laser_link,0,1646437166531894155,v/m1vw10zy74w/map,-8.67201896914,-1.77423484068,0.165,0.0,0.0,-0.711572492384,0.702612687106,0,73.9783477783,63.0599441528,102.245140076,6.39506626129
1646437172281331323,153,1646437172281331323,r1000913c5/base_front_laser_link,0,1646437172281331323,v/m1vw10zy74w/map,-8.6732210293,-2.66077606682,0.165,0.0,0.0,-0.706941512934,0.707272010821,0,52.8680267334,62.99376297,102.274238586,6.42682552338
1646437175902469889,154,1646437175902469889,r1000913c5/base_front_laser_link,0,1646437175902469889,v/m1vw10zy74w/map,-8.68150111335,-2.80667857018,0.165,0.0,0.0,-0.709566302997,0.704638674535,0,55.5426521301,62.945690155,102.247154236,6.433822155
1646437176138525212,155,1646437176138525212,r1000913c5/base_front_laser_link,0,1646437176138525212,v/m1vw10zy74w/map,-8.68166387199,-2.80479821063,0.165,0.0,0.0,-0.709751654631,0.704451977603,0,56.4383087158,62.9039764404,102.206466675,6.4341635704
1646437176374352977,156,1646437176374352977,r1000913c5/base_front_laser_link,0,1646437176374352977,v/m1vw10zy74w/map,-8.6811716852,-2.78222533624,0.165,0.0,0.0,-0.709410747261,0.704795283519,0,57.3156356812,62.8683815002,102.15537262,6.42899656296
1646437176531338900,157,1646437176531338900,r1000913c5/base_front_laser_link,0,1646437176531338900,v/m1vw10zy74w/map,-8.68307596144,-2.7561392332,0.165,0.0,0.0,-0.711661362817,0.702522671999,0,55.9768562317,62.8247642517,102.12046051,6.43189907074
1646437176610497811,158,1646437176610497811,r1000913c5/base_front_laser_link,0,1646437176610497811,v/m1vw10zy74w/map,-8.68462795246,-2.73750002235,0.165,0.0,0.0,-0.713560284116,0.700593834495,0,59.0896949768,62.8012733459,102.05632782,6.41835165024
1646437176689396961,159,1646437176689396961,r1000913c5/base_front_laser_link,0,1646437176689396961,v/m1vw10zy74w/map,-8.6863779033,-2.71700792593,0.165,0.0,0.0,-0.715805900578,0.698299300228,0,59.6235923767,62.781414032,101.990615845,6.40306615829
1646437176925339756,160,1646437176925339756,r1000913c5/base_front_laser_link,0,1646437176925339756,v/m1vw10zy74w/map,-8.68697001545,-2.64619037377,0.165,0.0,0.0,-0.718522388294,0.695503829982,0,55.1048774719,62.7337341309,101.96862793,6.41163253784
1646437177082653488,161,1646437177082653488,r1000913c5/base_front_laser_link,0,1646437177082653488,v/m1vw10zy74w/map,-8.68681442998,-2.5975055338,0.165,0.0,0.0,-0.720123679065,0.693845722657,0,61.3565101624,62.7252311707,101.903045654,6.39260530472
1646437177240734623,162,1646437177240734623,r1000913c5/base_front_laser_link,0,1646437177240734623,v/m1vw10zy74w/map,-8.68495119642,-2.55140714608,0.165,0.0,0.0,-0.719975300539,0.693999687762,0,59.7419662476,62.7069282532,101.838310242,6.37712717056
1646437177397749476,163,1646437177397749476,r1000913c5/base_front_laser_link,0,1646437177397749476,v/m1vw10zy74w/map,-8.69235087668,-2.49655888606,0.165,0.0,0.0,-0.720355262303,0.693605288383,0,60.0265579224,62.6905860901,101.773521423,6.36097955704
1646437177556378520,164,1646437177556378520,r1000913c5/base_front_laser_link,0,1646437177556378520,v/m1vw10zy74w/map,-8.69131467072,-2.45133232306,0.165,0.0,0.0,-0.720276903991,0.693686659506,0,66.1047668457,62.7112770081,101.7526474,6.34712409973
1646437177713657331,165,1646437177713657331,r1000913c5/base_front_laser_link,0,1646437177713657331,v/m1vw10zy74w/map,-8.68957403387,-2.40665021839,0.165,0.0,0.0,-0.720210858845,0.693755229748,0,65.1110305786,62.7257347107,101.717536926,6.3306016922
1646437177792437315,166,1646437177792437315,r1000913c5/base_front_laser_link,0,1646437177792437315,v/m1vw10zy74w/map,-8.68871775755,-2.38430562051,0.165,0.0,0.0,-0.720189894944,0.693776992427,0,65.1978149414,62.7405357361,101.683746338,6.31440353394
1646437177871559566,167,1646437177871559566,r1000913c5/base_front_laser_link,0,1646437177871559566,v/m1vw10zy74w/map,-8.69493310055,-2.35651603799,0.165,0.0,0.0,-0.723712763117,0.690101323359,0,62.3970680237,62.7384910583,101.625068665,6.29552555084
1646437178028555333,168,1646437178028555333,r1000913c5/base_front_laser_link,0,1646437178028555333,v/m1vw10zy74w/map,-8.69362475031,-2.31114427624,0.165,0.0,0.0,-0.724202566656,0.689587298642,0,61.5351219177,62.7313728333,101.563705444,6.27744340897
1646437178106538714,169,1646437178106538714,r1000913c5/base_front_laser_link,0,1646437178106538714,v/m1vw10zy74w/map,-8.6925383592,-2.28929058331,0.165,0.0,0.0,-0.724185978547,0.689604719007,0,57.1964492798,62.6988143921,101.518486023,6.27322292328
1646437178185613697,170,1646437178185613697,r1000913c5/base_front_laser_link,0,1646437178185613697,v/m1vw10zy74w/map,-8.69148373683,-2.26715864866,0.165,0.0,0.0,-0.724216177183,0.689573004624,0,59.3956718445,62.6794967651,101.459030151,6.25984382629
1646437178342849455,171,1646437178342849455,r1000913c5/base_front_laser_link,0,1646437178342849455,v/m1vw10zy74w/map,-8.68859783167,-2.22657393324,0.165,0.0,0.0,-0.72244430382,0.691429119923,0,53.1518630981,62.6241035461,101.47505188,6.28364992142
1646437178421694826,172,1646437178421694826,r1000913c5/base_front_laser_link,0,1646437178421694826,v/m1vw10zy74w/map,-8.68518885599,-2.20400374498,0.165,0.0,0.0,-0.721293179237,0.692629879218,0,55.6010398865,62.5835075378,101.447715759,6.28806829453
1646437178579716684,173,1646437178579716684,r1000913c5/base_front_laser_link,0,1646437178579716684,v/m1vw10zy74w/map,-8.68334221945,-2.15881597212,0.165,0.0,0.0,-0.721278384076,0.692645286323,0,65.807258606,62.6020355225,101.425926208,6.2746295929
1646437178737653551,174,1646437178737653551,r1000913c5/base_front_laser_link,0,1646437178737653551,v/m1vw10zy74w/map,-8.68151342508,-2.11379066155,0.165,0.0,0.0,-0.721274891642,0.692648923111,0,65.1505355835,62.6166000366,101.395210266,6.25953817368
1646437178972880629,175,1646437178972880629,r1000913c5/base_front_laser_link,0,1646437178972880629,v/m1vw10zy74w/map,-8.68418064112,-2.0541392154,0.165,0.0,0.0,-0.723166336958,0.690673909375,0,72.3089981079,62.6716690063,101.524391174,6.28424119949
1646437179130473895,176,1646437179130473895,r1000913c5/base_front_laser_link,0,1646437179130473895,v/m1vw10zy74w/map,-8.68209080387,-2.00901338329,0.165,0.0,0.0,-0.723149573224,0.690691461324,0,69.9845428467,62.7129859924,101.584259033,6.29042434692
1646437179288758608,177,1646437179288758608,r1000913c5/base_front_laser_link,0,1646437179288758608,v/m1vw10zy74w/map,-8.68002450527,-1.96387686887,0.165,0.0,0.0,-0.723157999016,0.690682639466,0,74.1720123291,62.7773628235,101.770835876,6.33115911484
1646437179445851589,178,1646437179445851589,r1000913c5/base_front_laser_link,0,1646437179445851589,v/m1vw10zy74w/map,-8.67625891604,-1.92991637985,0.165,0.0,0.0,-0.723920785909,0.689883102945,0,73.5408401489,62.8374938965,101.93069458,6.36440134048
1646437179683002431,179,1646437179683002431,r1000913c5/base_front_laser_link,0,1646437179683002431,v/m1vw10zy74w/map,-8.67304446603,-1.86213766951,0.165,0.0,0.0,-0.723983659449,0.689817121309,0,69.4812011719,62.8744010925,101.972068787,6.36588811874
1646437179760819987,180,1646437179760819987,r1000913c5/base_front_laser_link,0,1646437179760819987,v/m1vw10zy74w/map,-8.67190137824,-1.83965777139,0.165,0.0,0.0,-0.723924373785,0.68987933803,0,70.561706543,62.9168739319,102.038406372,6.37384414673
1646437180076793718,181,1646437180076793718,r1000913c5/base_front_laser_link,0,1646437180076793718,v/m1vw10zy74w/map,-8.670409304,-1.75580158721,0.165,0.0,0.0,-0.724473162118,0.689303008386,0,74.3359222412,62.9796142578,102.216583252,6.41232347488
1646437180233810144,182,1646437180233810144,r1000913c5/base_front_laser_link,0,1646437180233810144,v/m1vw10zy74w/map,-8.6681160539,-1.71071285741,0.165,0.0,0.0,-0.72441971656,0.689359176525,0,73.2094345093,63.0355148315,102.353240967,6.43924093246
1646437180390806559,183,1646437180390806559,r1000913c5/base_front_laser_link,0,1646437180390806559,v/m1vw10zy74w/map,-8.66858916944,-1.66894954835,0.165,0.0,0.0,-0.724070466865,0.689726002855,0,72.4835357666,63.0868644714,102.46472168,6.45928621292
1646437180626930903,184,1646437180626930903,r1000913c5/base_front_laser_link,0,1646437180626930903,v/m1vw10zy74w/map,-8.66508129608,-1.60144387765,0.165,0.0,0.0,-0.723833962042,0.689974199079,0,72.1455841064,63.1358299255,102.563972473,6.47604799271
1646437180783637195,185,1646437180783637195,r1000913c5/base_front_laser_link,0,1646437180783637195,v/m1vw10zy74w/map,-8.66383022679,-1.54911839103,0.165,0.0,0.0,-0.722168993808,0.691716664814,0,72.8015213013,63.1877975464,102.679664612,6.49729061127
1646437180862750446,186,1646437180862750446,r1000913c5/base_front_laser_link,0,1646437180862750446,v/m1vw10zy74w/map,-8.6617489607,-1.53510056446,0.165,0.0,0.0,-0.722378644369,0.691497718116,0,71.9950180054,63.2348937988,102.770080566,6.51172971725
1646437181019889642,187,1646437181019889642,r1000913c5/base_front_laser_link,0,1646437181019889642,v/m1vw10zy74w/map,-8.65983793956,-1.49088550348,0.165,0.0,0.0,-0.722403888889,0.691471345262,0,70.3790435791,63.272895813,102.818382263,6.51516342163
1646437181177815808,188,1646437181177815808,r1000913c5/base_front_laser_link,0,1646437181177815808,v/m1vw10zy74w/map,-8.65785477602,-1.44568973535,0.165,0.0,0.0,-0.72239863054,0.691476838798,0,68.4210968018,63.3001327515,102.825920105,6.50859451294
1646437181255766694,189,1646437181255766694,r1000913c5/base_front_laser_link,0,1646437181255766694,v/m1vw10zy74w/map,-8.65709099242,-1.43324595986,0.165,0.0,0.0,-0.72257446735,0.691293092063,0,69.8882064819,63.3348083496,102.861579895,6.50892496109
1646437181413700121,190,1646437181413700121,r1000913c5/base_front_laser_link,0,1646437181413700121,v/m1vw10zy74w/map,-8.65506014686,-1.38902906599,0.165,0.0,0.0,-0.722540311431,0.69132879179,0,71.3081665039,63.3765525818,102.928627014,6.51735925674
1646437181571975380,191,1646437181571975380,r1000913c5/base_front_laser_link,0,1646437181571975380,v/m1vw10zy74w/map,-8.65306047133,-1.34344479937,0.165,0.0,0.0,-0.722554773328,0.691313676663,0,69.4068374634,63.4079589844,102.952445984,6.51482772827
1646437181649981173,192,1646437181649981173,r1000913c5/base_front_laser_link,0,1646437181649981173,v/m1vw10zy74w/map,-8.65210973277,-1.32168863448,0.165,0.0,0.0,-0.722566890541,0.691301011639,0,69.8646621704,63.4414138794,102.984733582,6.51444005966
1646437181728807366,193,1646437181728807366,r1000913c5/base_front_laser_link,0,1646437181728807366,v/m1vw10zy74w/map,-8.65271664684,-1.2971190326,0.165,0.0,0.0,-0.722399836202,0.691475579219,0,66.2289352417,63.455783844,102.957649231,6.50062274933
1646437182043951625,194,1646437182043951625,r1000913c5/base_front_laser_link,0,1646437182043951625,v/m1vw10zy74w/map,-8.64896542368,-1.2076565594,0.165,0.0,0.0,-0.722436805524,0.691436954483,0,65.2833404541,63.4651565552,102.920661926,6.48516798019
1646437182122976928,195,1646437182122976928,r1000913c5/base_front_laser_link,0,1646437182122976928,v/m1vw10zy74w/map,-8.64797877465,-1.18519481721,0.165,0.0,0.0,-0.722435576936,0.691438238151,0,63.777217865,63.4667472839,102.872413635,6.46855592728
1646437182359007602,196,1646437182359007602,r1000913c5/base_front_laser_link,0,1646437182359007602,v/m1vw10zy74w/map,-8.64599343427,-1.11719638931,0.165,0.0,0.0,-0.721858313394,0.69204087696,0,65.0930786133,63.4750022888,102.834228516,6.45307397842
1646437182595566100,197,1646437182595566100,r1000913c5/base_front_laser_link,0,1646437182595566100,v/m1vw10zy74w/map,-8.64322341757,-1.04997599558,0.165,0.0,0.0,-0.721935970428,0.691959864878,0,58.8009872437,63.4513969421,102.787117004,6.44524002075
1646437182674800446,198,1646437182674800446,r1000913c5/base_front_laser_link,0,1646437182674800446,v/m1vw10zy74w/map,-8.64254502899,-1.02712017768,0.165,0.0,0.0,-0.723492633174,0.690332101052,0,60.744228363,63.4377937317,102.733215332,6.43180704117
1646437182832001709,199,1646437182832001709,r1000913c5/base_front_laser_link,0,1646437182832001709,v/m1vw10zy74w/map,-8.63865726221,-0.988889120173,0.165,0.0,0.0,-0.723930481967,0.689872928357,0,58.7029914856,63.4141197205,102.687187195,6.42435646057
1646437182989907846,200,1646437182989907846,r1000913c5/base_front_laser_link,0,1646437182989907846,v/m1vw10zy74w/map,-8.63652297911,-0.944428383952,0.165,0.0,0.0,-0.723938960691,0.689864030947,0,59.2658195496,63.3934822083,102.638336182,6.4149518013
1646437183068917287,201,1646437183068917287,r1000913c5/base_front_laser_link,0,1646437183068917287,v/m1vw10zy74w/map,-8.63543561542,-0.922011148682,0.165,0.0,0.0,-0.723932338362,0.68987098031,0,59.5702438354,63.3745536804,102.588432312,6.40462589264
1646437183224946115,202,1646437183224946115,r1000913c5/base_front_laser_link,0,1646437183224946115,v/m1vw10zy74w/map,-8.62920092767,-0.874176464799,0.165,0.0,0.0,-0.722216730057,0.691666823569,0,60.2856941223,63.359336853,102.536628723,6.39243078232
1646437183304269474,203,1646437183304269474,r1000913c5/base_front_laser_link,0,1646437183304269474,v/m1vw10zy74w/map,-8.62819986703,-0.852021299049,0.165,0.0,0.0,-0.722170504351,0.691715087768,0,60.2168540955,63.3439331055,102.485313416,6.38046073914
1646437186138165583,204,1646437186138165583,r1000913c5/base_front_laser_link,0,1646437186138165583,v/m1vw10zy74w/map,-8.62522665932,-0.756849864653,0.165,0.0,0.0,-0.719371629649,0.694625408732,0,58.3607902527,63.3196258545,102.442558289,6.37431192398
1646437186217209231,205,1646437186217209231,r1000913c5/base_front_laser_link,0,1646437186217209231,v/m1vw10zy74w/map,-8.62329901702,-0.764445168785,0.165,0.0,0.0,-0.717108861358,0.696961176079,0,60.9736976624,63.3082389832,102.390777588,6.36084604263
1646437186532130910,206,1646437186532130910,r1000913c5/base_front_laser_link,0,1646437186532130910,v/m1vw10zy74w/map,-8.60565223936,-0.801167739326,0.165,0.0,0.0,-0.698173865961,0.715928245629,0,65.0779647827,63.3167877197,102.356529236,6.34658050537
1646437186689991165,207,1646437186689991165,r1000913c5/base_front_laser_link,0,1646437186689991165,v/m1vw10zy74w/map,-8.58871510409,-0.822978514154,0.165,0.0,0.0,-0.680918606371,0.732359100099,0,60.4638824463,63.3030700684,102.306037903,6.33432149887
1646437186926331416,208,1646437186926331416,r1000913c5/base_front_laser_link,0,1646437186926331416,v/m1vw10zy74w/map,-8.55336947422,-0.859032947901,0.165,0.0,0.0,-0.646178031178,0.763186708494,0,61.5837898254,63.2948455811,102.255432129,6.32019519806
1646437187163221606,209,1646437187163221606,r1000913c5/base_front_laser_link,0,1646437187163221606,v/m1vw10zy74w/map,-8.49935569135,-0.899051849417,0.165,0.0,0.0,-0.597134333435,0.802141251796,0,58.4725418091,63.2718811035,102.213378906,6.31383228302
1646437187320289956,210,1646437187320289956,r1000913c5/base_front_laser_link,0,1646437187320289956,v/m1vw10zy74w/map,-8.45497203374,-0.919132793316,0.165,0.0,0.0,-0.554296239019,0.832319457546,0,57.0450935364,63.2423706055,102.182426453,6.31335163116
1646437187478256074,211,1646437187478256074,r1000913c5/base_front_laser_link,0,1646437187478256074,v/m1vw10zy74w/map,-8.40371885851,-0.93295158012,0.165,0.0,0.0,-0.505855773249,0.862618071147,0,58.0593833923,63.2179222107,102.143196106,6.30842447281
1646437187715086128,212,1646437187715086128,r1000913c5/base_front_laser_link,0,1646437187715086128,v/m1vw10zy74w/map,-8.31355825904,-0.939306168834,0.165,0.0,0.0,-0.414933218679,0.909851869282,0,58.3980331421,63.1952934265,102.101860046,6.30218744278
1646437187872145951,213,1646437187872145951,r1000913c5/base_front_laser_link,0,1646437187872145951,v/m1vw10zy74w/map,-8.24868184387,-0.93120772125,0.165,0.0,0.0,-0.34756204939,0.937656985162,0,58.2901992798,63.1723747253,102.061302185,6.29631090164
1646437188029515089,214,1646437188029515089,r1000913c5/base_front_laser_link,0,1646437188029515089,v/m1vw10zy74w/map,-8.18488848417,-0.92532674828,0.165,0.0,0.0,-0.285746162671,0.95830534305,0,56.9294776917,63.1433372498,102.031318665,6.29599523544
1646437188188119047,215,1646437188188119047,r1000913c5/base_front_laser_link,0,1646437188188119047,v/m1vw10zy74w/map,-8.12383799929,-0.915078075676,0.165,0.0,0.0,-0.228503919892,0.973542992679,0,52.9991264343,63.096370697,102.05381012,6.31914520264
1646437188423224321,216,1646437188423224321,r1000913c5/base_front_laser_link,0,1646437188423224321,v/m1vw10zy74w/map,-8.03944919199,-0.890416979441,0.165,0.0,0.0,-0.157355546031,0.987542015376,0,55.5122642517,63.0614242554,102.037887573,6.32548713684
1646437188580299763,217,1646437188580299763,r1000913c5/base_front_laser_link,0,1646437188580299763,v/m1vw10zy74w/map,-7.97829760865,-0.874282703121,0.165,0.0,0.0,-0.117609054478,0.993059973166,0,54.6010780334,63.0226135254,102.033180237,6.33685588837
1646437188973372182,218,1646437188973372182,r1000913c5/base_front_laser_link,0,1646437188973372182,v/m1vw10zy74w/map,-7.8158488799,-0.839832306451,0.165,0.0,0.0,-0.0353661069349,0.999374423567,0,59.4906387329,63.0064849854,101.986907959,6.32680845261
1646437189131263883,219,1646437189131263883,r1000913c5/base_front_laser_link,0,1646437189131263883,v/m1vw10zy74w/map,-7.73663656409,-0.830964247118,0.165,0.0,0.0,-0.0111479648792,0.999937859509,0,57.0642852783,62.9794769287,101.954620361,6.32504749298
1646437189446182925,220,1646437189446182925,r1000913c5/base_front_laser_link,0,1646437189446182925,v/m1vw10zy74w/map,-7.59861058962,-0.802077206726,0.165,0.0,0.0,0.0245467408798,0.99969868336,0,53.5960884094,62.9370155334,101.963447571,6.34214353561
1646437189602182177,221,1646437189602182177,r1000913c5/base_front_laser_link,0,1646437189602182177,v/m1vw10zy74w/map,-7.52462974684,-0.79085440682,0.165,0.0,0.0,0.0347246178591,0.999396918604,0,50.9945716858,62.8832206726,102.018241882,6.37834024429
1646437189840181753,222,1646437189840181753,r1000913c5/base_front_laser_link,0,1646437189840181753,v/m1vw10zy74w/map,-7.40875842084,-0.774133912058,0.165,0.0,0.0,0.0424325837859,0.999099332315,0,58.0423202515,62.8615150452,101.978141785,6.37220907211
1646437190076369677,223,1646437190076369677,r1000913c5/base_front_laser_link,0,1646437190076369677,v/m1vw10zy74w/map,-7.28562895353,-0.759053323634,0.165,0.0,0.0,0.0432629791871,0.999063719005,0,56.5206260681,62.8332061768,101.949226379,6.37200593948
1646437190233444983,224,1646437190233444983,r1000913c5/base_front_laser_link,0,1646437190233444983,v/m1vw10zy74w/map,-7.19956848385,-0.753394659697,0.165,0.0,0.0,0.0407233019072,0.999170462274,0,55.2154579163,62.7993507385,101.933403015,6.37801790237
1646437190391440272,225,1646437190391440272,r1000913c5/base_front_laser_link,0,1646437190391440272,v/m1vw10zy74w/map,-7.10802983084,-0.731412035504,0.165,0.0,0.0,0.0393821295813,0.99922422302,0,53.664894104,62.7589302063,101.937240601,6.39277029037
1646437190628269866,226,1646437190628269866,r1000913c5/base_front_laser_link,0,1646437190628269866,v/m1vw10zy74w/map,-6.97236307094,-0.724627846212,0.165,0.0,0.0,0.0312988930987,0.99951006963,0,53.4427757263,62.7178916931,101.94342804,6.40851163864
1646437190785381818,227,1646437190785381818,r1000913c5/base_front_laser_link,0,1646437190785381818,v/m1vw10zy74w/map,-6.87620787896,-0.723600752725,0.165,0.0,0.0,0.0245527886859,0.999698534843,0,50.2831840515,62.6633529663,102.004928589,6.44719028473
1646437190943404466,228,1646437190943404466,r1000913c5/base_front_laser_link,0,1646437190943404466,v/m1vw10zy74w/map,-6.77882653852,-0.722704742527,0.165,0.0,0.0,0.0199783045979,0.999800413755,0,50.0866355896,62.6084327698,102.067932129,6.48649930954
1646437191179456242,229,1646437191179456242,r1000913c5/base_front_laser_link,0,1646437191179456242,v/m1vw10zy74w/map,-6.6218827026,-0.724142670759,0.165,0.0,0.0,0.0128824429652,0.999917017889,0,48.5800895691,62.5474395752,102.161697388,6.5380859375
1646437191494514450,230,1646437191494514450,r1000913c5/base_front_laser_link,0,1646437191494514450,v/m1vw10zy74w/map,-6.42067225786,-0.721011374754,0.165,0.0,0.0,0.00712160636601,0.99997464104,0,49.8788223267,62.4925994873,102.223266602,6.57689094543
1646437191652606113,231,1646437191652606113,r1000913c5/base_front_laser_link,0,1646437191652606113,v/m1vw10zy74w/map,-6.30800556457,-0.721722918943,0.165,0.0,0.0,0.00301185245071,0.999995464362,0,47.9617805481,62.4299659729,102.324813843,6.63161706924
1646437191809502188,232,1646437191809502188,r1000913c5/base_front_laser_link,0,1646437191809502188,v/m1vw10zy74w/map,-6.19626409088,-0.726624724601,0.165,0.0,0.0,0.00210484365006,0.999997784814,0,54.6064758301,62.3963890076,102.307769775,6.63712835312
1646437191966518012,233,1646437191966518012,r1000913c5/base_front_laser_link,0,1646437191966518012,v/m1vw10zy74w/map,-6.08541019598,-0.727497096619,0.165,0.0,0.0,0.00042331482842,0.999999910402,0,56.0912094116,62.3694419861,102.276496887,6.6356844902
1646437192045507931,234,1646437192045507931,r1000913c5/base_front_laser_link,0,1646437192045507931,v/m1vw10zy74w/map,-6.02491887163,-0.72734129138,0.165,0.0,0.0,-8.15357955172e-05,0.999999996676,0,53.1547966003,62.3302307129,102.276382446,6.64871788025
1646437192124474729,235,1646437192124474729,r1000913c5/base_front_laser_link,0,1646437192124474729,v/m1vw10zy74w/map,-5.96420555216,-0.727585426247,0.165,0.0,0.0,-0.000409667616775,0.999999916086,0,51.8185157776,62.2856903076,102.294937134,6.66974878311
1646437192281532520,236,1646437192281532520,r1000913c5/base_front_laser_link,0,1646437192281532520,v/m1vw10zy74w/map,-5.84306766795,-0.72845977692,0.165,0.0,0.0,-0.00092320948626,0.999999573842,0,57.5347862244,62.2656440735,102.25390625,6.662753582
1646437192439566206,237,1646437192439566206,r1000913c5/base_front_laser_link,0,1646437192439566206,v/m1vw10zy74w/map,-5.72595307779,-0.725911863991,0.165,0.0,0.0,-0.00236189617904,0.999997210719,0,54.4302330017,62.2327232361,102.236885071,6.66805315018
