%time,field.header.seq,field.header.stamp,field.header.frame_id,field.pose.header.seq,field.pose.header.stamp,field.pose.header.frame_id,field.pose.pose.position.x,field.pose.pose.position.y,field.pose.pose.position.z,field.pose.pose.orientation.x,field.pose.pose.orientation.y,field.pose.pose.orientation.z,field.pose.pose.orientation.w,field.label,field.current_error,field.mean,field.threshold,field.std_dev
1646317862781861442,0,1646317862781861442,r1000913c5/base_front_laser_link,0,1646317862781861442,v/m1vw10zy74w/map,-2.90085278075,-2.25444630111,0.165,0.0,0.0,-0.792917769345,0.609328656028,0,62.0288963318,62.0288963318,nan,nan
1646317862859748210,1,1646317862859748210,r1000913c5/base_front_laser_link,0,1646317862859748210,v/m1vw10zy74w/map,-2.9122222981,-2.25133383496,0.165,0.0,0.0,-0.803526823694,0.595268547468,0,64.5137786865,63.2713394165,88.5425720215,1.75707805157
1646317863017870338,2,1646317863017870338,r1000913c5/base_front_laser_link,0,1646317863017870338,v/m1vw10zy74w/map,-2.93326191036,-2.25110615944,0.165,0.0,0.0,-0.823213918712,0.567731313246,0,60.9623985291,62.5016899109,87.9685516357,1.82228660583
1646317863332879188,3,1646317863332879188,r1000913c5/base_front_laser_link,0,1646317863332879188,v/m1vw10zy74w/map,-2.97686941347,-2.23134972773,0.165,0.0,0.0,-0.8616029577,0.507582843764,0,68.2725601196,63.9444084167,93.6838150024,3.24646854401
1646317863410850813,4,1646317863410850813,r1000913c5/base_front_laser_link,0,1646317863410850813,v/m1vw10zy74w/map,-2.98744289002,-2.22663674523,0.165,0.0,0.0,-0.870553738576,0.492073356576,0,69.4378051758,65.0430908203,96.2440414429,3.73365068436
1646317863568703732,5,1646317863568703732,r1000913c5/base_front_laser_link,0,1646317863568703732,v/m1vw10zy74w/map,-3.00865151008,-2.21678421769,0.165,0.0,0.0,-0.887797689971,0.460233920613,0,70.9406661987,66.0260162354,98.3767776489,4.11691856384
1646317863726236161,6,1646317863726236161,r1000913c5/base_front_laser_link,0,1646317863726236161,v/m1vw10zy74w/map,-3.02740070519,-2.19964898852,0.165,0.0,0.0,-0.903361046761,0.428880891618,0,65.5392913818,65.956489563,97.2446289062,3.76271533966
1646317863805103545,7,1646317863805103545,r1000913c5/base_front_laser_link,0,1646317863805103545,v/m1vw10zy74w/map,-3.03767138306,-2.19383773619,0.165,0.0,0.0,-0.910217958991,0.414129529411,0,66.7997512817,66.0618972778,96.5508880615,3.49633193016
1646317863883871089,8,1646317863883871089,r1000913c5/base_front_laser_link,0,1646317863883871089,v/m1vw10zy74w/map,-3.04652287636,-2.185865189,0.165,0.0,0.0,-0.917443124873,0.397866953419,0,67.4864120483,66.2201766968,96.1346054077,3.30480957031
1646317863962484768,9,1646317863962484768,r1000913c5/base_front_laser_link,0,1646317863962484768,v/m1vw10zy74w/map,-3.05699039104,-2.17563018415,0.165,0.0,0.0,-0.924976694744,0.380023833701,0,64.9871444702,66.0968704224,95.5171890259,3.14010715485
1646317864198820484,10,1646317864198820484,r1000913c5/base_front_laser_link,0,1646317864198820484,v/m1vw10zy74w/map,-3.08164363099,-2.14892085595,0.165,0.0,0.0,-0.943844517668,0.33038996121,0,69.1477966309,66.3742294312,95.7275161743,3.11776185036
1646317864355883710,11,1646317864355883710,r1000913c5/base_front_laser_link,0,1646317864355883710,v/m1vw10zy74w/map,-3.09808775394,-2.12874734289,0.165,0.0,0.0,-0.954645405703,0.297745108054,0,69.7169036865,66.6527862549,96.0288696289,3.1253619194
1646317864434981340,12,1646317864434981340,r1000913c5/base_front_laser_link,0,1646317864434981340,v/m1vw10zy74w/map,-3.10470180086,-2.11874988333,0.165,0.0,0.0,-0.959822667405,0.280607282757,0,72.501121521,67.1026535034,97.3136367798,3.40365982056
1646317864591983957,13,1646317864591983957,r1000913c5/base_front_laser_link,0,1646317864591983957,v/m1vw10zy74w/map,-3.1165021362,-2.09536152514,0.165,0.0,0.0,-0.969053636341,0.246850258038,0,70.0905380249,67.316078186,97.4147338867,3.36621856689
1646317864749926897,14,1646317864749926897,r1000913c5/base_front_laser_link,0,1646317864749926897,v/m1vw10zy74w/map,-3.12886923144,-2.07741873572,0.165,0.0,0.0,-0.977399982965,0.211398375824,0,69.1610717773,67.4390716553,97.2747650146,3.27856278419
1646317864906832108,15,1646317864906832108,r1000913c5/base_front_laser_link,0,1646317864906832108,v/m1vw10zy74w/map,-3.13356409343,-2.0586832877,0.165,0.0,0.0,-0.982022465889,0.188764076268,0,65.1207733154,67.2941818237,96.9541244507,3.2199819088
1646317864985801376,16,1646317864985801376,r1000913c5/base_front_laser_link,0,1646317864985801376,v/m1vw10zy74w/map,-3.13784512439,-2.0474906616,0.165,0.0,0.0,-0.985243281527,0.171159797285,0,67.7554702759,67.3213119507,96.6805343628,3.11974072456
1646317865142907845,17,1646317865142907845,r1000913c5/base_front_laser_link,0,1646317865142907845,v/m1vw10zy74w/map,-3.14320716424,-2.02331991261,0.165,0.0,0.0,-0.990443808907,0.137916864079,0,67.4375915527,67.3277740479,96.4079284668,3.02671718597
1646317865301259841,18,1646317865301259841,r1000913c5/base_front_laser_link,0,1646317865301259841,v/m1vw10zy74w/map,-3.15152970209,-2.00623914729,0.165,0.0,0.0,-0.994669365927,0.103115723762,0,68.8371963501,67.4072189331,96.2924804688,2.9617536068
1646317865379387002,19,1646317865379387002,r1000913c5/base_front_laser_link,0,1646317865379387002,v/m1vw10zy74w/map,-3.15469296786,-1.99457208299,0.165,0.0,0.0,-0.996184787201,0.0872689506576,0,68.3457794189,67.4541473389,96.1253128052,2.89038848877
1646317865537111587,20,1646317865537111587,r1000913c5/base_front_laser_link,0,1646317865537111587,v/m1vw10zy74w/map,-3.15803940022,-1.9710972223,0.165,0.0,0.0,-0.998650450561,0.0519353212525,0,72.2415924072,67.6821212769,96.6961288452,3.00466966629
1646317865852967403,21,1646317865852967403,r1000913c5/base_front_laser_link,0,1646317865852967403,v/m1vw10zy74w/map,-3.16092788215,-1.91442567151,0.165,0.0,0.0,-0.999913962568,-0.0131174487457,0,68.2410583496,67.7075271606,96.5115585327,2.93467760086
1646317865930039678,22,1646317865930039678,r1000913c5/base_front_laser_link,0,1646317865930039678,v/m1vw10zy74w/map,-3.16055434784,-1.90261755351,0.165,0.0,0.0,-0.999544434948,-0.0301814937502,0,66.7717895508,67.6668395996,96.2883529663,2.8738360405
1646317866009077233,23,1646317866009077233,r1000913c5/base_front_laser_link,0,1646317866009077233,v/m1vw10zy74w/map,-3.15957214967,-1.89068911645,0.165,0.0,0.0,-0.998843916276,-0.0480711027287,0,65.2001037598,67.5640640259,96.1303024292,2.85541272163
1646317866245071509,24,1646317866245071509,r1000913c5/base_front_laser_link,0,1646317866245071509,v/m1vw10zy74w/map,-3.15607311964,-1.85291808845,0.165,0.0,0.0,-0.995305722524,-0.0967807765552,0,65.5076980591,67.481803894,95.9579620361,2.82538533211
1646317866402988985,25,1646317866402988985,r1000913c5/base_front_laser_link,0,1646317866402988985,v/m1vw10zy74w/map,-3.15261742666,-1.8260823109,0.165,0.0,0.0,-0.991628931047,-0.129120343518,0,66.5132751465,67.4445571899,95.7689819336,2.77480983734
1646317866481020737,26,1646317866481020737,r1000913c5/base_front_laser_link,0,1646317866481020737,v/m1vw10zy74w/map,-3.14852601189,-1.81462302887,0.165,0.0,0.0,-0.989092843312,-0.147293405515,0,67.7518615723,67.4559402466,95.6206436157,2.72156763077
1646317866560113081,27,1646317866560113081,r1000913c5/base_front_laser_link,0,1646317866560113081,v/m1vw10zy74w/map,-3.14489313248,-1.80333755355,0.165,0.0,0.0,-0.986329523734,-0.16478492228,0,66.1465377808,67.4091720581,95.4555664062,2.68213200569
1646317866795972391,28,1646317866795972391,r1000913c5/base_front_laser_link,0,1646317866795972391,v/m1vw10zy74w/map,-3.13386314073,-1.7672091489,0.165,0.0,0.0,-0.976715555215,-0.214538397962,0,68.0415420532,67.4309768677,95.3402328491,2.63641786575
1646317866875210775,29,1646317866875210775,r1000913c5/base_front_laser_link,0,1646317866875210775,v/m1vw10zy74w/map,-3.12868583702,-1.75650773665,0.165,0.0,0.0,-0.972752558833,-0.231845766156,0,67.6689453125,67.438911438,95.2116928101,2.59092783928
1646317867032834245,30,1646317867032834245,r1000913c5/base_front_laser_link,0,1646317867032834245,v/m1vw10zy74w/map,-3.12171656537,-1.73064174468,0.165,0.0,0.0,-0.964588190475,-0.263760540634,0,63.0858764648,67.2984924316,95.29246521,2.66465735435
1646317866953878160,31,1646317866953878160,r1000913c5/base_front_laser_link,0,1646317866953878160,v/m1vw10zy74w/map,-3.12700481279,-1.74109305457,0.165,0.0,0.0,-0.969119628425,-0.246591049719,0,61.7688980103,67.1256942749,95.5186538696,2.79765367508
1646317867189783134,32,1646317867189783134,r1000913c5/base_front_laser_link,0,1646317867189783134,v/m1vw10zy74w/map,-3.11066078358,-1.7101207358,0.165,0.0,0.0,-0.954190685287,-0.29919915794,0,64.4547958374,67.0447540283,95.4224624634,2.79257035255
1646317867347011957,33,1646317867347011957,r1000913c5/base_front_laser_link,0,1646317867347011957,v/m1vw10zy74w/map,-3.0995068294,-1.68997923662,0.165,0.0,0.0,-0.943676016669,-0.330870934903,0,66.6510009766,67.0331726074,95.2854614258,2.7507622242
1646317867977762432,34,1646317867977762432,r1000913c5/base_front_laser_link,0,1646317867977762432,v/m1vw10zy74w/map,-3.06891442897,-1.640950045,0.165,0.0,0.0,-0.91223189012,-0.409674234786,0,65.1366577148,66.9789886475,95.1656951904,2.72890233994
1646317868135254575,35,1646317868135254575,r1000913c5/base_front_laser_link,0,1646317868135254575,v/m1vw10zy74w/map,-3.07253207692,-1.63291951108,0.165,0.0,0.0,-0.910626377885,-0.413230686059,0,64.5690917969,66.9120483398,95.0704269409,2.71945977211
1646317868371857563,36,1646317868371857563,r1000913c5/base_front_laser_link,0,1646317868371857563,v/m1vw10zy74w/map,-3.07186435271,-1.60886072753,0.165,0.0,0.0,-0.9011479688,-0.433511635747,0,65.2241897583,66.8664245605,94.9536590576,2.69574260712
1646317868450586794,37,1646317868450586794,r1000913c5/base_front_laser_link,0,1646317868450586794,v/m1vw10zy74w/map,-3.07293935881,-1.59953366472,0.165,0.0,0.0,-0.897924867653,-0.440148761273,0,64.318321228,66.799369812,94.8723754883,2.69100117683
1646317868528851693,38,1646317868528851693,r1000913c5/base_front_laser_link,0,1646317868528851693,v/m1vw10zy74w/map,-3.07380065062,-1.58958523038,0.165,0.0,0.0,-0.894375185048,-0.447317592288,0,65.7260437012,66.7718505859,94.7545928955,2.66091346741
1646317868686705166,39,1646317868686705166,r1000913c5/base_front_laser_link,0,1646317868686705166,v/m1vw10zy74w/map,-3.07517238621,-1.5664469666,0.165,0.0,0.0,-0.885888905781,-0.463897452692,0,63.3142814636,66.6854095459,94.7340164185,2.68286776543
1646317868923004813,40,1646317868923004813,r1000913c5/base_front_laser_link,0,1646317868923004813,v/m1vw10zy74w/map,-3.07568902756,-1.52630267833,0.165,0.0,0.0,-0.870567043171,-0.49204981795,0,64.7477722168,66.6381530762,94.6371917725,2.66634726524
1646317869079012854,41,1646317869079012854,r1000913c5/base_front_laser_link,0,1646317869079012854,v/m1vw10zy74w/map,-3.0714900742,-1.49550531616,0.165,0.0,0.0,-0.857499849855,-0.514484215015,0,66.855796814,66.6433334351,94.5448684692,2.63384413719
1646317869237203012,42,1646317869237203012,r1000913c5/base_front_laser_link,0,1646317869237203012,v/m1vw10zy74w/map,-3.06794196441,-1.45780823121,0.165,0.0,0.0,-0.84143363453,-0.540360471057,0,66.1729431152,66.6323928833,94.4422607422,2.60328841209
1646317869316697119,43,1646317869316697119,r1000913c5/base_front_laser_link,0,1646317869316697119,v/m1vw10zy74w/map,-3.0648282876,-1.43912762902,0.165,0.0,0.0,-0.832920861318,-0.553392120274,0,63.625995636,66.5640716553,94.4014358521,2.61245536804
1646317869473369619,44,1646317869473369619,r1000913c5/base_front_laser_link,0,1646317869473369619,v/m1vw10zy74w/map,-3.05719029625,-1.40052076047,0.165,0.0,0.0,-0.815063258772,-0.579371973951,0,65.7931213379,66.5469360352,94.3023986816,2.58515357971
1646317869631144178,45,1646317869631144178,r1000913c5/base_front_laser_link,0,1646317869631144178,v/m1vw10zy74w/map,-3.04695368939,-1.35883450775,0.165,0.0,0.0,-0.793670180575,-0.608348292072,0,63.9415550232,66.4902954102,94.2452087402,2.58497071266
1646317869787189874,46,1646317869787189874,r1000913c5/base_front_laser_link,0,1646317869787189874,v/m1vw10zy74w/map,-3.03347901835,-1.31550203838,0.165,0.0,0.0,0.772186518299,0.635395924568,0,62.4717636108,66.4047927856,94.2739486694,2.62305140495
1646317870024627610,47,1646317870024627610,r1000913c5/base_front_laser_link,0,1646317870024627610,v/m1vw10zy74w/map,-3.00621475944,-1.24406031483,0.165,0.0,0.0,0.737985955508,0.674816070846,0,65.3010482788,66.3818054199,94.1814498901,2.59988212585
1646317870181022163,48,1646317870181022163,r1000913c5/base_front_laser_link,0,1646317870181022163,v/m1vw10zy74w/map,-2.98280947286,-1.19234450925,0.165,0.0,0.0,0.717479300652,0.696579825387,0,62.9545593262,66.3118591309,94.1683502197,2.61883187294
1646317870260824407,49,1646317870260824407,r1000913c5/base_front_laser_link,0,1646317870260824407,v/m1vw10zy74w/map,-2.97545290428,-1.16796179221,0.165,0.0,0.0,0.709651508452,0.704552862851,0,61.0160484314,66.2059402466,94.2999572754,2.69800448418
1646317870417588412,50,1646317870417588412,r1000913c5/base_front_laser_link,0,1646317870417588412,v/m1vw10zy74w/map,-2.95380686939,-1.11240672639,0.165,0.0,0.0,0.696594357225,0.717465191827,0,59.0666313171,66.0659561157,94.6215057373,2.85185027122
1646317870575607606,51,1646317870575607606,r1000913c5/base_front_laser_link,0,1646317870575607606,v/m1vw10zy74w/map,-2.94626280196,-1.05878511465,0.165,0.0,0.0,0.691926501993,0.721967946546,0,60.6911621094,65.9625930786,94.723991394,2.92046666145
1646317870733545184,52,1646317870733545184,r1000913c5/base_front_laser_link,0,1646317870733545184,v/m1vw10zy74w/map,-2.94389304586,-1.00334577503,0.165,0.0,0.0,0.691983823019,0.721913006311,0,61.6382293701,65.8810043335,94.7388458252,2.95261502266
1646317870811004825,53,1646317870811004825,r1000913c5/base_front_laser_link,0,1646317870811004825,v/m1vw10zy74w/map,-2.93415067309,-0.972888422845,0.165,0.0,0.0,0.690621734933,0.723216163562,0,59.4834136963,65.7625274658,94.9169006348,3.05145764351
1646317871127294620,54,1646317871127294620,r1000913c5/base_front_laser_link,0,1646317871127294620,v/m1vw10zy74w/map,-2.9436720486,-0.848272728103,0.165,0.0,0.0,0.70738539251,0.706828060043,0,60.2619781494,65.6625213623,95.0007019043,3.11272716522
1646317871205992945,55,1646317871205992945,r1000913c5/base_front_laser_link,0,1646317871205992945,v/m1vw10zy74w/map,-2.94326296047,-0.8126142692,0.165,0.0,0.0,0.711429925849,0.702757042374,0,60.0465888977,65.5622329712,95.0850906372,3.17428660393
1646317871363030862,56,1646317871363030862,r1000913c5/base_front_laser_link,0,1646317871363030862,v/m1vw10zy74w/map,-2.95855035939,-0.745386489407,0.165,0.0,0.0,0.72787877265,0.685705835126,0,60.5688095093,65.4746322632,95.1184082031,3.21459317207
1646317871678292436,57,1646317871678292436,r1000913c5/base_front_laser_link,0,1646317871678292436,v/m1vw10zy74w/map,-3.00273091521,-0.613271203243,0.165,0.0,0.0,0.768570162118,0.639765508528,0,68.1418762207,65.520614624,95.1370010376,3.2054605484
1646317871757285118,58,1646317871757285118,r1000913c5/base_front_laser_link,0,1646317871757285118,v/m1vw10zy74w/map,-3.02152339161,-0.589919970811,0.165,0.0,0.0,0.781581136461,0.623803596597,0,71.0251693726,65.6139144897,95.3864517212,3.25751161575
1646317871915293955,59,1646317871915293955,r1000913c5/base_front_laser_link,0,1646317871915293955,v/m1vw10zy74w/map,-3.04126407311,-0.575454618725,0.165,0.0,0.0,-0.800913993788,-0.598779403917,0,70.6515808105,65.6978759766,95.5817260742,3.29461622238
1646317872072103333,60,1646317872072103333,r1000913c5/base_front_laser_link,0,1646317872072103333,v/m1vw10zy74w/map,-3.06080013662,-0.581701993295,0.165,0.0,0.0,-0.819518475042,-0.573052762897,0,66.6871337891,65.7140960693,95.5225906372,3.26950025558
1646317872387302105,61,1646317872387302105,r1000913c5/base_front_laser_link,0,1646317872387302105,v/m1vw10zy74w/map,-3.09934920741,-0.598440874518,0.165,0.0,0.0,-0.855392280013,-0.517980740273,0,67.0764083862,65.7360687256,95.4776763916,3.24720263481
1646317872623428995,62,1646317872623428995,r1000913c5/base_front_laser_link,0,1646317872623428995,v/m1vw10zy74w/map,-3.12660708203,-0.617238346619,0.165,0.0,0.0,-0.881167038809,-0.472805086391,0,68.9116134644,65.7864685059,95.5234603882,3.24566197395
1646317872782105047,63,1646317872782105047,r1000913c5/base_front_laser_link,0,1646317872782105047,v/m1vw10zy74w/map,-3.14585969391,-0.631183358866,0.165,0.0,0.0,-0.897396871917,-0.441224267549,0,67.9869842529,65.820854187,95.5154342651,3.23152756691
1646317872937931230,64,1646317872937931230,r1000913c5/base_front_laser_link,0,1646317872937931230,v/m1vw10zy74w/map,-3.16182807692,-0.641216738618,0.165,0.0,0.0,-0.911240663991,-0.411874316132,0,68.8596801758,65.8676071167,95.5523910522,3.22826123238
1646317873726180712,65,1646317873726180712,r1000913c5/base_front_laser_link,0,1646317873726180712,v/m1vw10zy74w/map,-3.20805932795,-0.675753381623,0.165,0.0,0.0,-0.939717847856,-0.341950824565,0,72.9355621338,65.9746932983,95.9328155518,3.31937432289
1646317874040332659,66,1646317874040332659,r1000913c5/base_front_laser_link,0,1646317874040332659,v/m1vw10zy74w/map,-3.24158250361,-0.672257280268,0.165,0.0,0.0,-0.948642687604,-0.316349571289,0,68.9570999146,66.0192108154,95.9618682861,3.3142209053
1646317874276507151,67,1646317874276507151,r1000913c5/base_front_laser_link,0,1646317874276507151,v/m1vw10zy74w/map,-3.27321861176,-0.667844179754,0.165,0.0,0.0,-0.955425354467,-0.29523277603,0,68.8182754517,66.0603713989,95.9809570312,3.30686211586
1646317874513058397,68,1646317874513058397,r1000913c5/base_front_laser_link,0,1646317874513058397,v/m1vw10zy74w/map,-3.31125413772,-0.672937989046,0.165,0.0,0.0,-0.962344001134,-0.271834551671,0,69.9623565674,66.1169204712,96.0646209717,3.31589841843
1646317874828167055,69,1646317874828167055,r1000913c5/base_front_laser_link,0,1646317874828167055,v/m1vw10zy74w/map,-3.37256249729,-0.666388887963,0.165,0.0,0.0,-0.971666248211,-0.236357149431,0,68.1049575806,66.145324707,96.0463638306,3.30034732819
1646317874986168780,70,1646317874986168780,r1000913c5/base_front_laser_link,0,1646317874986168780,v/m1vw10zy74w/map,-3.40880536452,-0.667036899429,0.165,0.0,0.0,-0.976104851927,-0.217300064528,0,72.1198043823,66.2294692993,96.2870483398,3.35252547264
1646317875063043792,71,1646317875063043792,r1000913c5/base_front_laser_link,0,1646317875063043792,v/m1vw10zy74w/map,-3.42699642393,-0.666319199639,0.165,0.0,0.0,-0.978238681438,-0.207482727323,0,72.0750045776,66.3106613159,96.5087661743,3.39936947823
1646317875221077515,72,1646317875221077515,r1000913c5/base_front_laser_link,0,1646317875221077515,v/m1vw10zy74w/map,-3.46646467115,-0.665073835173,0.165,0.0,0.0,-0.982415888905,-0.186705707538,0,72.5968475342,66.396774292,96.7615585327,3.45492887497
1646317875457584079,73,1646317875457584079,r1000913c5/base_front_laser_link,0,1646317875457584079,v/m1vw10zy74w/map,-3.53298065443,-0.673119148266,0.165,0.0,0.0,-0.98757059919,-0.157176052935,0,74.0516662598,66.500213623,97.1343078613,3.54469704628
1646317875615183565,74,1646317875615183565,r1000913c5/base_front_laser_link,0,1646317875615183565,v/m1vw10zy74w/map,-3.57883978883,-0.674098503052,0.165,0.0,0.0,-0.990550163059,-0.137150918567,0,74.5826721191,66.6079788208,97.5347747803,3.64226531982
1646317875929952413,75,1646317875929952413,r1000913c5/base_front_laser_link,0,1646317875929952413,v/m1vw10zy74w/map,-3.67185964818,-0.674718473009,0.165,0.0,0.0,-0.994910894821,-0.100758678863,0,71.9213027954,66.6778945923,97.6845321655,3.66887998581
1646317876165332013,76,1646317876165332013,r1000913c5/base_front_laser_link,0,1646317876165332013,v/m1vw10zy74w/map,-3.75240337001,-0.678336426348,0.165,0.0,0.0,-0.997227495279,-0.0744131887419,0,73.4886016846,66.7663421631,97.9455108643,3.72638964653
1646317876323268113,77,1646317876323268113,r1000913c5/base_front_laser_link,0,1646317876323268113,v/m1vw10zy74w/map,-3.807124373,-0.679323337326,0.165,0.0,0.0,-0.998227165533,-0.0595191229022,0,73.0616836548,66.8470535278,98.1573867798,3.77011084557
1646317876480319097,78,1646317876480319097,r1000913c5/base_front_laser_link,0,1646317876480319097,v/m1vw10zy74w/map,-3.8666434232,-0.683035306597,0.165,0.0,0.0,-0.998975872878,-0.0452460540541,0,72.7717971802,66.9220504761,98.33618927,3.80471348763
1646317876795332380,79,1646317876795332380,r1000913c5/base_front_laser_link,0,1646317876795332380,v/m1vw10zy74w/map,-3.99371845473,-0.697423829439,0.165,0.0,0.0,-0.99977063004,-0.0214169864592,0,74.7186508179,67.0195083618,98.6587524414,3.87974786758
1646317876952313618,80,1646317876952313618,r1000913c5/base_front_laser_link,0,1646317876952313618,v/m1vw10zy74w/map,-4.0584497566,-0.704832096599,0.165,0.0,0.0,-0.999932887662,-0.0115853429683,0,74.9725646973,67.11769104,98.9838867188,3.95539712906
1646317877188206924,81,1646317877188206924,r1000913c5/base_front_laser_link,0,1646317877188206924,v/m1vw10zy74w/map,-4.16170173926,-0.70525662673,0.165,0.0,0.0,-0.999999631278,-0.000858745548792,0,71.8731536865,67.1756896973,99.0731735229,3.96582913399
1646317877425848069,82,1646317877425848069,r1000913c5/base_front_laser_link,0,1646317877425848069,v/m1vw10zy74w/map,-4.26582629264,-0.715820036315,0.165,0.0,0.0,-0.999965166863,0.00834655975638,0,69.5399932861,67.2041702271,99.0544967651,3.95010733604
1646317877583627093,83,1646317877583627093,r1000913c5/base_front_laser_link,0,1646317877583627093,v/m1vw10zy74w/map,-4.35779351936,-0.712161549418,0.165,0.0,0.0,-0.999907207982,0.0136226071338,0,70.2963943481,67.2409820557,99.0631103516,3.94070887566
1646317877739213420,84,1646317877739213420,r1000913c5/base_front_laser_link,0,1646317877739213420,v/m1vw10zy74w/map,-4.44058532268,-0.717849316955,0.165,0.0,0.0,-0.999877699362,0.0156392556862,0,71.5802688599,67.2920379639,99.1281051636,3.94535636902
1646317878055286688,85,1646317878055286688,r1000913c5/base_front_laser_link,0,1646317878055286688,v/m1vw10zy74w/map,-4.6149080506,-0.730417172933,0.165,0.0,0.0,-0.999821227731,0.0189080030473,0,71.2490692139,67.3380508423,99.1737136841,3.9452226162
1646317878133440719,86,1646317878133440719,r1000913c5/base_front_laser_link,0,1646317878133440719,v/m1vw10zy74w/map,-4.65962436848,-0.732159851591,0.165,0.0,0.0,-0.999820777043,0.0189318196027,0,70.3667297363,67.3728561401,99.1797714233,3.93563604355
1646317878370111052,87,1646317878370111052,r1000913c5/base_front_laser_link,0,1646317878370111052,v/m1vw10zy74w/map,-4.79439612105,-0.731268631769,0.165,0.0,0.0,-0.999823897839,0.0187662812155,0,65.9814910889,67.3570480347,99.1043319702,3.91576218605
1646317878527443721,88,1646317878527443721,r1000913c5/base_front_laser_link,0,1646317878527443721,v/m1vw10zy74w/map,-4.8828701537,-0.729893159996,0.165,0.0,0.0,-0.999858241462,0.0168373685725,0,66.878112793,67.3516693115,99.0330123901,3.89378070831
1646317878685352253,89,1646317878685352253,r1000913c5/base_front_laser_link,0,1646317878685352253,v/m1vw10zy74w/map,-4.9878328513,-0.733361441186,0.165,0.0,0.0,-0.999880151553,0.0154816837022,0,67.6084747314,67.3545227051,98.9703369141,3.87193846703
1646317878842503012,90,1646317878842503012,r1000913c5/base_front_laser_link,0,1646317878842503012,v/m1vw10zy74w/map,-5.08607100269,-0.7350766845,0.165,0.0,0.0,-0.999911873425,0.0132757442214,0,66.8238296509,67.3486862183,98.9010009766,3.85076951981
1646317878920898819,91,1646317878920898819,r1000913c5/base_front_laser_link,0,1646317878920898819,v/m1vw10zy74w/map,-5.13747365693,-0.735045118991,0.165,0.0,0.0,-0.99993603297,0.0113106130825,0,65.763168335,67.3314590454,98.8308105469,3.83311891556
1646317879077382485,92,1646317879077382485,r1000913c5/base_front_laser_link,0,1646317879077382485,v/m1vw10zy74w/map,-5.23358042638,-0.738596502325,0.165,0.0,0.0,-0.999964016262,0.00848328836928,0,61.956287384,67.2736587524,98.8319396973,3.8527610302
1646317879156374270,93,1646317879156374270,r1000913c5/base_front_laser_link,0,1646317879156374270,v/m1vw10zy74w/map,-5.28756577476,-0.738305170544,0.165,0.0,0.0,-0.999977102435,0.00676717111368,0,69.0669555664,67.2927322388,98.8020935059,3.83645272255
1646317879392330712,94,1646317879392330712,r1000913c5/base_front_laser_link,0,1646317879392330712,v/m1vw10zy74w/map,-5.44452375184,-0.741254588057,0.165,0.0,0.0,-0.99998584249,0.00532116712109,0,70.2175750732,67.3235244751,98.8068389893,3.8277721405
1646317879629515836,95,1646317879629515836,r1000913c5/base_front_laser_link,0,1646317879629515836,v/m1vw10zy74w/map,-5.61605869681,-0.744652673158,0.165,0.0,0.0,-0.99999980713,0.000621079105011,0,68.433631897,67.3350906372,98.7628631592,3.80925822258
1646317879786494528,96,1646317879786494528,r1000913c5/base_front_laser_link,0,1646317879786494528,v/m1vw10zy74w/map,-5.73826183508,-0.744902497161,0.165,0.0,0.0,-0.999999601089,-0.00089320885487,0,74.2524414062,67.4064025879,98.9681167603,3.85390615463
1646317880023203184,97,1646317880023203184,r1000913c5/base_front_laser_link,0,1646317880023203184,v/m1vw10zy74w/map,-5.92340145019,-0.737522894385,0.165,0.0,0.0,-0.999988040074,-0.00489077803922,0,71.7461547852,67.4506835938,99.02759552,3.85897040367
1646317880180603936,98,1646317880180603936,r1000913c5/base_front_laser_link,0,1646317880180603936,v/m1vw10zy74w/map,-6.06310127056,-0.736321670926,0.165,0.0,0.0,-0.999984941871,-0.00548780752589,0,69.7261734009,67.4736709595,99.0117797852,3.84603667259
1646317880416388401,99,1646317880416388401,r1000913c5/base_front_laser_link,0,1646317880416388401,v/m1vw10zy74w/map,-6.25627114366,-0.735013168817,0.165,0.0,0.0,-0.999980804561,-0.00619600754533,0,70.8203430176,67.5071334839,99.0306472778,3.84116983414
1646317880573551434,100,1646317880573551434,r1000913c5/base_front_laser_link,0,1646317880573551434,v/m1vw10zy74w/map,-6.38803649472,-0.735093183222,0.165,0.0,0.0,-0.999984345531,-0.00559541720951,0,70.5128555298,67.536895752,99.0376968384,3.83360004425
1646317880652866536,101,1646317880652866536,r1000913c5/base_front_laser_link,0,1646317880652866536,v/m1vw10zy74w/map,-6.46200763438,-0.736916761141,0.165,0.0,0.0,-0.999987110312,-0.00507732314977,0,69.7131729126,67.5582275391,99.0201950073,3.82065606117
1646317880810205621,102,1646317880810205621,r1000913c5/base_front_laser_link,0,1646317880810205621,v/m1vw10zy74w/map,-6.59627963519,-0.74048708244,0.165,0.0,0.0,-0.999994211612,-0.00340246110348,0,68.3326263428,67.5657501221,98.9736862183,3.80264687538
1646317880967414796,103,1646317880967414796,r1000913c5/base_front_laser_link,0,1646317880967414796,v/m1vw10zy74w/map,-6.73740385141,-0.741051035729,0.165,0.0,0.0,-0.999995741541,-0.00291837283679,0,64.6738586426,67.537940979,98.922203064,3.79475259781
1646317881124434290,104,1646317881124434290,r1000913c5/base_front_laser_link,0,1646317881124434290,v/m1vw10zy74w/map,-6.869097713,-0.737142676747,0.165,0.0,0.0,-0.999999979811,-0.0002009411933,0,68.1277389526,67.5435562134,98.8742675781,3.77690315247
1646317881281370194,105,1646317881281370194,r1000913c5/base_front_laser_link,0,1646317881281370194,v/m1vw10zy74w/map,-7.00575851566,-0.726753945689,0.165,0.0,0.0,-0.999998858876,0.00151071042107,0,67.9709014893,67.5475921631,98.8249053955,3.75910401344
1646317881438312083,106,1646317881438312083,r1000913c5/base_front_laser_link,0,1646317881438312083,v/m1vw10zy74w/map,-7.15366486533,-0.725805190115,0.165,0.0,0.0,-0.999994414301,0.00334235942407,0,65.3368453979,67.5269317627,98.7692184448,3.74742984772
1646317881674417162,107,1646317881674417162,r1000913c5/base_front_laser_link,0,1646317881674417162,v/m1vw10zy74w/map,-7.37245597045,-0.726794185055,0.165,0.0,0.0,-0.999976542913,0.00684935209851,0,68.8193664551,67.5388946533,98.7347488403,3.73195004463
1646317881753341719,108,1646317881753341719,r1000913c5/base_front_laser_link,0,1646317881753341719,v/m1vw10zy74w/map,-7.44305815003,-0.720516412716,0.165,0.0,0.0,-0.999983624842,0.00572276570939,0,65.4628677368,67.5198516846,98.6797027588,3.71995067596
1646317881989435204,109,1646317881989435204,r1000913c5/base_front_laser_link,0,1646317881989435204,v/m1vw10zy74w/map,-7.67321182922,-0.757691534553,0.165,0.0,0.0,-0.999999999906,-1.36997051582e-05,0,61.1478881836,67.4619216919,98.7189941406,3.75235748291
1646317882147419609,110,1646317882147419609,r1000913c5/base_front_laser_link,0,1646317882147419609,v/m1vw10zy74w/map,-7.83458542798,-0.75437461231,0.165,0.0,0.0,-0.999994301235,-0.00337601803184,0,64.0156402588,67.4308776855,98.6795501709,3.74955797195
1646317882304259147,111,1646317882304259147,r1000913c5/base_front_laser_link,0,1646317882304259147,v/m1vw10zy74w/map,-7.99011138143,-0.730650778086,0.165,0.0,0.0,-0.999998243883,-0.0018740944689,0,67.8465881348,67.4345855713,98.6330947876,3.73283648491
1646317882383515906,112,1646317882383515906,r1000913c5/base_front_laser_link,0,1646317882383515906,v/m1vw10zy74w/map,-8.08955823023,-0.727155210855,0.165,0.0,0.0,-0.999998549946,-0.00170296949453,0,69.145362854,67.4497299194,98.608581543,3.71961784363
1646317882540801975,113,1646317882540801975,r1000913c5/base_front_laser_link,0,1646317882540801975,v/m1vw10zy74w/map,-8.2513162408,-0.726041768789,0.165,0.0,0.0,-0.999999891346,-0.000466163787902,0,65.7012939453,67.434387207,98.5546188354,3.70674180984
1646317882619574089,114,1646317882619574089,r1000913c5/base_front_laser_link,0,1646317882619574089,v/m1vw10zy74w/map,-8.3374733736,-0.723866886772,0.165,0.0,0.0,-0.999999980682,-0.000196558526927,0,66.2521820068,67.4241104126,98.5003967285,3.69209456444
1646317882856535436,115,1646317882856535436,r1000913c5/base_front_laser_link,0,1646317882856535436,v/m1vw10zy74w/map,-8.59871331789,-0.727703251136,0.165,0.0,0.0,-0.999988215622,0.00485475204915,0,63.5042800903,67.3903198242,98.4722595215,3.69397950172
1646317882934381915,116,1646317882934381915,r1000913c5/base_front_laser_link,0,1646317882934381915,v/m1vw10zy74w/map,-8.68594456033,-0.729490550634,0.165,0.0,0.0,-0.999980708241,0.00621153336984,0,60.6906852722,67.3330535889,98.5224838257,3.72981023788
1646317883013369359,117,1646317883013369359,r1000913c5/base_front_laser_link,0,1646317883013369359,v/m1vw10zy74w/map,-8.77048356892,-0.723893288372,0.165,0.0,0.0,-0.999987482384,0.0050035062638,0,60.5743789673,67.2757797241,98.5725631714,3.76559400558
1646317883249532808,118,1646317883249532808,r1000913c5/base_front_laser_link,0,1646317883249532808,v/m1vw10zy74w/map,-9.03708021478,-0.725540328078,0.165,0.0,0.0,-0.999993462611,0.00361590028519,0,62.8571128845,67.2386474609,98.5529098511,3.77141952515
1646317883406463891,119,1646317883406463891,r1000913c5/base_front_laser_link,0,1646317883406463891,v/m1vw10zy74w/map,-9.22187496026,-0.732195055263,0.165,0.0,0.0,-0.999995830927,0.00288758185771,0,62.1200370789,67.1959915161,98.5494842529,3.78449630737
1646317883565488446,120,1646317883565488446,r1000913c5/base_front_laser_link,0,1646317883565488446,v/m1vw10zy74w/map,-9.40838071012,-0.730503637436,0.165,0.0,0.0,-0.999999928438,0.000378318607425,0,59.7377624512,67.1343536377,98.6219558716,3.82920002937
1646317883722362436,121,1646317883722362436,r1000913c5/base_front_laser_link,0,1646317883722362436,v/m1vw10zy74w/map,-9.59212354443,-0.732311178018,0.165,0.0,0.0,-0.999999337447,-0.00115113200126,0,52.8688163757,67.0174255371,99.0957946777,4.02612352371
1646317883878877365,122,1646317883878877365,r1000913c5/base_front_laser_link,0,1646317883878877365,v/m1vw10zy74w/map,-9.78635648586,-0.729694479061,0.165,0.0,0.0,-0.99999149652,-0.00412394074285,0,56.5010185242,66.9319229126,99.2924880981,4.12018823624
1646317884036579960,123,1646317884036579960,r1000913c5/base_front_laser_link,0,1646317884036579960,v/m1vw10zy74w/map,-9.9757305556,-0.731064683823,0.165,0.0,0.0,-0.999985359426,-0.0054111859232,0,60.7855186462,66.8823547363,99.3034439087,4.14036178589
1646317884273373645,124,1646317884273373645,r1000913c5/base_front_laser_link,0,1646317884273373645,v/m1vw10zy74w/map,-10.2666164338,-0.724933979477,0.165,0.0,0.0,-0.99990756326,-0.0135965045417,0,60.9348373413,66.834777832,99.3081893921,4.1578040123
1646317884430442062,125,1646317884430442062,r1000913c5/base_front_laser_link,0,1646317884430442062,v/m1vw10zy74w/map,-10.4658526968,-0.717616949716,0.165,0.0,0.0,-0.999873089853,-0.0159312330735,0,57.3859443665,66.7597885132,99.4372634888,4.22582674026
1646317884588129049,126,1646317884588129049,r1000913c5/base_front_laser_link,0,1646317884588129049,v/m1vw10zy74w/map,-10.659537507,-0.720692620661,0.165,0.0,0.0,-0.999855507998,-0.0169989154164,0,60.7534790039,66.7124938965,99.4403915405,4.24263429642
1646317884744797468,127,1646317884744797468,r1000913c5/base_front_laser_link,0,1646317884744797468,v/m1vw10zy74w/map,-10.8428512944,-0.706150430189,0.165,0.0,0.0,-0.999827568841,-0.0185696684513,0,60.001865387,66.6600646973,99.4620285034,4.26732110977
1646317884981137408,128,1646317884981137408,r1000913c5/base_front_laser_link,0,1646317884981137408,v/m1vw10zy74w/map,-11.0662100537,-0.687648229457,0.165,0.0,0.0,-0.999691547067,-0.0248356744162,0,57.2026824951,66.5867538452,99.5809860229,4.33140993118
1646317885059337796,129,1646317885059337796,r1000913c5/base_front_laser_link,0,1646317885059337796,v/m1vw10zy74w/map,-11.1174871538,-0.688411397237,0.165,0.0,0.0,-0.999709928545,-0.0240844092432,0,57.9070053101,66.5199813843,99.6636810303,4.38123273849
1646317885138511602,130,1646317885138511602,r1000913c5/base_front_laser_link,0,1646317885138511602,v/m1vw10zy74w/map,-11.1702591607,-0.690080040593,0.165,0.0,0.0,-0.99972705942,-0.0233625055164,0,60.3328323364,66.4727554321,99.6658554077,4.39769983292
1646317885295655155,131,1646317885295655155,r1000913c5/base_front_laser_link,0,1646317885295655155,v/m1vw10zy74w/map,-11.2452696497,-0.686298114451,0.165,0.0,0.0,-0.999734849657,-0.0230267318666,0,58.8797836304,66.4152297974,99.7065887451,4.43045139313
1646317885374580133,132,1646317885374580133,r1000913c5/base_front_laser_link,0,1646317885374580133,v/m1vw10zy74w/map,-11.2714881649,-0.682693779703,0.165,0.0,0.0,-0.999866211188,-0.0163572529461,0,58.6378479004,66.3567581177,99.7513427734,4.46486186981
1646317885453384553,133,1646317885453384553,r1000913c5/base_front_laser_link,0,1646317885453384553,v/m1vw10zy74w/map,-11.2995603789,-0.683105610175,0.165,0.0,0.0,-0.999896969878,-0.0143544288591,0,56.9260673523,66.2863769531,99.8524856567,4.52203702927
1646317885531947447,134,1646317885531947447,r1000913c5/base_front_laser_link,0,1646317885531947447,v/m1vw10zy74w/map,-11.3218558019,-0.684644406103,0.165,0.0,0.0,-0.999884082236,-0.0152257049664,0,57.6940078735,66.2227325439,99.9189987183,4.56542396545
1646317885768548145,135,1646317885768548145,r1000913c5/base_front_laser_link,0,1646317885768548145,v/m1vw10zy74w/map,-11.400498434,-0.680374898631,0.165,0.0,0.0,-0.999965160083,-0.00834737206993,0,54.9634170532,66.1399383545,100.089408875,4.64982271194
1646317885926623416,136,1646317885926623416,r1000913c5/base_front_laser_link,0,1646317885926623416,v/m1vw10zy74w/map,-11.450650523,-0.680882121826,0.165,0.0,0.0,-0.999979084884,-0.00646759570123,0,55.3335151672,66.0610656738,100.232460022,4.72379875183
1646317886082488927,137,1646317886082488927,r1000913c5/base_front_laser_link,0,1646317886082488927,v/m1vw10zy74w/map,-11.503780238,-0.680830033754,0.165,0.0,0.0,-0.99997004983,-0.00773947305962,0,58.0365486145,66.0029144287,100.270431519,4.75583982468
1646317886161667498,138,1646317886161667498,r1000913c5/base_front_laser_link,0,1646317886161667498,v/m1vw10zy74w/map,-11.5282763979,-0.681150094958,0.165,0.0,0.0,-0.999971040232,-0.00761043345123,0,60.2986297607,65.9618759155,100.25151825,4.76321363449
1646317886398403972,139,1646317886398403972,r1000913c5/base_front_laser_link,0,1646317886398403972,v/m1vw10zy74w/map,-11.596059723,-0.680310498851,0.165,0.0,0.0,-0.999972969756,-0.00735253408996,0,58.9120063782,65.9115219116,100.261428833,4.78330278397
1646317886554419337,140,1646317886554419337,r1000913c5/base_front_laser_link,0,1646317886554419337,v/m1vw10zy74w/map,-11.6383502441,-0.679522432,0.165,0.0,0.0,-0.99992852013,-0.0119563636413,0,59.9681129456,65.8693695068,100.246559143,4.79239845276
1646317886792647225,141,1646317886792647225,r1000913c5/base_front_laser_link,0,1646317886792647225,v/m1vw10zy74w/map,-11.7018527453,-0.679354396524,0.165,0.0,0.0,-0.999949164189,-0.0100831065271,0,59.7770347595,65.826461792,100.234458923,4.8026638031
1646317887027524001,142,1646317887027524001,r1000913c5/base_front_laser_link,0,1646317887027524001,v/m1vw10zy74w/map,-11.7611105586,-0.678599133991,0.165,0.0,0.0,-0.999994950068,-0.00317802437012,0,59.7559585571,65.7840118408,100.221725464,4.81257152557
1646317887342674882,143,1646317887342674882,r1000913c5/base_front_laser_link,0,1646317887342674882,v/m1vw10zy74w/map,-11.8393928118,-0.690424640306,0.165,0.0,0.0,-0.999901126304,0.0140619207973,0,57.9883308411,65.7298736572,100.248420715,4.83951568604
1646317887578542829,144,1646317887578542829,r1000913c5/base_front_laser_link,0,1646317887578542829,v/m1vw10zy74w/map,-11.8774756353,-0.706787949425,0.165,0.0,0.0,-0.999356836733,0.0358596273658,0,59.0991363525,65.6841430664,100.246200562,4.85401773453
1646317887657387255,145,1646317887657387255,r1000913c5/base_front_laser_link,0,1646317887657387255,v/m1vw10zy74w/map,-11.8789114351,-0.712298745659,0.165,0.0,0.0,-0.999046017623,0.0436698370885,0,59.6973991394,65.6431427002,100.230819702,4.86255931854
1646317887735536242,146,1646317887735536242,r1000913c5/base_front_laser_link,0,1646317887735536242,v/m1vw10zy74w/map,-11.879968289,-0.712082093475,0.165,0.0,0.0,-0.998663963563,0.0516748283073,0,58.4920310974,65.5944976807,100.23941803,4.88164043427
1646317887814496473,147,1646317887814496473,r1000913c5/base_front_laser_link,0,1646317887814496473,v/m1vw10zy74w/map,-11.8795708662,-0.715639909691,0.165,0.0,0.0,-0.998131055234,0.0611097093549,0,61.296169281,65.5654525757,100.198913574,4.87782096863
1646317888050734281,148,1646317888050734281,r1000913c5/base_front_laser_link,0,1646317888050734281,v/m1vw10zy74w/map,-11.8720908103,-0.74859987433,0.165,0.0,0.0,-0.993807194295,0.111118227884,0,63.4119529724,65.5510025024,100.144538879,4.86451387405
1646317888129850682,149,1646317888129850682,r1000913c5/base_front_laser_link,0,1646317888129850682,v/m1vw10zy74w/map,-11.869259432,-0.761459516183,0.165,0.0,0.0,-0.991428501075,0.130650400901,0,63.0211448669,65.5341339111,100.091819763,4.85256099701
1646317888523752923,150,1646317888523752923,r1000913c5/base_front_laser_link,0,1646317888523752923,v/m1vw10zy74w/map,-11.8515273935,-0.81785592163,0.165,0.0,0.0,-0.975398503226,0.220448996153,0,66.1660385132,65.5383148193,100.048217773,4.83663225174
1646317888760567606,151,1646317888760567606,r1000913c5/base_front_laser_link,0,1646317888760567606,v/m1vw10zy74w/map,-11.8390540436,-0.850644641578,0.165,0.0,0.0,-0.963038869861,0.269362460519,0,68.7698974609,65.5595779419,100.042709351,4.82771110535
1646317888995565734,152,1646317888995565734,r1000913c5/base_front_laser_link,0,1646317888995565734,v/m1vw10zy74w/map,-11.8213667254,-0.879848923542,0.165,0.0,0.0,-0.94819977109,0.317674667081,0,67.4979248047,65.5722503662,100.015312195,4.81435537338
1646317889152546109,153,1646317889152546109,r1000913c5/base_front_laser_link,0,1646317889152546109,v/m1vw10zy74w/map,-11.8087197456,-0.899232230467,0.165,0.0,0.0,-0.936659588289,0.350241082209,0,66.4681472778,65.5780639648,99.9754867554,4.79913949966
1646317889546955912,154,1646317889546955912,r1000913c5/base_front_laser_link,0,1646317889546955912,v/m1vw10zy74w/map,-11.761321815,-0.938517503438,0.165,0.0,0.0,-0.902229262095,0.431256720086,0,68.8772201538,65.5993499756,99.9719467163,4.79086685181
1646317889625296911,155,1646317889625296911,r1000913c5/base_front_laser_link,0,1646317889625296911,v/m1vw10zy74w/map,-11.7531580778,-0.94656416091,0.165,0.0,0.0,-0.894439009428,0.447189957863,0,68.8260345459,65.6200332642,99.9671478271,4.78237009048
1646317889703546014,156,1646317889703546014,r1000913c5/base_front_laser_link,0,1646317889703546014,v/m1vw10zy74w/map,-11.7500316412,-0.954506850008,0.165,0.0,0.0,-0.889845995126,0.456261005301,0,67.4028167725,65.6313858032,99.9388122559,4.76914024353
1646317889782703544,157,1646317889782703544,r1000913c5/base_front_laser_link,0,1646317889782703544,v/m1vw10zy74w/map,-11.7401650484,-0.961181108076,0.165,0.0,0.0,-0.881591959049,0.472012306767,0,72.0695648193,65.6721343994,100.016456604,4.78144025803
1646317889940701055,158,1646317889940701055,r1000913c5/base_front_laser_link,0,1646317889940701055,v/m1vw10zy74w/map,-11.7203435496,-0.968220286173,0.165,0.0,0.0,-0.865234406579,0.501367551475,0,73.2814712524,65.7199935913,100.133003235,4.80433511734
1646317890176682441,159,1646317890176682441,r1000913c5/base_front_laser_link,0,1646317890176682441,v/m1vw10zy74w/map,-11.6871467703,-0.978724806268,0.165,0.0,0.0,-0.83701073374,0.547186468769,0,74.1007919312,65.7723770142,100.276824951,4.83481693268
1646317890333715981,160,1646317890333715981,r1000913c5/base_front_laser_link,0,1646317890333715981,v/m1vw10zy74w/map,-11.665655627,-0.986778223763,0.165,0.0,0.0,-0.817709865655,0.575630589536,0,68.4154891968,65.7887878418,100.26134491,4.82418394089
1646317890412672910,161,1646317890412672910,r1000913c5/base_front_laser_link,0,1646317890412672910,v/m1vw10zy74w/map,-11.6571990303,-0.992650512797,0.165,0.0,0.0,-0.80787064646,0.589359837949,0,69.6310577393,65.8125076294,100.268440247,4.81864404678
1646317890648220214,162,1646317890648220214,r1000913c5/base_front_laser_link,0,1646317890648220214,v/m1vw10zy74w/map,-11.6277094698,-1.0033332035,0.165,0.0,0.0,-0.781618872097,0.62375631362,0,66.7091140747,65.8180084229,100.230796814,4.80426168442
1646317890727478935,163,1646317890727478935,r1000913c5/base_front_laser_link,0,1646317890727478935,v/m1vw10zy74w/map,-11.617618312,-1.00700600437,0.165,0.0,0.0,-0.775218823463,0.631692785893,0,69.5347900391,65.840675354,100.235534668,4.7982878685
1646317890884631709,164,1646317890884631709,r1000913c5/base_front_laser_link,0,1646317890884631709,v/m1vw10zy74w/map,-11.6017982733,-1.00901997467,0.165,0.0,0.0,-0.759742091682,0.650224541313,0,71.3986053467,65.8743591309,100.283851624,4.80316495895
1646317891041678317,165,1646317891041678317,r1000913c5/base_front_laser_link,0,1646317891041678317,v/m1vw10zy74w/map,-11.5886729396,-1.01367845471,0.165,0.0,0.0,-0.74439157166,0.667743354922,0,66.3558731079,65.8772583008,100.243461609,4.7887339592
1646317892851323553,166,1646317892851323553,r1000913c5/base_front_laser_link,0,1646317892851323553,v/m1vw10zy74w/map,-11.5648218077,-1.01713428425,0.165,0.0,0.0,-0.715729259847,0.698377853743,0,61.3753166199,65.8503036499,100.211242676,4.7869811058
1646317892929831149,167,1646317892929831149,r1000913c5/base_front_laser_link,0,1646317892929831149,v/m1vw10zy74w/map,-11.5648360175,-1.01720233305,0.165,0.0,0.0,-0.715742075487,0.698364719454,0,61.5034866333,65.8244247437,100.177612305,4.78439569473
1646317893008721959,168,1646317893008721959,r1000913c5/base_front_laser_link,0,1646317893008721959,v/m1vw10zy74w/map,-11.5648842773,-1.01738635838,0.165,0.0,0.0,-0.715783348319,0.698322417132,0,62.6937141418,65.8059005737,100.134529114,4.77621030807
1646317893244630838,169,1646317893244630838,r1000913c5/base_front_laser_link,0,1646317893244630838,v/m1vw10zy74w/map,-11.5655910212,-1.03327543056,0.165,0.0,0.0,-0.716152293576,0.697944046758,0,65.198928833,65.8023300171,100.089187622,4.76228618622
1646317893323684696,170,1646317893323684696,r1000913c5/base_front_laser_link,0,1646317893323684696,v/m1vw10zy74w/map,-11.5670273069,-1.05119451174,0.165,0.0,0.0,-0.717219941247,0.696846866878,0,64.8651123047,65.7968521118,100.043251038,4.74879932404
1646317893401676541,171,1646317893401676541,r1000913c5/base_front_laser_link,0,1646317893401676541,v/m1vw10zy74w/map,-11.5709487295,-1.07254099318,0.165,0.0,0.0,-0.720666078874,0.693282339859,0,63.2190895081,65.7818603516,99.9987792969,4.73897171021
1646317893480670073,172,1646317893480670073,r1000913c5/base_front_laser_link,0,1646317893480670073,v/m1vw10zy74w/map,-11.5777110489,-1.0958865449,0.165,0.0,0.0,-0.726621818731,0.687037650019,0,62.406211853,65.7623519897,99.958770752,4.73214006424
1646317893558673118,173,1646317893558673118,r1000913c5/base_front_laser_link,0,1646317893558673118,v/m1vw10zy74w/map,-11.5854403681,-1.11948927253,0.165,0.0,0.0,-0.733061210235,0.680162673225,0,65.9989624023,65.763710022,99.9191436768,4.71847772598
1646317893873785356,174,1646317893873785356,r1000913c5/base_front_laser_link,0,1646317893873785356,v/m1vw10zy74w/map,-11.6183435375,-1.20938550373,0.165,0.0,0.0,-0.756047299308,0.654516983133,0,61.7151908875,65.7405776978,99.8851013184,4.71484231949
1646317893952793127,175,1646317893952793127,r1000913c5/base_front_laser_link,0,1646317893952793127,v/m1vw10zy74w/map,-11.6267560002,-1.23121048601,0.165,0.0,0.0,-0.760982886555,0.648771952515,0,62.8516540527,65.7241592407,99.8433380127,4.70639228821
1646317894030565483,176,1646317894030565483,r1000913c5/base_front_laser_link,0,1646317894030565483,v/m1vw10zy74w/map,-11.6349231558,-1.25231380563,0.165,0.0,0.0,-0.765412325703,0.643540186517,0,65.0411148071,65.7203063965,99.8001556396,4.69328403473
1646317894189665277,177,1646317894189665277,r1000913c5/base_front_laser_link,0,1646317894189665277,v/m1vw10zy74w/map,-11.6476388459,-1.29760553715,0.165,0.0,0.0,-0.766725636161,0.641974920735,0,63.4199104309,65.7073822021,99.7569274902,4.68318223953
1646317894346618918,178,1646317894346618918,r1000913c5/base_front_laser_link,0,1646317894346618918,v/m1vw10zy74w/map,-11.6535306726,-1.3418063187,0.165,0.0,0.0,-0.764914071169,0.644132334018,0,61.850353241,65.6858291626,99.7225265503,4.6788983345
1646317894425630280,179,1646317894425630280,r1000913c5/base_front_laser_link,0,1646317894425630280,v/m1vw10zy74w/map,-11.6555537927,-1.36438184349,0.165,0.0,0.0,-0.763187236125,0.646177408005,0,62.9815711975,65.6708068848,99.6812973022,4.67016267776
1646317894503644966,180,1646317894503644966,r1000913c5/base_front_laser_link,0,1646317894503644966,v/m1vw10zy74w/map,-11.6567870205,-1.39239843724,0.165,0.0,0.0,-0.759383003759,0.650643876174,0,67.0059890747,65.6781845093,99.6528701782,4.65822887421
1646317894583715881,181,1646317894583715881,r1000913c5/base_front_laser_link,0,1646317894583715881,v/m1vw10zy74w/map,-11.6582634731,-1.41540835247,0.165,0.0,0.0,-0.757251484791,0.65312341007,0,64.6275939941,65.6724090576,99.6103973389,4.64599609375
1646317894740514440,182,1646317894740514440,r1000913c5/base_front_laser_link,0,1646317894740514440,v/m1vw10zy74w/map,-11.6608092671,-1.46074224346,0.165,0.0,0.0,-0.753465627478,0.657487298896,0,66.5623779297,65.6772766113,99.5783233643,4.63368177414
1646317894819734589,183,1646317894819734589,r1000913c5/base_front_laser_link,0,1646317894819734589,v/m1vw10zy74w/map,-11.6615936784,-1.48320128668,0.165,0.0,0.0,-0.751302152594,0.659958389224,0,65.9619903564,65.6788253784,99.5419769287,4.62105178833
1646317894976679618,184,1646317894976679618,r1000913c5/base_front_laser_link,0,1646317894976679618,v/m1vw10zy74w/map,-11.6609838959,-1.52626938365,0.165,0.0,0.0,-0.744205083025,0.667951191629,0,64.7971878052,65.6740570068,99.5008544922,4.60893297195
1646317895290825799,185,1646317895290825799,r1000913c5/base_front_laser_link,0,1646317895290825799,v/m1vw10zy74w/map,-11.6578248271,-1.61634848677,0.165,0.0,0.0,-0.732731839075,0.680517488391,0,64.7548980713,65.6691131592,99.4599761963,4.59695386887
1646317895369782302,186,1646317895369782302,r1000913c5/base_front_laser_link,0,1646317895369782302,v/m1vw10zy74w/map,-11.6610570191,-1.63583032782,0.165,0.0,0.0,-0.729332038607,0.684159906353,0,62.6566505432,65.6530075073,99.4226150513,4.58986949921
1646317895527854305,187,1646317895527854305,r1000913c5/base_front_laser_link,0,1646317895527854305,v/m1vw10zy74w/map,-11.658128511,-1.68122996107,0.165,0.0,0.0,-0.723559307326,0.690262217409,0,61.3986320496,65.6303787231,99.3946304321,4.58808422089
1646317895684692925,188,1646317895684692925,r1000913c5/base_front_laser_link,0,1646317895684692925,v/m1vw10zy74w/map,-11.6545090788,-1.7261824547,0.165,0.0,0.0,-0.717965151232,0.696079048397,0,60.8387260437,65.6050262451,99.3723831177,4.58912086487
1646317901116893112,189,1646317901116893112,r1000913c5/base_front_laser_link,0,1646317901116893112,v/m1vw10zy74w/map,-11.6308979024,-2.58112320225,0.165,0.0,0.0,-0.703192231551,0.710999778823,0,65.1900634766,65.6028366089,99.3340301514,4.57706308365
1646317901273821819,190,1646317901273821819,r1000913c5/base_front_laser_link,0,1646317901273821819,v/m1vw10zy74w/map,-11.6359471091,-2.60813805783,0.165,0.0,0.0,-0.703201211161,0.710990897707,0,68.1971359253,65.6164245605,99.3230056763,4.56886005402
1646317904893839049,191,1646317904893839049,r1000913c5/base_front_laser_link,0,1646317904893839049,v/m1vw10zy74w/map,-11.6472885318,-2.7632252467,0.165,0.0,0.0,-0.707316039798,0.706897460629,0,61.8845443726,65.5969848633,99.2914962769,4.56483602524
1646317905129930645,192,1646317905129930645,r1000913c5/base_front_laser_link,0,1646317905129930645,v/m1vw10zy74w/map,-11.6473091223,-2.76197827254,0.165,0.0,0.0,-0.707338601522,0.706874884826,0,61.9224014282,65.5779495239,99.2597732544,4.5606098175
1646317905208838782,193,1646317905208838782,r1000913c5/base_front_laser_link,0,1646317905208838782,v/m1vw10zy74w/map,-11.647511405,-2.75921705186,0.165,0.0,0.0,-0.707554525794,0.706658752885,0,61.00598526,65.5543823242,99.2361984253,4.56060743332
1646317905366977252,194,1646317905366977252,r1000913c5/base_front_laser_link,0,1646317905366977252,v/m1vw10zy74w/map,-11.6487533763,-2.74262718669,0.165,0.0,0.0,-0.708912035575,0.705296906144,0,65.6830749512,65.5550384521,99.2015838623,4.54884719849
1646317905603007204,195,1646317905603007204,r1000913c5/base_front_laser_link,0,1646317905603007204,v/m1vw10zy74w/map,-11.650647747,-2.70027981955,0.165,0.0,0.0,-0.711275187173,0.702913656228,0,62.0693893433,65.5372543335,99.1692428589,4.54399442673
1646317905760928126,196,1646317905760928126,r1000913c5/base_front_laser_link,0,1646317905760928126,v/m1vw10zy74w/map,-11.6506872907,-2.65647401192,0.165,0.0,0.0,-0.711873791994,0.702307414365,0,68.9823684692,65.5547409058,99.1718292236,4.53902959824
1646317905838879949,197,1646317905838879949,r1000913c5/base_front_laser_link,0,1646317905838879949,v/m1vw10zy74w/map,-11.6508159743,-2.63265976032,0.165,0.0,0.0,-0.712353144717,0.701821200315,0,70.8084411621,65.5812759399,99.2098693848,4.54286336899
1646317905917162055,198,1646317905917162055,r1000913c5/base_front_laser_link,0,1646317905917162055,v/m1vw10zy74w/map,-11.6509277963,-2.60756044568,0.165,0.0,0.0,-0.712873957793,0.701292178982,0,69.383102417,65.6003799438,99.218536377,4.53938436508
1646317906075046106,199,1646317906075046106,r1000913c5/base_front_laser_link,0,1646317906075046106,v/m1vw10zy74w/map,-11.6509654446,-2.55875492197,0.165,0.0,0.0,-0.71380214767,0.700347409492,0,64.4537124634,65.5946502686,99.1807174683,4.52869033813
1646317906153157955,200,1646317906153157955,r1000913c5/base_front_laser_link,0,1646317906153157955,v/m1vw10zy74w/map,-11.6508362813,-2.53578211883,0.165,0.0,0.0,-0.714135627534,0.700007361023,0,66.2372512817,65.5978469849,99.1505889893,4.5175819397
1646317906309995539,201,1646317906309995539,r1000913c5/base_front_laser_link,0,1646317906309995539,v/m1vw10zy74w/map,-11.6513732921,-2.49073355913,0.165,0.0,0.0,-0.715731092085,0.698375975977,0,61.0554924011,65.5753555298,99.1283035278,4.51764917374
1646317906468052312,202,1646317906468052312,r1000913c5/base_front_laser_link,0,1646317906468052312,v/m1vw10zy74w/map,-11.6483616347,-2.45110461589,0.165,0.0,0.0,-0.7183679233,0.695663371735,0,61.8947601318,65.5572280884,99.098777771,4.51385116577
1646317906625094553,203,1646317906625094553,r1000913c5/base_front_laser_link,0,1646317906625094553,v/m1vw10zy74w/map,-11.6472488259,-2.41118803266,0.165,0.0,0.0,-0.718670464436,0.695350820484,0,61.5793037415,65.537727356,99.0717010498,4.51132440567
1646317906783028178,204,1646317906783028178,r1000913c5/base_front_laser_link,0,1646317906783028178,v/m1vw10zy74w/map,-11.6457381902,-2.36589254498,0.165,0.0,0.0,-0.718653524758,0.695368327833,0,59.8652992249,65.510055542,99.0630340576,4.51765918732
1646317906861178945,205,1646317906861178945,r1000913c5/base_front_laser_link,0,1646317906861178945,v/m1vw10zy74w/map,-11.6454668202,-2.33575967459,0.165,0.0,0.0,-0.720897893667,0.693041288024,0,67.2007369995,65.5182647705,99.0427627563,4.50816631317
1646317907019048972,206,1646317907019048972,r1000913c5/base_front_laser_link,0,1646317907019048972,v/m1vw10zy74w/map,-11.6465002539,-2.29439517082,0.165,0.0,0.0,-0.720933370726,0.693004383084,0,69.7061691284,65.5384979248,99.0583572388,4.50662088394
1646317907176160684,207,1646317907176160684,r1000913c5/base_front_laser_link,0,1646317907176160684,v/m1vw10zy74w/map,-11.6446636179,-2.24929691449,0.165,0.0,0.0,-0.720876432764,0.693063610851,0,72.6190567017,65.5725402832,99.1398849487,4.52244949341
1646317907333040998,208,1646317907333040998,r1000913c5/base_front_laser_link,0,1646317907333040998,v/m1vw10zy74w/map,-11.6399755882,-2.20254408677,0.165,0.0,0.0,-0.718707385557,0.695312659129,0,71.2434387207,65.5996704102,99.1854248047,4.5285859108
1646317907411974730,209,1646317907411974730,r1000913c5/base_front_laser_link,0,1646317907411974730,v/m1vw10zy74w/map,-11.6392014322,-2.1800239565,0.165,0.0,0.0,-0.718676558479,0.695344522013,0,72.385345459,65.631980896,99.2578048706,4.54194116592
1646317907570148424,210,1646317907570148424,r1000913c5/base_front_laser_link,0,1646317907570148424,v/m1vw10zy74w/map,-11.6377736643,-2.13490999073,0.165,0.0,0.0,-0.718745976701,0.69527276732,0,66.359085083,65.6354293823,99.229598999,4.53139019012
1646317907726915948,211,1646317907726915948,r1000913c5/base_front_laser_link,0,1646317907726915948,v/m1vw10zy74w/map,-11.6420050551,-2.09249881212,0.165,0.0,0.0,-0.720984115627,0.692951589228,0,68.7501831055,65.6501235962,99.2272186279,4.5256986618
1646317907884042041,212,1646317907884042041,r1000913c5/base_front_laser_link,0,1646317907884042041,v/m1vw10zy74w/map,-11.6402899492,-2.04781479779,0.165,0.0,0.0,-0.721000298326,0.692934751484,0,63.8313179016,65.6415863037,99.1917800903,4.51673173904
1646317908042046565,213,1646317908042046565,r1000913c5/base_front_laser_link,0,1646317908042046565,v/m1vw10zy74w/map,-11.6348704667,-1.99686943264,0.165,0.0,0.0,-0.718397385852,0.695632946316,0,67.5325164795,65.6504211426,99.174331665,4.50796985626
1646317908119942199,214,1646317908119942199,r1000913c5/base_front_laser_link,0,1646317908119942199,v/m1vw10zy74w/map,-11.6386741336,-1.99021702998,0.165,0.0,0.0,-0.720996321674,0.692938889176,0,67.6878814697,65.6598968506,99.1586074829,4.49957132339
1646317908199127249,215,1646317908199127249,r1000913c5/base_front_laser_link,0,1646317908199127249,v/m1vw10zy74w/map,-11.6378162448,-1.96758071624,0.165,0.0,0.0,-0.721040212032,0.692893218781,0,69.8863143921,65.6794586182,99.1743545532,4.49829626083
1646317908279096166,216,1646317908279096166,r1000913c5/base_front_laser_link,0,1646317908279096166,v/m1vw10zy74w/map,-11.6369194966,-1.94486265203,0.165,0.0,0.0,-0.721048771556,0.692884311438,0,61.7541351318,65.6613769531,99.1486968994,4.49577522278
1646317908435118615,217,1646317908435118615,r1000913c5/base_front_laser_link,0,1646317908435118615,v/m1vw10zy74w/map,-11.6343149111,-1.89683111423,0.165,0.0,0.0,-0.721116721137,0.692813592893,0,59.3929100037,65.6326217651,99.1489715576,4.50545215607
1646317908593189891,218,1646317908593189891,r1000913c5/base_front_laser_link,0,1646317908593189891,v/m1vw10zy74w/map,-11.6351090198,-1.86420184865,0.165,0.0,0.0,-0.720434414883,0.693523073771,0,63.9243965149,65.6248168945,99.1145858765,4.49658870697
1646317908672117923,219,1646317908672117923,r1000913c5/base_front_laser_link,0,1646317908672117923,v/m1vw10zy74w/map,-11.6342723343,-1.84190436316,0.165,0.0,0.0,-0.72044779731,0.693509171786,0,56.9896774292,65.5855712891,99.1573486328,4.52392721176
1646317908829054120,220,1646317908829054120,r1000913c5/base_front_laser_link,0,1646317908829054120,v/m1vw10zy74w/map,-11.6284038387,-1.79677629524,0.165,0.0,0.0,-0.719948948812,0.694027024765,0,57.4585723877,65.5487976074,99.1886520386,4.54661989212
1646317908987024025,221,1646317908987024025,r1000913c5/base_front_laser_link,0,1646317908987024025,v/m1vw10zy74w/map,-11.629555485,-1.77042930844,0.165,0.0,0.0,-0.719341619058,0.694656487115,0,59.6080932617,65.5220336914,99.1834640503,4.55381011963
1646317909143084481,222,1646317909143084481,r1000913c5/base_front_laser_link,0,1646317909143084481,v/m1vw10zy74w/map,-11.6279846954,-1.72568106645,0.165,0.0,0.0,-0.719335191082,0.694663143452,0,60.3294410706,65.4987487793,99.1692352295,4.55682849884
1646317909221944198,223,1646317909221944198,r1000913c5/base_front_laser_link,0,1646317909221944198,v/m1vw10zy74w/map,-11.6261308354,-1.70160196792,0.165,0.0,0.0,-0.720962022484,0.692974575389,0,58.5913238525,65.4679107666,99.1778030396,4.56996440887
1646317909301061219,224,1646317909301061219,r1000913c5/base_front_laser_link,0,1646317909301061219,v/m1vw10zy74w/map,-11.6284439754,-1.6784157152,0.165,0.0,0.0,-0.718666999141,0.695354401975,0,60.2991294861,65.4449386597,99.1632003784,4.57275390625
1646317909380159016,225,1646317909380159016,r1000913c5/base_front_laser_link,0,1646317909380159016,v/m1vw10zy74w/map,-11.6277258577,-1.65621781355,0.165,0.0,0.0,-0.718682635327,0.695338241203,0,59.6859855652,65.4194564819,99.1553649902,4.57863473892
1646317909537047049,226,1646317909537047049,r1000913c5/base_front_laser_link,0,1646317909537047049,v/m1vw10zy74w/map,-11.626234932,-1.61187156664,0.165,0.0,0.0,-0.718652141452,0.695369757457,0,59.2835922241,65.3924255371,99.1522598267,4.58660936356
1646317909774090279,227,1646317909774090279,r1000913c5/base_front_laser_link,0,1646317909774090279,v/m1vw10zy74w/map,-11.6231790786,-1.53376828824,0.165,0.0,0.0,-0.720032494876,0.693940347813,0,61.8610725403,65.3769378662,99.1243438721,4.582467556
1646317909931006692,228,1646317909931006692,r1000913c5/base_front_laser_link,0,1646317909931006692,v/m1vw10zy74w/map,-11.6215386168,-1.48911565648,0.165,0.0,0.0,-0.720043895785,0.693928518036,0,60.0830459595,65.3538208008,99.1111297607,4.58577013016
1646317910088429661,229,1646317910088429661,r1000913c5/base_front_laser_link,0,1646317910088429661,v/m1vw10zy74w/map,-11.6206286558,-1.44914963005,0.165,0.0,0.0,-0.720622145696,0.693328005444,0,60.9808959961,65.3348083496,99.0892791748,4.58482265472
1646317910167411450,230,1646317910167411450,r1000913c5/base_front_laser_link,0,1646317910167411450,v/m1vw10zy74w/map,-11.6211752116,-1.42118312199,0.165,0.0,0.0,-0.718539677433,0.695485968194,0,64.5331268311,65.3313369751,99.0567855835,4.5751490593
1646317910324340077,231,1646317910324340077,r1000913c5/base_front_laser_link,0,1646317910324340077,v/m1vw10zy74w/map,-11.6197005797,-1.37632005338,0.165,0.0,0.0,-0.718527708154,0.695498334013,0,64.373260498,65.3272094727,99.0242156982,4.56566858292
1646317910403912569,232,1646317910403912569,r1000913c5/base_front_laser_link,0,1646317910403912569,v/m1vw10zy74w/map,-11.6189647023,-1.35371344061,0.165,0.0,0.0,-0.718528439156,0.695497578806,0,62.6972732544,65.3159179688,98.9931488037,4.55907487869
1646317910481592130,233,1646317910481592130,r1000913c5/base_front_laser_link,0,1646317910481592130,v/m1vw10zy74w/map,-11.6182125792,-1.33188192158,0.165,0.0,0.0,-0.718484230362,0.695543248635,0,62.648639679,65.3045196533,98.962387085,4.55262136459
1646317910640125634,234,1646317910640125634,r1000913c5/base_front_laser_link,0,1646317910640125634,v/m1vw10zy74w/map,-11.6163351628,-1.30605428448,0.165,0.0,0.0,-0.71845264897,0.695575870188,0,63.6058120728,65.2972946167,98.9300003052,4.54423427582
1646317910875879344,235,1646317910875879344,r1000913c5/base_front_laser_link,0,1646317910875879344,v/m1vw10zy74w/map,-11.6141171512,-1.23915475502,0.165,0.0,0.0,-0.718392484215,0.695638008323,0,63.6903610229,65.2904891968,98.8977737427,4.53576183319
1646317911032617814,236,1646317911032617814,r1000913c5/base_front_laser_link,0,1646317911032617814,v/m1vw10zy74w/map,-11.613375092,-1.20695409633,0.165,0.0,0.0,-0.717997115239,0.696046077863,0,65.9163589478,65.2931289673,98.8721008301,4.52632427216
1646317911111164599,237,1646317911111164599,r1000913c5/base_front_laser_link,0,1646317911111164599,v/m1vw10zy74w/map,-11.6126723101,-1.18472942502,0.165,0.0,0.0,-0.717983930755,0.696059677885,0,68.431930542,65.306312561,98.8703536987,4.52134513855
