%time,field.header.seq,field.header.stamp,field.header.frame_id,field.pose.header.seq,field.pose.header.stamp,field.pose.header.frame_id,field.pose.pose.position.x,field.pose.pose.position.y,field.pose.pose.position.z,field.pose.pose.orientation.x,field.pose.pose.orientation.y,field.pose.pose.orientation.z,field.pose.pose.orientation.w,field.label,field.current_error,field.mean,field.threshold,field.std_dev
1646486504742172053,0,1646486504742172053,r1000913c5/base_front_laser_link,0,1646486504742172053,v/m1vw10zy74w/map,-15.9575660549,-0.918752171565,0.165,0.0,0.0,-0.721652417444,0.692255580257,0,54.5422210693,54.5422210693,nan,nan
1646486504899060093,1,1646486504899060093,r1000913c5/base_front_laser_link,0,1646486504899060093,v/m1vw10zy74w/map,-15.95510197,-0.874054787299,0.165,0.0,0.0,-0.720993883191,0.692941426385,0,56.8971099854,55.7196655273,80.7151412964,1.66515874863
1646486505057149133,2,1646486505057149133,r1000913c5/base_front_laser_link,0,1646486505057149133,v/m1vw10zy74w/map,-15.9554348497,-0.829883065769,0.165,0.0,0.0,-0.718903275205,0.695110121419,0,58.6849250793,56.7080841064,82.9415206909,2.07781076431
1646486506395392827,3,1646486506395392827,r1000913c5/base_front_laser_link,0,1646486506395392827,v/m1vw10zy74w/map,-15.9474855313,-0.77307373487,0.165,0.0,0.0,-0.718301117574,0.69573235119,0,60.2246780396,57.5872344971,84.9171829224,2.44331765175
1646486506790170835,4,1646486506790170835,r1000913c5/base_front_laser_link,0,1646486506790170835,v/m1vw10zy74w/map,-15.9397035581,-0.784117120583,0.165,0.0,0.0,-0.709868717853,0.704334014097,0,61.6058540344,58.3909568787,86.7195129395,2.7761862278
1646486506867372869,5,1646486506867372869,r1000913c5/base_front_laser_link,0,1646486506867372869,v/m1vw10zy74w/map,-15.9332060806,-0.789172359014,0.165,0.0,0.0,-0.702973949159,0.711215597976,0,64.4568405151,59.4019393921,89.9225997925,3.50688719749
1646486507184708291,6,1646486507184708291,r1000913c5/base_front_laser_link,0,1646486507184708291,v/m1vw10zy74w/map,-15.8897500958,-0.811443576983,0.165,0.0,0.0,-0.657055416076,0.75384227807,0,66.4018478394,60.4019241333,92.8612747192,4.1531162262
1646486507340258946,7,1646486507340258946,r1000913c5/base_front_laser_link,0,1646486507340258946,v/m1vw10zy74w/map,-15.8580909282,-0.823436901175,0.165,0.0,0.0,-0.62355697436,0.781777909465,0,64.8537216187,60.9584007263,93.4225311279,4.15471124649
1646486507419246603,8,1646486507419246603,r1000913c5/base_front_laser_link,0,1646486507419246603,v/m1vw10zy74w/map,-15.8397485308,-0.829013809806,0.165,0.0,0.0,-0.60408693312,0.796918425708,0,60.887512207,60.9505233765,92.6098709106,3.88644838333
1646486507577469519,9,1646486507577469519,r1000913c5/base_front_laser_link,0,1646486507577469519,v/m1vw10zy74w/map,-15.8025797386,-0.846499120127,0.165,0.0,0.0,-0.564135490187,0.825682232285,0,65.4022750854,61.3956985474,93.1716156006,3.92530441284
1646486507734404042,10,1646486507734404042,r1000913c5/base_front_laser_link,0,1646486507734404042,v/m1vw10zy74w/map,-15.7755948706,-0.840396102174,0.165,0.0,0.0,-0.530533237415,0.847664133958,0,61.0915031433,61.3680458069,92.5430450439,3.72500014305
1646486507892293103,11,1646486507892293103,r1000913c5/base_front_laser_link,0,1646486507892293103,v/m1vw10zy74w/map,-15.7549580977,-0.834709129524,0.165,0.0,0.0,-0.505315642505,0.862934587,0,62.3063545227,61.4462356567,92.1321258545,3.56196212769
1646486508286349299,12,1646486508286349299,r1000913c5/base_front_laser_link,0,1646486508286349299,v/m1vw10zy74w/map,-15.7114709496,-0.80368298466,0.165,0.0,0.0,-0.443441197172,0.896303466829,0,60.8022727966,61.3967018127,91.6416778564,3.4149928093
1646486508364436398,13,1646486508364436398,r1000913c5/base_front_laser_link,0,1646486508364436398,v/m1vw10zy74w/map,-15.7069886011,-0.802008721862,0.165,0.0,0.0,-0.438044553589,0.898953263007,0,59.4883041382,61.2603874207,91.2216644287,3.32042574883
1646486508442577355,14,1646486508442577355,r1000913c5/base_front_laser_link,0,1646486508442577355,v/m1vw10zy74w/map,-15.703281501,-0.803172497425,0.165,0.0,0.0,-0.435078836764,0.90039236214,0,59.4342155457,61.1386413574,90.8412399292,3.23419809341
1646486508600497478,15,1646486508600497478,r1000913c5/base_front_laser_link,0,1646486508600497478,v/m1vw10zy74w/map,-15.6940131985,-0.806570460743,0.165,0.0,0.0,-0.42927097065,0.903175749097,0,59.0059013367,61.0053443909,90.5144424438,3.16969847679
1646486508757288931,16,1646486508757288931,r1000913c5/base_front_laser_link,0,1646486508757288931,v/m1vw10zy74w/map,-15.6759889539,-0.805019494461,0.165,0.0,0.0,-0.409375426581,0.912366023102,0,57.5407829285,60.8015480042,90.3475494385,3.18199968338
1646486508915411450,17,1646486508915411450,r1000913c5/base_front_laser_link,0,1646486508915411450,v/m1vw10zy74w/map,-15.6517471715,-0.802308143173,0.165,0.0,0.0,-0.382539817332,0.923939006729,0,60.4660110474,60.7829055786,90.0469284058,3.08800601959
1646486509230396331,18,1646486509230396331,r1000913c5/base_front_laser_link,0,1646486509230396331,v/m1vw10zy74w/map,-15.6004099308,-0.788459045839,0.165,0.0,0.0,-0.323437364636,0.946249581853,0,55.4979019165,60.5047492981,90.2147827148,3.23667788506
1646486509387628940,19,1646486509387628940,r1000913c5/base_front_laser_link,0,1646486509387628940,v/m1vw10zy74w/map,-15.5720193301,-0.786590023396,0.165,0.0,0.0,-0.297390720531,0.954755863738,0,57.2739715576,60.343208313,90.0395736694,3.23212122917
1646486509466526256,20,1646486509466526256,r1000913c5/base_front_laser_link,0,1646486509466526256,v/m1vw10zy74w/map,-15.5568672519,-0.783722415705,0.165,0.0,0.0,-0.286547607154,0.958066004425,0,58.173538208,60.2398910522,89.796875,3.18566203117
1646486509545563964,21,1646486509545563964,r1000913c5/base_front_laser_link,0,1646486509545563964,v/m1vw10zy74w/map,-15.540857736,-0.78274893768,0.165,0.0,0.0,-0.273186377289,0.961961123572,0,56.1110992432,60.0522193909,89.7455368042,3.23110556602
1646486509702264392,22,1646486509702264392,r1000913c5/base_front_laser_link,0,1646486509702264392,v/m1vw10zy74w/map,-15.5061759106,-0.780129428569,0.165,0.0,0.0,-0.244704731568,0.969597645598,0,61.9207229614,60.1334609985,89.6757659912,3.18076896667
1646486509939343196,23,1646486509939343196,r1000913c5/base_front_laser_link,0,1646486509939343196,v/m1vw10zy74w/map,-15.4512254365,-0.771759008874,0.165,0.0,0.0,-0.201630665953,0.979461624847,0,54.6264724731,59.9040031433,89.8271713257,3.30772280693
1646486510175537292,24,1646486510175537292,r1000913c5/base_front_laser_link,0,1646486510175537292,v/m1vw10zy74w/map,-15.3951903558,-0.763259869724,0.165,0.0,0.0,-0.162008905443,0.986789295928,0,56.0000076294,59.7478408813,89.7405014038,3.33088564873
1646486510253451466,25,1646486510253451466,r1000913c5/base_front_laser_link,0,1646486510253451466,v/m1vw10zy74w/map,-15.3739965427,-0.760664215236,0.165,0.0,0.0,-0.148655458863,0.988889050678,0,56.2181282043,59.6120834351,89.6206665039,3.33619475365
1646486510332446126,26,1646486510332446126,r1000913c5/base_front_laser_link,0,1646486510332446126,v/m1vw10zy74w/map,-15.3519349841,-0.757854644114,0.165,0.0,0.0,-0.13540893432,0.990789796327,0,58.3309593201,59.5646362305,89.4066925049,3.28068566322
1646486510489464924,27,1646486510489464924,r1000913c5/base_front_laser_link,0,1646486510489464924,v/m1vw10zy74w/map,-15.3098217837,-0.750402624661,0.165,0.0,0.0,-0.11075156497,0.993848122631,0,55.2322502136,59.4099082947,89.3754272461,3.32183909416
1646486510647372182,28,1646486510647372182,r1000913c5/base_front_laser_link,0,1646486510647372182,v/m1vw10zy74w/map,-15.2619915138,-0.743475522176,0.165,0.0,0.0,-0.0865439843144,0.996248030753,0,56.5403709412,59.3109550476,89.2266082764,3.30521726608
1646486510804449725,29,1646486510804449725,r1000913c5/base_front_laser_link,0,1646486510804449725,v/m1vw10zy74w/map,-15.2104777807,-0.738439497463,0.165,0.0,0.0,-0.0665459834272,0.997783359297,0,52.3001480103,59.0772628784,89.5498580933,3.49086475372
1646486510883551334,30,1646486510883551334,r1000913c5/base_front_laser_link,0,1646486510883551334,v/m1vw10zy74w/map,-15.1840086696,-0.735822179402,0.165,0.0,0.0,-0.0578816454703,0.998323452152,0,50.1938438416,58.7907028198,90.1454467773,3.7849149704
1646486510962430151,31,1646486510962430151,r1000913c5/base_front_laser_link,0,1646486510962430151,v/m1vw10zy74w/map,-15.1575164043,-0.733015319299,0.165,0.0,0.0,-0.0494282258114,0.998777678211,0,53.9432830811,58.6392211914,90.1013259888,3.82070159912
1646486511120443983,32,1646486511120443983,r1000913c5/base_front_laser_link,0,1646486511120443983,v/m1vw10zy74w/map,-15.1085854415,-0.724980787718,0.165,0.0,0.0,-0.0352679766156,0.999377891403,0,53.8998947144,58.4956054688,90.0454940796,3.84996414185
1646486511277210791,33,1646486511277210791,r1000913c5/base_front_laser_link,0,1646486511277210791,v/m1vw10zy74w/map,-15.0515926056,-0.719190796709,0.165,0.0,0.0,-0.0217547466852,0.999763337494,0,54.3568763733,58.3738746643,89.9450378418,3.8570535183
1646486511435355534,34,1646486511435355534,r1000913c5/base_front_laser_link,0,1646486511435355534,v/m1vw10zy74w/map,-14.992578823,-0.681608171403,0.165,0.0,0.0,-0.00764654184631,0.999970764772,0,51.7954788208,58.1859207153,90.0637054443,3.95926070213
1646486511513286266,35,1646486511513286266,r1000913c5/base_front_laser_link,0,1646486511513286266,v/m1vw10zy74w/map,-14.9623515499,-0.679516478255,0.165,0.0,0.0,-0.00443194594827,0.999990178879,0,52.3206367493,58.0229988098,90.0915985107,4.0228676796
1646486511592315766,36,1646486511592315766,r1000913c5/base_front_laser_link,0,1646486511592315766,v/m1vw10zy74w/map,-14.9308534894,-0.678110191325,0.165,0.0,0.0,-0.00201909868644,0.999997961618,0,50.7268180847,57.8258018494,90.2577896118,4.14399433136
1646486511670599287,37,1646486511670599287,r1000913c5/base_front_laser_link,0,1646486511670599287,v/m1vw10zy74w/map,-14.8987677886,-0.676834674223,0.165,0.0,0.0,-2.9643394715e-05,0.999999999561,0,53.5187492371,57.7124595642,90.1531448364,4.14689493179
1646486511749551441,38,1646486511749551441,r1000913c5/base_front_laser_link,0,1646486511749551441,v/m1vw10zy74w/map,-14.8665911406,-0.684702731244,0.165,0.0,0.0,-0.000995469218523,0.99999950452,0,52.0142364502,57.5663528442,90.1437454224,4.19246339798
1646486511828426741,39,1646486511828426741,r1000913c5/base_front_laser_link,0,1646486511828426741,v/m1vw10zy74w/map,-14.8319866943,-0.672092674335,0.165,0.0,0.0,0.00353828576926,0.999993740247,0,53.0234603882,57.4527778625,90.0534973145,4.20023965836
1646486511985665320,40,1646486511985665320,r1000913c5/base_front_laser_link,0,1646486511985665320,v/m1vw10zy74w/map,-14.762344579,-0.669940976633,0.165,0.0,0.0,0.00573594613545,0.999983549326,0,52.3373374939,57.3280143738,89.9989547729,4.22364759445
1646486512143632218,41,1646486512143632218,r1000913c5/base_front_laser_link,0,1646486512143632218,v/m1vw10zy74w/map,-14.687541796,-0.665459287131,0.165,0.0,0.0,0.00664558650053,0.999977917846,0,55.5479354858,57.2856292725,89.8281936646,4.18085432053
1646486512301397288,42,1646486512301397288,r1000913c5/base_front_laser_link,0,1646486512301397288,v/m1vw10zy74w/map,-14.6122512102,-0.664429440551,0.165,0.0,0.0,0.00663058541853,0.999978017427,0,57.5140075684,57.2909393311,89.6837310791,4.13092899323
1646486512378597148,43,1646486512378597148,r1000913c5/base_front_laser_link,0,1646486512378597148,v/m1vw10zy74w/map,-14.5769900006,-0.663316403132,0.165,0.0,0.0,0.00545310769226,0.999985131698,0,57.5707855225,57.2973022461,89.545791626,4.08283042908
1646486512536498411,44,1646486512536498411,r1000913c5/base_front_laser_link,0,1646486512536498411,v/m1vw10zy74w/map,-14.4970583611,-0.664353812861,0.165,0.0,0.0,0.00259876577296,0.999996623203,0,55.6094741821,57.2597923279,89.3917999268,4.04400253296
1646486512693740869,45,1646486512693740869,r1000913c5/base_front_laser_link,0,1646486512693740869,v/m1vw10zy74w/map,-14.4246435169,-0.647199921311,0.165,0.0,0.0,-0.00117559431647,0.999999308989,0,54.0405540466,57.1898117065,89.2704772949,4.02688837051
1646486512930482667,46,1646486512930482667,r1000913c5/base_front_laser_link,0,1646486512930482667,v/m1vw10zy74w/map,-14.2880393006,-0.658513942833,0.165,0.0,0.0,-0.00379412756456,0.999992802272,0,55.4463157654,57.1527137756,89.1256790161,3.99098825455
1646486513088357580,47,1646486513088357580,r1000913c5/base_front_laser_link,0,1646486513088357580,v/m1vw10zy74w/map,-14.1980308237,-0.660451419236,0.165,0.0,0.0,-0.00451273524556,0.999989817558,0,52.3994560242,57.0536880493,89.0760879517,4.00746679306
1646486513324737135,48,1646486513324737135,r1000913c5/base_front_laser_link,0,1646486513324737135,v/m1vw10zy74w/map,-14.066322846,-0.663006042876,0.165,0.0,0.0,-0.00639387945567,0.999979558944,0,53.6371307373,56.9839630127,88.9702453613,3.99542665482
1646486513403338423,49,1646486513403338423,r1000913c5/base_front_laser_link,0,1646486513403338423,v/m1vw10zy74w/map,-14.0171569346,-0.65829408156,0.165,0.0,0.0,-0.00567670315161,0.999983887391,0,51.795173645,56.8801879883,88.9460525513,4.02195453644
1646486513559680533,50,1646486513559680533,r1000913c5/base_front_laser_link,0,1646486513559680533,v/m1vw10zy74w/map,-13.9199287428,-0.660642083513,0.165,0.0,0.0,-0.00772890539012,0.999970131565,0,53.9206428528,56.8221549988,88.8312835693,4.0030412674
1646486513717900087,51,1646486513717900087,r1000913c5/base_front_laser_link,0,1646486513717900087,v/m1vw10zy74w/map,-13.825624636,-0.664598593768,0.165,0.0,0.0,-0.0103143942704,0.999946805221,0,51.6733512878,56.7231407166,88.8053436279,4.02740001678
1646486513795707537,52,1646486513795707537,r1000913c5/base_front_laser_link,0,1646486513795707537,v/m1vw10zy74w/map,-13.7752676602,-0.666495799037,0.165,0.0,0.0,-0.0115432474232,0.9999333745,0,53.950378418,56.6708259583,88.6907196045,4.00663042068
1646486513874644044,53,1646486513874644044,r1000913c5/base_front_laser_link,0,1646486513874644044,v/m1vw10zy74w/map,-13.7395123994,-0.653996543482,0.165,0.0,0.0,-0.0151667611382,0.999884978063,0,52.3106918335,56.5900802612,88.628364563,4.01276111603
1646486513953549381,54,1646486513953549381,r1000913c5/base_front_laser_link,0,1646486513953549381,v/m1vw10zy74w/map,-13.6781044602,-0.667045709115,0.165,0.0,0.0,-0.0122899165863,0.999924476123,0,53.4501686096,56.5329933167,88.5267333984,3.99791407585
1646486514110751798,55,1646486514110751798,r1000913c5/base_front_laser_link,0,1646486514110751798,v/m1vw10zy74w/map,-13.5752200712,-0.67461231673,0.165,0.0,0.0,-0.0136299325615,0.999907108155,0,48.2841072083,56.3856925964,88.7214126587,4.11190748215
1646486514268683940,56,1646486514268683940,r1000913c5/base_front_laser_link,0,1646486514268683940,v/m1vw10zy74w/map,-13.4633571789,-0.674595823023,0.165,0.0,0.0,-0.0129005577728,0.999916784342,0,48.7864990234,56.2523727417,88.8448638916,4.19749689102
1646486514425607784,57,1646486514425607784,r1000913c5/base_front_laser_link,0,1646486514425607784,v/m1vw10zy74w/map,-13.3525217244,-0.675808179152,0.165,0.0,0.0,-0.0125818099942,0.999920845896,0,49.6943321228,56.1393013,88.8853759766,4.24869251251
1646486514583810938,58,1646486514583810938,r1000913c5/base_front_laser_link,0,1646486514583810938,v/m1vw10zy74w/map,-13.241075245,-0.677167747015,0.165,0.0,0.0,-0.0129341777778,0.999916350024,0,52.4539451599,56.076839447,88.7942733765,4.2391462326
1646486514661635546,59,1646486514661635546,r1000913c5/base_front_laser_link,0,1646486514661635546,v/m1vw10zy74w/map,-13.1761672395,-0.677611717276,0.165,0.0,0.0,-0.0119204409616,0.99992894902,0,48.8842315674,55.9569625854,88.8702087402,4.30441665649
1646486514740752165,60,1646486514740752165,r1000913c5/base_front_laser_link,0,1646486514740752165,v/m1vw10zy74w/map,-13.1160396614,-0.679171292676,0.165,0.0,0.0,-0.0120919626095,0.999926889548,0,50.4832725525,55.8672294617,88.8438720703,4.32554864883
1646486514976830509,61,1646486514976830509,r1000913c5/base_front_laser_link,0,1646486514976830509,v/m1vw10zy74w/map,-12.9400553419,-0.680069818005,0.165,0.0,0.0,-0.0119293896068,0.9999288423,0,51.6836013794,55.7997512817,88.7679214478,4.32272434235
1646486515133684313,62,1646486515133684313,r1000913c5/base_front_laser_link,0,1646486515133684313,v/m1vw10zy74w/map,-12.8164869211,-0.684039191021,0.165,0.0,0.0,-0.0117956237649,0.99993042921,0,52.5915870667,55.7488288879,88.6690216064,4.30673074722
1646486515371815824,63,1646486515371815824,r1000913c5/base_front_laser_link,0,1646486515371815824,v/m1vw10zy74w/map,-12.6258558526,-0.687025866119,0.165,0.0,0.0,-0.0116125526636,0.999932572037,0,55.2600822449,55.741191864,88.5597457886,4.27285051346
1646486515527620883,64,1646486515527620883,r1000913c5/base_front_laser_link,0,1646486515527620883,v/m1vw10zy74w/map,-12.4838734585,-0.694662750507,0.165,0.0,0.0,-0.0126026277931,0.999920583733,0,53.9959144592,55.71434021,88.4489212036,4.24486064911
1646486515684886096,65,1646486515684886096,r1000913c5/base_front_laser_link,0,1646486515684886096,v/m1vw10zy74w/map,-12.3508819338,-0.698009413948,0.165,0.0,0.0,-0.0123193428758,0.999924114016,0,53.8707389832,55.6864089966,88.3409805298,4.21819019318
1646486515921770213,66,1646486515921770213,r1000913c5/base_front_laser_link,0,1646486515921770213,v/m1vw10zy74w/map,-12.1458045173,-0.700891292225,0.165,0.0,0.0,-0.0123271026566,0.999924018383,0,55.5840148926,55.684879303,88.243270874,4.18613100052
1646486516078650340,67,1646486516078650340,r1000913c5/base_front_laser_link,0,1646486516078650340,v/m1vw10zy74w/map,-11.997960461,-0.702323191125,0.165,0.0,0.0,-0.011734291991,0.999931150826,0,54.6621551514,55.6698379517,88.1397094727,4.15662431717
1646486516158810425,68,1646486516158810425,r1000913c5/base_front_laser_link,0,1646486516158810425,v/m1vw10zy74w/map,-11.9296813478,-0.70364862146,0.165,0.0,0.0,-0.010953946191,0.999940003732,0,52.2919006348,55.6208839417,88.0587005615,4.14593935013
1646486516314852104,69,1646486516314852104,r1000913c5/base_front_laser_link,0,1646486516314852104,v/m1vw10zy74w/map,-11.7819122441,-0.704846388949,0.165,0.0,0.0,-0.00943850414147,0.999955456328,0,53.9926567078,55.5976219177,87.9587783813,4.12038516998
1646486516629823090,70,1646486516629823090,r1000913c5/base_front_laser_link,0,1646486516629823090,v/m1vw10zy74w/map,-11.4973642619,-0.710140739799,0.165,0.0,0.0,-0.00949860042487,0.999954887277,0,50.4197425842,55.5246963501,87.934928894,4.13674354553
1646486516709203043,71,1646486516709203043,r1000913c5/base_front_laser_link,0,1646486516709203043,v/m1vw10zy74w/map,-11.4199198653,-0.712036634519,0.165,0.0,0.0,-0.00975704441726,0.999952398909,0,49.7763328552,55.444858551,87.9338531494,4.16299962997
1646486516944808183,72,1646486516944808183,r1000913c5/base_front_laser_link,0,1646486516944808183,v/m1vw10zy74w/map,-11.1896354482,-0.717721420551,0.165,0.0,0.0,-0.0153575204638,0.999882066328,0,53.7115783691,55.4211120605,87.8380050659,4.1389632225
1646486517101799379,73,1646486517101799379,r1000913c5/base_front_laser_link,0,1646486517101799379,v/m1vw10zy74w/map,-11.0341838179,-0.703112346841,0.165,0.0,0.0,-0.0197994571671,0.999803971534,0,54.338634491,55.4064865112,87.743812561,4.1124420166
1646486517259687602,74,1646486517259687602,r1000913c5/base_front_laser_link,0,1646486517259687602,v/m1vw10zy74w/map,-10.8954057896,-0.715706113184,0.165,0.0,0.0,-0.0196531513268,0.99980685817,0,56.888092041,55.4262390137,87.6906661987,4.08814191818
1646486517417463841,75,1646486517417463841,r1000913c5/base_front_laser_link,0,1646486517417463841,v/m1vw10zy74w/map,-10.7840178731,-0.729318488725,0.165,0.0,0.0,-0.0199595560012,0.999800788219,0,55.3386383057,55.4250869751,87.6075134277,4.0608086586
1646486517652640637,76,1646486517652640637,r1000913c5/base_front_laser_link,0,1646486517652640637,v/m1vw10zy74w/map,-10.6487167624,-0.717555134517,0.165,0.0,0.0,-0.0139657446459,0.999902474233,0,58.1024513245,55.4598579407,87.5964355469,4.04552698135
1646486517811965332,77,1646486517811965332,r1000913c5/base_front_laser_link,0,1646486517811965332,v/m1vw10zy74w/map,-10.5750255687,-0.741486493799,0.165,0.0,0.0,-0.0109070476505,0.999940516387,0,56.7480545044,55.4763717651,87.5418243408,4.02181720734
1646486517967881683,78,1646486517967881683,r1000913c5/base_front_laser_link,0,1646486517967881683,v/m1vw10zy74w/map,-10.5201562515,-0.743364547293,0.165,0.0,0.0,-0.00739480593966,0.999972658049,0,58.9737205505,55.5206451416,87.5664825439,4.01527929306
1646486518282988170,79,1646486518282988170,r1000913c5/base_front_laser_link,0,1646486518282988170,v/m1vw10zy74w/map,-10.3966561153,-0.711105419219,0.165,0.0,0.0,-0.00773742594028,0.999970065672,0,56.5326271057,55.5332946777,87.5074615479,3.9913892746
1646486518596976944,80,1646486518596976944,r1000913c5/base_front_laser_link,0,1646486518596976944,v/m1vw10zy74w/map,-10.2879862302,-0.720516763598,0.165,0.0,0.0,-0.013013251212,0.999915324061,0,55.1832046509,55.5289726257,87.4286346436,3.96655535698
1646486518911764725,81,1646486518911764725,r1000913c5/base_front_laser_link,0,1646486518911764725,v/m1vw10zy74w/map,-10.1932476715,-0.730433449282,0.165,0.0,0.0,-0.0169556015217,0.999856243456,0,58.9880485535,55.5711555481,87.4525299072,3.96045923233
1646486519069914208,82,1646486519069914208,r1000913c5/base_front_laser_link,0,1646486519069914208,v/m1vw10zy74w/map,-10.1420309933,-0.727617700281,0.165,0.0,0.0,-0.0175543827386,0.999845909951,0,55.1958656311,55.5666351318,87.3759918213,3.93645167351
1646486519147719899,83,1646486519147719899,r1000913c5/base_front_laser_link,0,1646486519147719899,v/m1vw10zy74w/map,-10.1198977999,-0.728539580035,0.165,0.0,0.0,-0.018282478072,0.99983286153,0,56.033405304,55.5721893311,87.3111801147,3.91299772263
1646486519226900336,84,1646486519226900336,r1000913c5/base_front_laser_link,0,1646486519226900336,v/m1vw10zy74w/map,-10.0981603839,-0.730074016129,0.165,0.0,0.0,-0.0193503400253,0.999812764642,0,57.8392868042,55.5988616943,87.2910690308,3.89740133286
1646486519384836394,85,1646486519384836394,r1000913c5/base_front_laser_link,0,1646486519384836394,v/m1vw10zy74w/map,-10.0556838605,-0.73300975284,0.165,0.0,0.0,-0.0211617690156,0.999776064693,0,57.323425293,55.6189155579,87.2555160522,3.87886810303
1646486519620873727,86,1646486519620873727,r1000913c5/base_front_laser_link,0,1646486519620873727,v/m1vw10zy74w/map,-9.99815437091,-0.737128892787,0.165,0.0,0.0,-0.0252872404934,0.999680226607,0,57.5930175781,55.6416053772,87.2277679443,3.86205410957
1646486520093964699,87,1646486520093964699,r1000913c5/base_front_laser_link,0,1646486520093964699,v/m1vw10zy74w/map,-9.87340022899,-0.759328070154,0.165,0.0,0.0,-0.0443016845977,0.999018198404,0,56.6989822388,55.6536216736,87.1779632568,3.84144830704
1646486520408041524,88,1646486520408041524,r1000913c5/base_front_laser_link,0,1646486520408041524,v/m1vw10zy74w/map,-9.8446711528,-0.786514031119,0.165,0.0,0.0,-0.0803851537986,0.996763877279,0,57.9560699463,55.6794929504,87.1615371704,3.82734894753
1646486520487026740,89,1646486520487026740,r1000913c5/base_front_laser_link,0,1646486520487026740,v/m1vw10zy74w/map,-9.84605560575,-0.79187748254,0.165,0.0,0.0,-0.0884549266409,0.996080180484,0,57.1382102966,55.6957015991,87.1223754883,3.80889129639
1646486520643988293,90,1646486520643988293,r1000913c5/base_front_laser_link,0,1646486520643988293,v/m1vw10zy74w/map,-9.85080366543,-0.805467096623,0.165,0.0,0.0,-0.109495394576,0.993987303021,0,57.9522666931,55.7204971313,87.1056518555,3.79505109787
1646486520880984876,91,1646486520880984876,r1000913c5/base_front_laser_link,0,1646486520880984876,v/m1vw10zy74w/map,-9.85884787362,-0.84009510144,0.165,0.0,0.0,-0.163752358966,0.986501477411,0,54.1487312317,55.703414917,87.0365066528,3.77769732475
1646486521195131947,92,1646486521195131947,r1000913c5/base_front_laser_link,0,1646486521195131947,v/m1vw10zy74w/map,-9.87033637081,-0.885721725729,0.165,0.0,0.0,-0.233077297674,0.9724582116,0,56.4200248718,55.7111167908,86.9846572876,3.75784516335
1646486521432131160,93,1646486521432131160,r1000913c5/base_front_laser_link,0,1646486521432131160,v/m1vw10zy74w/map,-9.88252269656,-0.914846724157,0.165,0.0,0.0,-0.282711295555,0.959205047613,0,54.8477058411,55.7019348145,86.9178771973,3.73864793777
1646486521746037781,94,1646486521746037781,r1000913c5/base_front_laser_link,0,1646486521746037781,v/m1vw10zy74w/map,-9.9112351516,-0.951760804313,0.165,0.0,0.0,-0.349686517333,0.93686676726,0,57.0089492798,55.7156906128,86.8790664673,3.72112512589
1646486521982989730,95,1646486521982989730,r1000913c5/base_front_laser_link,0,1646486521982989730,v/m1vw10zy74w/map,-9.93265888166,-0.976641761836,0.165,0.0,0.0,-0.397806335808,0.917469410493,0,55.9644775391,55.7182846069,86.8230133057,3.70157551765
1646486522140030894,96,1646486522140030894,r1000913c5/base_front_laser_link,0,1646486522140030894,v/m1vw10zy74w/map,-9.95035441212,-0.992315980284,0.165,0.0,0.0,-0.429957633333,0.90284906465,0,51.9184112549,55.679107666,86.7863235474,3.70240354538
1646486522376160014,97,1646486522376160014,r1000913c5/base_front_laser_link,0,1646486522376160014,v/m1vw10zy74w/map,-9.98591870314,-1.00877901414,0.165,0.0,0.0,-0.475083550975,0.879940690952,0,55.9593276978,55.681968689,86.7321014404,3.68337845802
1646486522533219164,98,1646486522533219164,r1000913c5/base_front_laser_link,0,1646486522533219164,v/m1vw10zy74w/map,-10.0074538484,-1.02054284819,0.165,0.0,0.0,-0.504530046545,0.863394134873,0,54.4238586426,55.6692619324,86.669418335,3.66671824455
1646486522691058604,99,1646486522691058604,r1000913c5/base_front_laser_link,0,1646486522691058604,v/m1vw10zy74w/map,-10.0260114021,-1.03320508913,0.165,0.0,0.0,-0.534847597848,0.844948546999,0,49.622303009,55.6087913513,86.7025756836,3.69792819023
1646486522927992346,100,1646486522927992346,r1000913c5/base_front_laser_link,0,1646486522927992346,v/m1vw10zy74w/map,-10.0572466811,-1.046319118,0.165,0.0,0.0,-0.577201055113,0.816602070764,0,52.9868621826,55.5828323364,86.6487197876,3.68863010406
1646486523084346875,101,1646486523084346875,r1000913c5/base_front_laser_link,0,1646486523084346875,v/m1vw10zy74w/map,-10.0763743576,-1.05002608081,0.165,0.0,0.0,-0.601561172341,0.798826737116,0,50.2768096924,55.5308113098,86.6540145874,3.70773482323
1646486523242088108,102,1646486523242088108,r1000913c5/base_front_laser_link,0,1646486523242088108,v/m1vw10zy74w/map,-10.0925213926,-1.05821205108,0.165,0.0,0.0,-0.624758638935,0.780817932092,0,55.6555252075,55.5320205688,86.6006240845,3.68953514099
1646486523399911991,103,1646486523399911991,r1000913c5/base_front_laser_link,0,1646486523399911991,v/m1vw10zy74w/map,-10.1107441364,-1.05314069536,0.165,0.0,0.0,-0.642058974551,0.766655250552,0,54.8241920471,55.5252151489,86.5419311523,3.67223715782
1646486523635312457,104,1646486523635312457,r1000913c5/base_front_laser_link,0,1646486523635312457,v/m1vw10zy74w/map,-10.1487303211,-1.09629960647,0.165,0.0,0.0,-0.66255158521,0.749016286162,0,60.483833313,55.5724411011,86.6317596436,3.68643856049
1646486528044920549,105,1646486528044920549,r1000913c5/base_front_laser_link,0,1646486528044920549,v/m1vw10zy74w/map,-10.1883041144,-1.10100258727,0.165,0.0,0.0,-0.703771490825,0.710426413291,0,59.4953231812,55.6094474792,86.6751708984,3.68857455254
1646486528201815266,106,1646486528201815266,r1000913c5/base_front_laser_link,0,1646486528201815266,v/m1vw10zy74w/map,-10.1885373188,-1.10099337383,0.165,0.0,0.0,-0.704019263378,0.71018087611,0,60.0542945862,55.6509895325,86.7395782471,3.69619655609
1646486528437524855,107,1646486528437524855,r1000913c5/base_front_laser_link,0,1646486528437524855,v/m1vw10zy74w/map,-10.1992882627,-1.11543372663,0.165,0.0,0.0,-0.715321908208,0.698795082723,0,55.7392158508,55.6518058777,86.6884918213,3.67889380455
1646486528595488229,108,1646486528595488229,r1000913c5/base_front_laser_link,0,1646486528595488229,v/m1vw10zy74w/map,-10.216588666,-1.14436732128,0.165,0.0,0.0,-0.732018632389,0.681284611477,0,60.1309623718,55.6929016113,86.7535095215,3.68686938286
1646486528752292068,109,1646486528752292068,r1000913c5/base_front_laser_link,0,1646486528752292068,v/m1vw10zy74w/map,-10.2288986509,-1.18866504523,0.165,0.0,0.0,-0.740966975082,0.671541466953,0,56.7166595459,55.702205658,86.7158584595,3.67121601105
1646486528989415477,110,1646486528989415477,r1000913c5/base_front_laser_link,0,1646486528989415477,v/m1vw10zy74w/map,-10.2476832928,-1.25973972092,0.165,0.0,0.0,-0.751076176736,0.66021555324,0,61.085975647,55.7507095337,86.8208389282,3.69004440308
1646486529226355302,111,1646486529226355302,r1000913c5/base_front_laser_link,0,1646486529226355302,v/m1vw10zy74w/map,-10.2497499283,-1.32884300648,0.165,0.0,0.0,-0.744706585525,0.667392014843,0,64.5093154907,55.8289108276,87.1252975464,3.76546096802
1646486529305508233,112,1646486529305508233,r1000913c5/base_front_laser_link,0,1646486529305508233,v/m1vw10zy74w/map,-10.2479893281,-1.35149903245,0.165,0.0,0.0,-0.740592668359,0.671954239196,0,57.9130363464,55.8473548889,87.1085662842,3.75373673439
1646486529541590692,113,1646486529541590692,r1000913c5/base_front_laser_link,0,1646486529541590692,v/m1vw10zy74w/map,-10.2207064695,-1.38816609905,0.165,0.0,0.0,-0.732025902614,0.681276799768,0,65.3747024536,55.9309272766,87.457359314,3.84214472771
1646486529698450372,114,1646486529698450372,r1000913c5/base_front_laser_link,0,1646486529698450372,v/m1vw10zy74w/map,-10.2145564138,-1.4333389169,0.165,0.0,0.0,-0.722957904558,0.690892081469,0,58.3951034546,55.9523544312,87.4488067627,3.83215141296
1646486529856410500,115,1646486529856410500,r1000913c5/base_front_laser_link,0,1646486529856410500,v/m1vw10zy74w/map,-10.2226008496,-1.51556437855,0.165,0.0,0.0,-0.714299733155,0.699839903989,0,59.6978530884,55.9846458435,87.4784545898,3.83126926422
1646486530172274986,116,1646486530172274986,r1000913c5/base_front_laser_link,0,1646486530172274986,v/m1vw10zy74w/map,-10.2039621201,-1.60161426974,0.165,0.0,0.0,-0.701936600689,0.712239432083,0,53.9392127991,55.9671630859,87.4253692627,3.81940340996
1646486530329638267,117,1646486530329638267,r1000913c5/base_front_laser_link,0,1646486530329638267,v/m1vw10zy74w/map,-10.195810735,-1.64591536246,0.165,0.0,0.0,-0.694365197804,0.71962279847,0,55.3673820496,55.9620780945,87.3724212646,3.80344700813
1646486530645644493,118,1646486530645644493,r1000913c5/base_front_laser_link,0,1646486530645644493,v/m1vw10zy74w/map,-10.185962991,-1.73238650568,0.165,0.0,0.0,-0.689142629485,0.724625721477,0,51.6739006042,55.9260444641,87.3489685059,3.80764222145
1646486530723560985,119,1646486530723560985,r1000913c5/base_front_laser_link,0,1646486530723560985,v/m1vw10zy74w/map,-10.1839535199,-1.75445525826,0.165,0.0,0.0,-0.688197726798,0.725523182835,0,52.9298248291,55.9010772705,87.3054656982,3.80146241188
1646486530802469033,120,1646486530802469033,r1000913c5/base_front_laser_link,0,1646486530802469033,v/m1vw10zy74w/map,-10.1821996634,-1.7768820667,0.165,0.0,0.0,-0.687596737281,0.726092781179,0,51.1524620056,55.861831665,87.2922058105,3.81012439728
1646486536631010582,121,1646486536631010582,r1000913c5/base_front_laser_link,0,1646486536631010582,v/m1vw10zy74w/map,-10.1878083778,-2.61867453675,0.165,0.0,0.0,-0.703032387489,0.711157832089,0,57.8807830811,55.8783798218,87.2746200562,3.79874777794
1646486540251156748,122,1646486540251156748,r1000913c5/base_front_laser_link,0,1646486540251156748,v/m1vw10zy74w/map,-10.187779301,-2.77095904435,0.165,0.0,0.0,-0.705293412883,0.708915511005,0,63.8289489746,55.9430198669,87.494430542,3.85046958923
1646486540408219652,123,1646486540408219652,r1000913c5/base_front_laser_link,0,1646486540408219652,v/m1vw10zy74w/map,-10.1878421436,-2.77012405219,0.165,0.0,0.0,-0.705355508611,0.708853727135,0,65.8391494751,56.0228271484,87.832069397,3.93641519547
1646486540566118551,124,1646486540566118551,r1000913c5/base_front_laser_link,0,1646486540566118551,v/m1vw10zy74w/map,-10.1880120035,-2.76134734024,0.165,0.0,0.0,-0.705490765073,0.708719112481,0,61.9806175232,56.0704879761,87.9401702881,3.95655965805
1646486540723340621,125,1646486540723340621,r1000913c5/base_front_laser_link,0,1646486540723340621,v/m1vw10zy74w/map,-10.1890718342,-2.74076803422,0.165,0.0,0.0,-0.706529963191,0.707683129029,0,59.7810325623,56.099937439,87.9635620117,3.9545416832
1646486540880217675,126,1646486540880217675,r1000913c5/base_front_laser_link,0,1646486540880217675,v/m1vw10zy74w/map,-10.190147868,-2.7134296666,0.165,0.0,0.0,-0.707658874267,0.706554256707,0,58.6453971863,56.1199798584,87.9558486938,3.94528889656
1646486541038366657,127,1646486541038366657,r1000913c5/base_front_laser_link,0,1646486541038366657,v/m1vw10zy74w/map,-10.1923947099,-2.67325048093,0.165,0.0,0.0,-0.710159434226,0.704040892264,0,64.965675354,56.1890869141,88.2093353271,4.00674962997
1646486541118264303,128,1646486541118264303,r1000913c5/base_front_laser_link,0,1646486541118264303,v/m1vw10zy74w/map,-10.1938895254,-2.65145832561,0.165,0.0,0.0,-0.711965975376,0.702213963053,0,63.2520065308,56.2438392639,88.3615112305,4.03922319412
1646486541274742035,129,1646486541274742035,r1000913c5/base_front_laser_link,0,1646486541274742035,v/m1vw10zy74w/map,-10.1952379958,-2.6060981469,0.165,0.0,0.0,-0.714177277583,0.699964867822,0,61.6489677429,56.2854156494,88.4395217896,4.05136823654
1646486541433135577,130,1646486541433135577,r1000913c5/base_front_laser_link,0,1646486541433135577,v/m1vw10zy74w/map,-10.1953167285,-2.55642267117,0.165,0.0,0.0,-0.715409311705,0.698705600897,0,61.0626068115,56.3218841553,88.4937286377,4.05728197098
1646486541590265969,131,1646486541590265969,r1000913c5/base_front_laser_link,0,1646486541590265969,v/m1vw10zy74w/map,-10.1931974815,-2.50904429848,0.165,0.0,0.0,-0.714319860495,0.699819360194,0,62.6707305908,56.3699798584,88.6080856323,4.0793671608
1646486541669177648,132,1646486541669177648,r1000913c5/base_front_laser_link,0,1646486541669177648,v/m1vw10zy74w/map,-10.1921430975,-2.48614396287,0.165,0.0,0.0,-0.713684479263,0.700467318338,0,61.7311935425,56.4102897644,88.6814575195,4.09038829803
1646486541746342360,133,1646486541746342360,r1000913c5/base_front_laser_link,0,1646486541746342360,v/m1vw10zy74w/map,-10.1895563024,-2.47140326199,0.165,0.0,0.0,-0.713461196302,0.700694741932,0,58.3361129761,56.4246635437,88.6597900391,4.07837677002
1646486541826079425,134,1646486541826079425,r1000913c5/base_front_laser_link,0,1646486541826079425,v/m1vw10zy74w/map,-10.1915299033,-2.44998269072,0.165,0.0,0.0,-0.714413862127,0.699723397923,0,58.6551551819,56.4411849976,88.6441726685,4.06766271591
1646486541984090115,135,1646486541984090115,r1000913c5/base_front_laser_link,0,1646486541984090115,v/m1vw10zy74w/map,-10.1910715848,-2.4049266769,0.165,0.0,0.0,-0.714959580007,0.69916578789,0,57.004119873,56.4453239441,88.6038970947,4.05285692215
1646486542063289884,136,1646486542063289884,r1000913c5/base_front_laser_link,0,1646486542063289884,v/m1vw10zy74w/map,-10.1906360502,-2.38249870283,0.165,0.0,0.0,-0.715030978408,0.699092769177,0,56.0324363708,56.4423103333,88.5565567017,4.03808307648
1646486542140958156,137,1646486542140958156,r1000913c5/base_front_laser_link,0,1646486542140958156,v/m1vw10zy74w/map,-10.1566764785,-2.37450506274,0.165,0.0,0.0,-0.716663325984,0.697419297976,0,56.9609680176,56.4460678101,88.5167541504,4.02356100082
1646486542220296176,138,1646486542220296176,r1000913c5/base_front_laser_link,0,1646486542220296176,v/m1vw10zy74w/map,-10.1585368344,-2.35267149356,0.165,0.0,0.0,-0.716872575303,0.697204210241,0,58.5029220581,56.4608650208,88.4991149902,4.01275062561
1646486542299365933,139,1646486542299365933,r1000913c5/base_front_laser_link,0,1646486542299365933,v/m1vw10zy74w/map,-10.1579354826,-2.33010103106,0.165,0.0,0.0,-0.716901536035,0.69717443128,0,58.2171134949,56.4734115601,88.4765396118,4.00104427338
1646486542455394538,140,1646486542455394538,r1000913c5/base_front_laser_link,0,1646486542455394538,v/m1vw10zy74w/map,-10.1567092137,-2.28571981675,0.165,0.0,0.0,-0.716915495698,0.69716007633,0,59.4575805664,56.4945755005,88.4785003662,3.99464249611
1646486542534467387,141,1646486542534467387,r1000913c5/base_front_laser_link,0,1646486542534467387,v/m1vw10zy74w/map,-10.159460684,-2.26126040983,0.165,0.0,0.0,-0.716622655901,0.697461087839,0,57.9447174072,56.5047874451,88.4517211914,3.98231172562
1646486542692541621,142,1646486542692541621,r1000913c5/base_front_laser_link,0,1646486542692541621,v/m1vw10zy74w/map,-10.1555716462,-2.21614492021,0.165,0.0,0.0,-0.716329082976,0.697762599229,0,59.9248428345,56.5287017822,88.4643783569,3.97855758667
1646486542771394647,143,1646486542771394647,r1000913c5/base_front_laser_link,0,1646486542771394647,v/m1vw10zy74w/map,-10.1547951112,-2.19380801566,0.165,0.0,0.0,-0.716126727713,0.697970278633,0,56.9644050598,56.5317306519,88.4260940552,3.96478819847
1646486542927357452,144,1646486542927357452,r1000913c5/base_front_laser_link,0,1646486542927357452,v/m1vw10zy74w/map,-10.160552943,-2.15227359813,0.165,0.0,0.0,-0.716050998497,0.698047969377,0,56.1110839844,56.5288276672,88.3822860718,3.95115208626
1646486543007269961,145,1646486543007269961,r1000913c5/base_front_laser_link,0,1646486543007269961,v/m1vw10zy74w/map,-10.1618127231,-2.13304708667,0.165,0.0,0.0,-0.716215874526,0.697878801138,0,58.0791320801,56.5394477844,88.3582305908,3.93959379196
1646486543163353574,146,1646486543163353574,r1000913c5/base_front_laser_link,0,1646486543163353574,v/m1vw10zy74w/map,-10.1606939865,-2.08872155239,0.165,0.0,0.0,-0.71625073215,0.697843025827,0,55.8012084961,56.5344238281,88.3140792847,3.92655086517
1646486543243602590,147,1646486543243602590,r1000913c5/base_front_laser_link,0,1646486543243602590,v/m1vw10zy74w/map,-10.1601168086,-2.06590914731,0.165,0.0,0.0,-0.716269018917,0.697824256199,0,55.7743263245,56.5292892456,88.2703018188,3.91367125511
1646486543321642459,148,1646486543321642459,r1000913c5/base_front_laser_link,0,1646486543321642459,v/m1vw10zy74w/map,-10.1557926761,-2.04298553229,0.165,0.0,0.0,-0.717757616117,0.696293044994,0,54.5652236938,56.5161056519,88.2273406982,3.90374445915
1646486543479563062,149,1646486543479563062,r1000913c5/base_front_laser_link,0,1646486543479563062,v/m1vw10zy74w/map,-10.154205627,-2.0045085768,0.165,0.0,0.0,-0.718031729911,0.69601036978,0,49.191116333,56.4672737122,88.2762451172,3.93632411957
1646486543557583726,150,1646486543557583726,r1000913c5/base_front_laser_link,0,1646486543557583726,v/m1vw10zy74w/map,-10.153519869,-1.98214244353,0.165,0.0,0.0,-0.718043763117,0.695997955636,0,48.5984916687,56.4151611328,88.3404541016,3.97509765625
1646486543793284013,151,1646486543793284013,r1000913c5/base_front_laser_link,0,1646486543793284013,v/m1vw10zy74w/map,-10.153554801,-1.91946414005,0.165,0.0,0.0,-0.716948970718,0.697125651075,0,52.829574585,56.3915748596,88.3092956543,3.97257328033
1646486544029794333,152,1646486544029794333,r1000913c5/base_front_laser_link,0,1646486544029794333,v/m1vw10zy74w/map,-10.1519228785,-1.85269726945,0.165,0.0,0.0,-0.717217284748,0.696849601033,0,49.6037788391,56.3472099304,88.3392028809,3.99733042717
1646486544108492127,153,1646486544108492127,r1000913c5/base_front_laser_link,0,1646486544108492127,v/m1vw10zy74w/map,-10.1519437018,-1.82988494893,0.165,0.0,0.0,-0.717980057471,0.696063673147,0,50.0215911865,56.3061332703,88.3562927246,4.01672029495
1646486544265569209,154,1646486544265569209,r1000913c5/base_front_laser_link,0,1646486544265569209,v/m1vw10zy74w/map,-10.1519316436,-1.8014800532,0.165,0.0,0.0,-0.718142769639,0.695895798533,0,50.0654335022,56.2658691406,88.3706207275,4.03491544724
1646486544344447736,155,1646486544344447736,r1000913c5/base_front_laser_link,0,1646486544344447736,v/m1vw10zy74w/map,-10.1512393893,-1.77928811649,0.165,0.0,0.0,-0.718149325219,0.695889033315,0,50.282913208,56.227519989,88.3784332275,4.05030441284
1646486544423639104,156,1646486544423639104,r1000913c5/base_front_laser_link,0,1646486544423639104,v/m1vw10zy74w/map,-10.1505352913,-1.75681955168,0.165,0.0,0.0,-0.718153348737,0.695884881067,0,50.9640579224,56.1939926147,88.3712844849,4.0590968132
1646486544580459541,157,1646486544580459541,r1000913c5/base_front_laser_link,0,1646486544580459541,v/m1vw10zy74w/map,-10.1558427294,-1.70851325007,0.165,0.0,0.0,-0.718508663324,0.695518008917,0,49.5162506104,56.1517295837,88.3943557739,4.0808763504
1646486544737560400,158,1646486544737560400,r1000913c5/base_front_laser_link,0,1646486544737560400,v/m1vw10zy74w/map,-10.154376718,-1.66385127549,0.165,0.0,0.0,-0.718494099212,0.695533054137,0,50.8331718445,56.1182785034,88.3875274658,4.08974981308
1646486544816565742,159,1646486544816565742,r1000913c5/base_front_laser_link,0,1646486544816565742,v/m1vw10zy74w/map,-10.1536300722,-1.64118702779,0.165,0.0,0.0,-0.718483053464,0.695544464348,0,54.6492919922,56.1090965271,88.3446655273,4.07852268219
1646486544895696641,160,1646486544895696641,r1000913c5/base_front_laser_link,0,1646486544895696641,v/m1vw10zy74w/map,-10.1538926161,-1.61820568397,0.165,0.0,0.0,-0.718983451966,0.695027190691,0,54.8123397827,56.1010437012,88.3021697998,4.06704139709
1646486545132509910,161,1646486545132509910,r1000913c5/base_front_laser_link,0,1646486545132509910,v/m1vw10zy74w/map,-10.1501731534,-1.55309141648,0.165,0.0,0.0,-0.718168053724,0.695869705197,0,56.5584907532,56.1038665771,88.2675170898,4.05455064774
1646486545367673212,162,1646486545367673212,r1000913c5/base_front_laser_link,0,1646486545367673212,v/m1vw10zy74w/map,-10.1444414723,-1.4952176576,0.165,0.0,0.0,-0.717364461427,0.696698090625,0,59.5687561035,56.125125885,88.2784805298,4.05111789703
1646486545525577346,163,1646486545525577346,r1000913c5/base_front_laser_link,0,1646486545525577346,v/m1vw10zy74w/map,-10.1432020071,-1.4524780577,0.165,0.0,0.0,-0.717337124128,0.696726237734,0,59.6133384705,56.1463928223,88.289932251,4.04784679413
1646486545682540335,164,1646486545682540335,r1000913c5/base_front_laser_link,0,1646486545682540335,v/m1vw10zy74w/map,-10.1419633643,-1.40822069719,0.165,0.0,0.0,-0.717395588845,0.696666038433,0,57.6250991821,56.1553573608,88.2667388916,4.03712844849
1646486545839588321,165,1646486545839588321,r1000913c5/base_front_laser_link,0,1646486545839588321,v/m1vw10zy74w/map,-10.1277285084,-1.36590981659,0.165,0.0,0.0,-0.719907281864,0.694070245378,0,59.3987579346,56.1748924255,88.2731170654,4.03274106979
1646486546076565091,166,1646486546076565091,r1000913c5/base_front_laser_link,0,1646486546076565091,v/m1vw10zy74w/map,-10.1252265801,-1.29855413557,0.165,0.0,0.0,-0.719861876406,0.69411733799,0,62.9865112305,56.2156829834,88.3806228638,4.05498027802
1646486546154597606,167,1646486546154597606,r1000913c5/base_front_laser_link,0,1646486546154597606,v/m1vw10zy74w/map,-10.1345576169,-1.27934766761,0.165,0.0,0.0,-0.719099349369,0.694907278518,0,60.2089347839,56.2394523621,88.4030838013,4.05454301834
1646486546390791084,168,1646486546390791084,r1000913c5/base_front_laser_link,0,1646486546390791084,v/m1vw10zy74w/map,-10.1319250643,-1.2138431313,0.165,0.0,0.0,-0.719098628993,0.694908023972,0,64.4206237793,56.2878608704,88.5613098145,4.09115028381
1646486546548616206,169,1646486546548616206,r1000913c5/base_front_laser_link,0,1646486546548616206,v/m1vw10zy74w/map,-10.1314914866,-1.16250687429,0.165,0.0,0.0,-0.718183595472,0.695853665073,0,63.5306854248,56.3304672241,88.6805038452,4.11667966843
1646486546706661147,170,1646486546706661147,r1000913c5/base_front_laser_link,0,1646486546706661147,v/m1vw10zy74w/map,-10.1311038994,-1.11940179161,0.165,0.0,0.0,-0.718152830254,0.695885416141,0,61.5979957581,56.3612709045,88.734085083,4.12427282333
1646486546941860374,171,1646486546941860374,r1000913c5/base_front_laser_link,0,1646486546941860374,v/m1vw10zy74w/map,-10.1219011283,-1.05616622702,0.165,0.0,0.0,-0.718431672502,0.695597535897,0,56.1343383789,56.3599510193,88.696647644,4.11223220825
1646486547179674042,172,1646486547179674042,r1000913c5/base_front_laser_link,0,1646486547179674042,v/m1vw10zy74w/map,-10.1159045132,-0.987677972464,0.165,0.0,0.0,-0.718377646162,0.695653331405,0,55.0492134094,56.3523750305,88.656791687,4.1014714241
1646486547335751879,173,1646486547335751879,r1000913c5/base_front_laser_link,0,1646486547335751879,v/m1vw10zy74w/map,-10.1326636156,-0.94905067339,0.165,0.0,0.0,-0.71636691676,0.697723756634,0,56.1596450806,56.3512649536,88.6201477051,4.08962631226
1646486547493767514,174,1646486547493767514,r1000913c5/base_front_laser_link,0,1646486547493767514,v/m1vw10zy74w/map,-10.1332902681,-0.905300483519,0.165,0.0,0.0,-0.716185217463,0.697910262346,0,57.6500740051,56.3586883545,88.5958099365,4.07903957367
1646486547650815254,175,1646486547650815254,r1000913c5/base_front_laser_link,0,1646486547650815254,v/m1vw10zy74w/map,-10.132136244,-0.860330857339,0.165,0.0,0.0,-0.71619469448,0.697900537038,0,58.4475631714,56.3705558777,88.5818023682,4.07041501999
1646486547808809714,176,1646486547808809714,r1000913c5/base_front_laser_link,0,1646486547808809714,v/m1vw10zy74w/map,-10.1318697618,-0.806858811471,0.165,0.0,0.0,-0.715676361012,0.698432062758,0,58.0262832642,56.3799095154,88.5621414185,4.06074237823
1646486550641915287,177,1646486550641915287,r1000913c5/base_front_laser_link,0,1646486550641915287,v/m1vw10zy74w/map,-10.1166649324,-0.726387386779,0.165,0.0,0.0,-0.710224393506,0.703975362402,0,55.4769897461,56.3748397827,88.5242996216,4.04982042313
1646486551193684141,178,1646486551193684141,r1000913c5/base_front_laser_link,0,1646486551193684141,v/m1vw10zy74w/map,-10.0860354503,-0.794754680129,0.165,0.0,0.0,-0.679226575605,0.733928647072,0,64.1628570557,56.418346405,88.6588439941,4.0801653862
1646486551271900613,179,1646486551271900613,r1000913c5/base_front_laser_link,0,1646486551271900613,v/m1vw10zy74w/map,-10.078249062,-0.807305774439,0.165,0.0,0.0,-0.671835750683,0.740700158029,0,59.0706138611,56.4330825806,88.6537399292,4.07355213165
1646486551508924505,180,1646486551508924505,r1000913c5/base_front_laser_link,0,1646486551508924505,v/m1vw10zy74w/map,-10.047031256,-0.847795111386,0.165,0.0,0.0,-0.642895073831,0.765954257149,0,60.2798347473,56.454334259,88.6711502075,4.07227134705
1646486551664888545,181,1646486551664888545,r1000913c5/base_front_laser_link,0,1646486551664888545,v/m1vw10zy74w/map,-10.0064532218,-0.874124695227,0.165,0.0,0.0,-0.619774048005,0.784780306468,0,57.967716217,56.4626502991,88.6503143311,4.06255531311
1646486551823884613,182,1646486551823884613,r1000913c5/base_front_laser_link,0,1646486551823884613,v/m1vw10zy74w/map,-9.97147398585,-0.901560917952,0.165,0.0,0.0,-0.589876495822,0.80749347965,0,57.0436401367,56.4658241272,88.6206436157,4.05160665512
1646486551902045706,183,1646486551902045706,r1000913c5/base_front_laser_link,0,1646486551902045706,v/m1vw10zy74w/map,-9.95241018267,-0.914891607207,0.165,0.0,0.0,-0.573031672916,0.819533221922,0,56.5983123779,56.466545105,88.588142395,4.04053354263
1646486551980876158,184,1646486551980876158,r1000913c5/base_front_laser_link,0,1646486551980876158,v/m1vw10zy74w/map,-9.93072919937,-0.928111615717,0.165,0.0,0.0,-0.553896802224,0.832585330453,0,52.9796180725,56.4476966858,88.5607528687,4.03768587112
1646486552138180048,185,1646486552138180048,r1000913c5/base_front_laser_link,0,1646486552138180048,v/m1vw10zy74w/map,-9.87737311299,-0.952535989865,0.165,0.0,0.0,-0.51157761997,0.859237067837,0,53.4563217163,56.4316139221,88.5297927856,4.03272771835
1646486552296590011,186,1646486552296590011,r1000913c5/base_front_laser_link,0,1646486552296590011,v/m1vw10zy74w/map,-9.82096627908,-0.968103293756,0.165,0.0,0.0,-0.458905116755,0.888485280585,0,58.3622436523,56.4419364929,88.5149841309,4.02434968948
1646486552453076731,187,1646486552453076731,r1000913c5/base_front_laser_link,0,1646486552453076731,v/m1vw10zy74w/map,-9.76545146536,-0.9691649262,0.165,0.0,0.0,-0.401985528606,0.915646020464,0,60.5118026733,56.4635848999,88.5371932983,4.02453565598
1646486552532056863,188,1646486552532056863,r1000913c5/base_front_laser_link,0,1646486552532056863,v/m1vw10zy74w/map,-9.76902972279,-0.992833417894,0.165,0.0,0.0,-0.376656843561,0.926352860523,0,64.2564849854,56.5048179626,88.6657562256,4.05364704132
1646486552847706059,189,1646486552847706059,r1000913c5/base_front_laser_link,0,1646486552847706059,v/m1vw10zy74w/map,-9.72939965078,-0.962943082575,0.165,0.0,0.0,-0.307373438722,0.951588970705,0,61.0575637817,56.5287818909,88.6979141235,4.05637788773
1646486553083129018,190,1646486553083129018,r1000913c5/base_front_laser_link,0,1646486553083129018,v/m1vw10zy74w/map,-9.69921467365,-0.896305719943,0.165,0.0,0.0,-0.270053636537,0.962845280091,0,58.0568962097,56.536781311,88.6783828735,4.04720020294
1646486553871177565,191,1646486553871177565,r1000913c5/base_front_laser_link,0,1646486553871177565,v/m1vw10zy74w/map,-9.65758740274,-0.851590407992,0.165,0.0,0.0,-0.188411778086,0.982090119021,0,59.0811309814,56.5500335693,88.6723327637,4.04076576233
1646486554027985497,192,1646486554027985497,r1000913c5/base_front_laser_link,0,1646486554027985497,v/m1vw10zy74w/map,-9.66469899489,-0.843396002636,0.165,0.0,0.0,-0.183858862518,0.982952653322,0,62.3961868286,56.5803222656,88.7367401123,4.05213928223
1646486554185161334,193,1646486554185161334,r1000913c5/base_front_laser_link,0,1646486554185161334,v/m1vw10zy74w/map,-9.6471897526,-0.84004815536,0.165,0.0,0.0,-0.170254333567,0.985400153187,0,58.9612998962,56.5925979614,88.7283172607,4.0452413559
1646486554422150820,194,1646486554422150820,r1000913c5/base_front_laser_link,0,1646486554422150820,v/m1vw10zy74w/map,-9.61477109109,-0.834398285204,0.165,0.0,0.0,-0.147294050798,0.989092747218,0,60.9130821228,56.6147537231,88.7546920776,4.04664707184
1646486554579040738,195,1646486554579040738,r1000913c5/base_front_laser_link,0,1646486554579040738,v/m1vw10zy74w/map,-9.59056582602,-0.829716298722,0.165,0.0,0.0,-0.130721470482,0.991419132938,0,58.4618263245,56.6241760254,88.7394180298,4.03841352463
1646486554736280897,196,1646486554736280897,r1000913c5/base_front_laser_link,0,1646486554736280897,v/m1vw10zy74w/map,-9.5631756019,-0.824368048261,0.165,0.0,0.0,-0.113113369481,0.993582088025,0,54.8017425537,56.6149253845,88.7054977417,4.03019046783
1646486554894362553,197,1646486554894362553,r1000913c5/base_front_laser_link,0,1646486554894362553,v/m1vw10zy74w/map,-9.51172191892,-0.815343242278,0.165,0.0,0.0,-0.0875240572018,0.996162406142,0,53.9271240234,56.6013526917,88.6748046875,4.02448415756
1646486555131044963,198,1646486555131044963,r1000913c5/base_front_laser_link,0,1646486555131044963,v/m1vw10zy74w/map,-9.46325371605,-0.801004613513,0.165,0.0,0.0,-0.0559327893263,0.998434536201,0,51.6235618591,56.576335907,88.6657028198,4.0297870636
1646486555525238660,199,1646486555525238660,r1000913c5/base_front_laser_link,0,1646486555525238660,v/m1vw10zy74w/map,-9.3730981764,-0.790946105411,0.165,0.0,0.0,-0.0172511082004,0.999851188561,0,56.8000411987,56.577457428,88.6364974976,4.01968050003
1646486555682138470,200,1646486555682138470,r1000913c5/base_front_laser_link,0,1646486555682138470,v/m1vw10zy74w/map,-9.33144285576,-0.783617737993,0.165,0.0,0.0,-0.00487497173221,0.999988117255,0,58.0321083069,56.5846939087,88.6174850464,4.01093149185
1646486555838097000,201,1646486555838097000,r1000913c5/base_front_laser_link,0,1646486555838097000,v/m1vw10zy74w/map,-9.2843025841,-0.781269057231,0.165,0.0,0.0,0.00536286789685,0.999985619721,0,58.8155441284,56.5957374573,88.6077957153,4.00401926041
1646486556075283129,202,1646486556075283129,r1000913c5/base_front_laser_link,0,1646486556075283129,v/m1vw10zy74w/map,-9.21137843097,-0.772677562546,0.165,0.0,0.0,0.015789155733,0.999875343511,0,51.771572113,56.5719718933,88.5972366333,4.00842189789
1646486556311556469,203,1646486556311556469,r1000913c5/base_front_laser_link,0,1646486556311556469,v/m1vw10zy74w/map,-9.16013480102,-0.743601041766,0.165,0.0,0.0,0.0162459415611,0.999868025983,0,54.7787742615,56.5631828308,88.564704895,4.00050735474
1646486556389250346,204,1646486556389250346,r1000913c5/base_front_laser_link,0,1646486556389250346,v/m1vw10zy74w/map,-9.13284987964,-0.742439184844,0.165,0.0,0.0,0.0166254801411,0.999861787154,0,58.4911422729,56.5725860596,88.5514678955,3.99296116829
1646486556546307132,205,1646486556546307132,r1000913c5/base_front_laser_link,0,1646486556546307132,v/m1vw10zy74w/map,-9.076108096,-0.740872729226,0.165,0.0,0.0,0.0161202462787,0.999870060388,0,57.1777954102,56.5755233765,88.5258255005,3.98343348503
1646486556625240114,206,1646486556625240114,r1000913c5/base_front_laser_link,0,1646486556625240114,v/m1vw10zy74w/map,-9.04390183323,-0.73569010301,0.165,0.0,0.0,0.0181571160727,0.99983514598,0,57.9022407532,56.5819358826,88.506401062,3.97482299805
1646486556783245439,207,1646486556783245439,r1000913c5/base_front_laser_link,0,1646486556783245439,v/m1vw10zy74w/map,-8.98087075604,-0.734523796175,0.165,0.0,0.0,0.0163925900688,0.999865632468,0,56.8719825745,56.5833282471,88.4791107178,3.96526145935
1646486557176357564,208,1646486557176357564,r1000913c5/base_front_laser_link,0,1646486557176357564,v/m1vw10zy74w/map,-8.81535194916,-0.728177017928,0.165,0.0,0.0,0.0122871152471,0.99992451055,0,60.2349128723,56.6007995605,88.4921188354,3.96377396584
1646486557334357203,209,1646486557334357203,r1000913c5/base_front_laser_link,0,1646486557334357203,v/m1vw10zy74w/map,-8.72971195904,-0.721896991712,0.165,0.0,0.0,0.00973396522804,0.999952623838,0,59.0354042053,56.6123924255,88.4859390259,3.9578473568
1646486557570299869,210,1646486557570299869,r1000913c5/base_front_laser_link,0,1646486557570299869,v/m1vw10zy74w/map,-8.62288800691,-0.745566637415,0.165,0.0,0.0,0.0099925572758,0.999950073153,0,54.4644622803,56.6022148132,88.4557571411,3.95118045807
1646486557807332170,211,1646486557807332170,r1000913c5/base_front_laser_link,0,1646486557807332170,v/m1vw10zy74w/map,-8.50383149895,-0.742848585574,0.165,0.0,0.0,0.00959403074238,0.999953976228,0,50.9934883118,56.575756073,88.4575119019,3.96058368683
1646486558042349638,212,1646486558042349638,r1000913c5/base_front_laser_link,0,1646486558042349638,v/m1vw10zy74w/map,-8.37648286713,-0.74012837922,0.165,0.0,0.0,0.00847450911946,0.999964090703,0,52.9292869568,56.5586395264,88.4360046387,3.95912337303
1646486558278356111,213,1646486558278356111,r1000913c5/base_front_laser_link,0,1646486558278356111,v/m1vw10zy74w/map,-8.25092170942,-0.730777698822,0.165,0.0,0.0,0.00319850905807,0.999994884757,0,51.6277313232,56.5355949402,88.4281234741,3.96417498589
1646486558514379231,214,1646486558514379231,r1000913c5/base_front_laser_link,0,1646486558514379231,v/m1vw10zy74w/map,-8.12186177496,-0.702228882857,0.165,0.0,0.0,-0.00837363281391,0.999964940522,0,52.5519790649,56.5170669556,88.4097366333,3.9642226696
1646486558671301930,215,1646486558671301930,r1000913c5/base_front_laser_link,0,1646486558671301930,v/m1vw10zy74w/map,-8.02375510642,-0.706298974138,0.165,0.0,0.0,-0.0139337360228,0.999902920788,0,52.0048522949,56.4961776733,88.3968505859,3.96689128876
1646486558829432871,216,1646486558829432871,r1000913c5/base_front_laser_link,0,1646486558829432871,v/m1vw10zy74w/map,-7.92917635798,-0.711764119625,0.165,0.0,0.0,-0.0200702569909,0.999798572106,0,56.1194763184,56.4944419861,88.3677825928,3.95778083801
1646486558986682298,217,1646486558986682298,r1000913c5/base_front_laser_link,0,1646486558986682298,v/m1vw10zy74w/map,-7.82674567457,-0.718461584512,0.165,0.0,0.0,-0.0237155920545,0.999718745795,0,56.4027938843,56.4940223694,88.3399887085,3.94865584373
1646486559222499848,218,1646486559222499848,r1000913c5/base_front_laser_link,0,1646486559222499848,v/m1vw10zy74w/map,-7.67712026697,-0.722814791932,0.165,0.0,0.0,-0.0230290498952,0.999734796264,0,54.0681266785,56.4829444885,88.3119354248,3.94299793243
1646486559380451610,219,1646486559380451610,r1000913c5/base_front_laser_link,0,1646486559380451610,v/m1vw10zy74w/map,-7.56424487418,-0.742248326185,0.165,0.0,0.0,-0.0170316154671,0.999854951518,0,53.6549911499,56.4700889587,88.2858963013,3.93860268593
1646486559537549485,220,1646486559537549485,r1000913c5/base_front_laser_link,0,1646486559537549485,v/m1vw10zy74w/map,-7.43692425716,-0.73559570397,0.165,0.0,0.0,-0.0139995415124,0.999902001617,0,53.9869384766,56.4588546753,88.2584228516,3.93318963051
1646486559773452648,221,1646486559773452648,r1000913c5/base_front_laser_link,0,1646486559773452648,v/m1vw10zy74w/map,-7.28958842946,-0.72986599346,0.165,0.0,0.0,-0.0132938930802,0.999911632299,0,53.6529579163,56.4462165833,88.2326049805,3.92879676819
1646486559932411509,222,1646486559932411509,r1000913c5/base_front_laser_link,0,1646486559932411509,v/m1vw10zy74w/map,-7.15500137458,-0.760606892851,0.165,0.0,0.0,-0.01032567298,0.999946688818,0,56.2276916504,56.4452362061,88.2051315308,3.9199655056
1646486560088513718,223,1646486560088513718,r1000913c5/base_front_laser_link,0,1646486560088513718,v/m1vw10zy74w/map,-7.04086070808,-0.774221768475,0.165,0.0,0.0,-0.00575438271823,0.999983443403,0,54.0905036926,56.4347229004,88.1777114868,3.91432976723
1646486560247133022,224,1646486560247133022,r1000913c5/base_front_laser_link,0,1646486560247133022,v/m1vw10zy74w/map,-6.92062526364,-0.766351104505,0.165,0.0,0.0,0.00417728162216,0.999991275121,0,50.8561058044,56.4099273682,88.1796798706,3.92324995995
1646486560482633957,225,1646486560482633957,r1000913c5/base_front_laser_link,0,1646486560482633957,v/m1vw10zy74w/map,-6.73488513218,-0.760840941761,0.165,0.0,0.0,0.0134867767792,0.99990904929,0,50.5283966064,56.3839035034,88.1859741211,3.93402409554
1646486560639763056,226,1646486560639763056,r1000913c5/base_front_laser_link,0,1646486560639763056,v/m1vw10zy74w/map,-6.60591231965,-0.75577218629,0.165,0.0,0.0,0.0151640707447,0.999885018869,0,46.1387901306,56.3387718201,88.2900924683,3.98377394676
1646486560875386976,227,1646486560875386976,r1000913c5/base_front_laser_link,0,1646486560875386976,v/m1vw10zy74w/map,-6.41738416181,-0.729607182076,0.165,0.0,0.0,0.0123882274823,0.999923262966,0,47.0916061401,56.2982139587,88.3638763428,4.02188825607
1646486561111542795,228,1646486561111542795,r1000913c5/base_front_laser_link,0,1646486561111542795,v/m1vw10zy74w/map,-6.21253948775,-0.72648554036,0.165,0.0,0.0,0.00866799476614,0.999962432228,0,49.2355766296,56.2673721313,88.3876953125,4.04010629654
1646486561268655446,229,1646486561268655446,r1000913c5/base_front_laser_link,0,1646486561268655446,v/m1vw10zy74w/map,-6.10257266877,-0.706422731574,0.165,0.0,0.0,0.0020738397526,0.999997849592,0,55.461856842,56.2638702393,88.3587493896,4.03162527084
1646486561426836155,230,1646486561426836155,r1000913c5/base_front_laser_link,0,1646486561426836155,v/m1vw10zy74w/map,-5.95750050046,-0.709903804457,0.165,0.0,0.0,-0.00328883969352,0.999994591752,0,52.6800727844,56.2483558655,88.3376235962,4.02975606918
1646486561583615452,231,1646486561583615452,r1000913c5/base_front_laser_link,0,1646486561583615452,v/m1vw10zy74w/map,-5.81189504496,-0.716733097425,0.165,0.0,0.0,-0.00853722411425,0.999963557238,0,54.7670021057,56.2419700623,88.3085708618,4.02220010757
1646486561740676601,232,1646486561740676601,r1000913c5/base_front_laser_link,0,1646486561740676601,v/m1vw10zy74w/map,-5.65059543461,-0.722352759463,0.165,0.0,0.0,-0.0112368173479,0.999936864975,0,52.3635787964,56.2253265381,88.2899932861,4.02155685425
1646486561977775345,233,1646486561977775345,r1000913c5/base_front_laser_link,0,1646486561977775345,v/m1vw10zy74w/map,-5.42697951852,-0.725353117298,0.165,0.0,0.0,-0.0128442963578,0.999917508623,0,51.9917297363,56.207233429,88.2745819092,4.02244997025
1646486562135682360,234,1646486562135682360,r1000913c5/base_front_laser_link,0,1646486562135682360,v/m1vw10zy74w/map,-5.26398898109,-0.731366709234,0.165,0.0,0.0,-0.0129197531123,0.999916536507,0,51.1284179688,56.1856231689,88.2681045532,4.02749538422
1646486562292648416,235,1646486562292648416,r1000913c5/base_front_laser_link,0,1646486562292648416,v/m1vw10zy74w/map,-5.10334249895,-0.736415523406,0.165,0.0,0.0,-0.0117395327316,0.999931089311,0,54.5361442566,56.1786308289,88.2396850586,4.02035140991
1646486562449700383,236,1646486562449700383,r1000913c5/base_front_laser_link,0,1646486562449700383,v/m1vw10zy74w/map,-4.94672577652,-0.737367466308,0.165,0.0,0.0,-0.00862415432408,0.99996281129,0,48.6559028625,56.1468925476,88.2713165283,4.04147481918
1646486562607599378,237,1646486562607599378,r1000913c5/base_front_laser_link,0,1646486562607599378,v/m1vw10zy74w/map,-4.78370267261,-0.731907137547,0.165,0.0,0.0,-0.00383351063406,0.999992652071,0,49.6199798584,56.1194648743,88.2846755981,4.05507040024
