%time,field.header.seq,field.header.stamp,field.header.frame_id,field.pose.header.seq,field.pose.header.stamp,field.pose.header.frame_id,field.pose.pose.position.x,field.pose.pose.position.y,field.pose.pose.position.z,field.pose.pose.orientation.x,field.pose.pose.orientation.y,field.pose.pose.orientation.z,field.pose.pose.orientation.w,field.label,field.current_error,field.mean,field.threshold,field.std_dev
1646328681635344939,0,1646328681635344939,r1000913c5/base_front_laser_link,0,1646328681635344939,v/m1vw10zy74w/map,-2.84853499739,-2.28207855535,0.165,0.0,0.0,-0.703376141081,0.710817841756,0,66.3144454956,66.3144454956,nan,nan
1646328681793350400,1,1646328681793350400,r1000913c5/base_front_laser_link,0,1646328681793350400,v/m1vw10zy74w/map,-2.85281924714,-2.28238555877,0.165,0.0,0.0,-0.707912905282,0.706299737034,0,68.6313323975,67.4728927612,92.3877639771,1.63829112053
1646328681871937879,2,1646328681871937879,r1000913c5/base_front_laser_link,0,1646328681871937879,v/m1vw10zy74w/map,-2.85795040305,-2.28299634571,0.165,0.0,0.0,-0.713304200737,0.700854562096,0,68.9547271729,67.966835022,92.2872009277,1.44012117386
1646328681950397485,3,1646328681950397485,r1000913c5/base_front_laser_link,0,1646328681950397485,v/m1vw10zy74w/map,-2.86463258871,-2.28267470258,0.165,0.0,0.0,-0.720263066823,0.693701026791,0,69.0493011475,68.237449646,92.120765686,1.2944368124
1646328682028236714,4,1646328682028236714,r1000913c5/base_front_laser_link,0,1646328682028236714,v/m1vw10zy74w/map,-2.87290177557,-2.28187522816,0.165,0.0,0.0,-0.728794282309,0.684732717251,0,71.1000289917,68.809967041,93.914855957,1.70162987709
1646328682186366071,5,1646328682186366071,r1000913c5/base_front_laser_link,0,1646328682186366071,v/m1vw10zy74w/map,-2.89298478852,-2.27953774871,0.165,0.0,0.0,-0.749123261655,0.66243062946,0,70.3978118896,69.0746078491,94.0374526978,1.65428030491
1646328682343311639,6,1646328682343311639,r1000913c5/base_front_laser_link,0,1646328682343311639,v/m1vw10zy74w/map,-2.91659075545,-2.27577278922,0.165,0.0,0.0,-0.772301435642,0.63525624161,0,72.008934021,69.4937973022,95.1147537231,1.87365198135
1646328682422316385,7,1646328682422316385,r1000913c5/base_front_laser_link,0,1646328682422316385,v/m1vw10zy74w/map,-2.92888528931,-2.27310488717,0.165,0.0,0.0,-0.78410161269,0.620632468517,0,69.8317947388,69.5360488892,94.7523727417,1.73877584934
1646328682579375980,8,1646328682579375980,r1000913c5/base_front_laser_link,0,1646328682579375980,v/m1vw10zy74w/map,-2.95239732282,-2.26700890603,0.165,0.0,0.0,-0.806107225879,0.591769499371,0,68.828704834,69.4574508667,94.3878860474,1.64347696304
1646328682736144379,9,1646328682736144379,r1000913c5/base_front_laser_link,0,1646328682736144379,v/m1vw10zy74w/map,-2.97789436055,-2.26103894622,0.165,0.0,0.0,-0.826750691074,0.562568480106,0,68.0287017822,69.3145751953,94.1566162109,1.61401236057
1646328682815363976,10,1646328682815363976,r1000913c5/base_front_laser_link,0,1646328682815363976,v/m1vw10zy74w/map,-2.98896571616,-2.25631339234,0.165,0.0,0.0,-0.836723511701,0.547625570045,0,68.2713928223,69.2197418213,93.9092178345,1.56315803528
1646328682894318854,11,1646328682894318854,r1000913c5/base_front_laser_link,0,1646328682894318854,v/m1vw10zy74w/map,-2.99784482426,-2.25547459884,0.165,0.0,0.0,-0.845725151104,0.533618748537,0,68.8773651123,69.1912155151,93.6722717285,1.49368619919
1646328682972324438,12,1646328682972324438,r1000913c5/base_front_laser_link,0,1646328682972324438,v/m1vw10zy74w/map,-3.0080394602,-2.25086490423,0.165,0.0,0.0,-0.854777796007,0.518994142022,0,73.3978118896,69.514793396,95.0516967773,1.84563446045
1646328683130336435,13,1646328683130336435,r1000913c5/base_front_laser_link,0,1646328683130336435,v/m1vw10zy74w/map,-3.02753805015,-2.23628620683,0.165,0.0,0.0,-0.871466099944,0.490455743822,0,70.8170013428,69.6078109741,95.0289916992,1.80705904961
1646328683287431686,14,1646328683287431686,r1000913c5/base_front_laser_link,0,1646328683287431686,v/m1vw10zy74w/map,-3.04776004122,-2.22600957161,0.165,0.0,0.0,-0.887503646534,0.46080069161,0,65.785987854,69.3530197144,95.3574981689,2.00149202347
1646328683366407269,15,1646328683366407269,r1000913c5/base_front_laser_link,0,1646328683366407269,v/m1vw10zy74w/map,-3.05743826652,-2.21904517343,0.165,0.0,0.0,-0.895570124275,0.444920388953,0,66.2928619385,69.1617660522,95.4001693726,2.07946920395
1646328683444389084,16,1646328683444389084,r1000913c5/base_front_laser_link,0,1646328683444389084,v/m1vw10zy74w/map,-3.06683707274,-2.2166530106,0.165,0.0,0.0,-0.902982884042,0.42967651917,0,63.9984741211,68.858039856,95.9713592529,2.37110519409
1646328683523368831,17,1646328683523368831,r1000913c5/base_front_laser_link,0,1646328683523368831,v/m1vw10zy74w/map,-3.07663349927,-2.20668066023,0.165,0.0,0.0,-0.910708128666,0.413050486481,0,66.4308700562,68.723197937,95.8343429565,2.37038207054
1646328683601241107,18,1646328683601241107,r1000913c5/base_front_laser_link,0,1646328683601241107,v/m1vw10zy74w/map,-3.08531869094,-2.19859925294,0.165,0.0,0.0,-0.917879708766,0.396858715712,0,65.7298126221,68.5656509399,95.7769927979,2.40378022194
1646328683680657938,19,1646328683680657938,r1000913c5/base_front_laser_link,0,1646328683680657938,v/m1vw10zy74w/map,-3.09303059886,-2.1911002523,0.165,0.0,0.0,-0.924644954958,0.380830286704,0,64.3237686157,68.353553772,95.9274291992,2.52462339401
1646328683837390553,20,1646328683837390553,r1000913c5/base_front_laser_link,0,1646328683837390553,v/m1vw10zy74w/map,-3.10824564121,-2.1748878954,0.165,0.0,0.0,-0.93670008334,0.350132766062,0,61.081615448,68.007270813,96.7912750244,2.92800045013
1646328683996322884,21,1646328683996322884,r1000913c5/base_front_laser_link,0,1646328683996322884,v/m1vw10zy74w/map,-3.12619652475,-2.16044380607,0.165,0.0,0.0,-0.94757982058,0.319519144388,1,61.7570610046,67.7231750488,97.1818008423,3.15287637711
1646328684073270206,22,1646328684073270206,r1000913c5/base_front_laser_link,0,1646328684073270206,v/m1vw10zy74w/map,-3.13337414896,-2.15103954688,0.165,0.0,0.0,-0.952870532171,0.303377238633,1,60.0932731628,67.3914413452,97.792350769,3.46697044373
1646328684152314192,23,1646328684152314192,r1000913c5/base_front_laser_link,0,1646328684152314192,v/m1vw10zy74w/map,-3.14008117793,-2.14116229831,0.165,0.0,0.0,-0.958128348731,0.286339077594,1,60.1337242126,67.0890350342,98.1898651123,3.70027661324
1646328684231275147,24,1646328684231275147,r1000913c5/base_front_laser_link,0,1646328684231275147,v/m1vw10zy74w/map,-3.14681292614,-2.12877647119,0.165,0.0,0.0,-0.963399597742,0.268069422109,1,62.1700668335,66.8922729492,98.1530303955,3.7535841465
1646328684388448338,25,1646328684388448338,r1000913c5/base_front_laser_link,0,1646328684388448338,v/m1vw10zy74w/map,-3.15492656994,-2.10972037528,0.165,0.0,0.0,-0.971591574447,0.236663923031,1,61.2594337463,66.6756286621,98.1958465576,3.84007310867
1646328684545388646,26,1646328684545388646,r1000913c5/base_front_laser_link,0,1646328684545388646,v/m1vw10zy74w/map,-3.1665837628,-2.08729789123,0.165,0.0,0.0,-0.97896356121,0.204035158301,1,60.1402893066,66.4335784912,98.3435668945,3.96999716759
1646328684624390696,27,1646328684624390696,r1000913c5/base_front_laser_link,0,1646328684624390696,v/m1vw10zy74w/map,-3.17114557,-2.07630680392,0.165,0.0,0.0,-0.982435329824,0.186603383448,1,59.1831932068,66.1746368408,98.5637893677,4.12971830368
1646328684781417398,28,1646328684781417398,r1000913c5/base_front_laser_link,0,1646328684781417398,v/m1vw10zy74w/map,-3.17604280243,-2.06337301,0.165,0.0,0.0,-0.987260533824,0.159112030828,1,58.7132720947,65.917350769,98.7737426758,4.2854642868
1646328684939561388,29,1646328684939561388,r1000913c5/base_front_laser_link,0,1646328684939561388,v/m1vw10zy74w/map,-3.18320790286,-2.03953589217,0.165,0.0,0.0,-0.992332171971,0.123599597373,1,60.2673606873,65.7290115356,98.7353210449,4.33543539047
1646328685017787588,30,1646328685017787588,r1000913c5/base_front_laser_link,0,1646328685017787588,v/m1vw10zy74w/map,-3.18635370009,-2.02396674312,0.165,0.0,0.0,-0.994487600011,0.104854248482,1,61.2952346802,65.5859909058,98.5949249268,4.33631277084
1646328685175517662,31,1646328685175517662,r1000913c5/base_front_laser_link,0,1646328685175517662,v/m1vw10zy74w/map,-3.18735976335,-2.00515862439,0.165,0.0,0.0,-0.997179157988,0.0750581566114,1,62.7766914368,65.4981994629,98.3820266724,4.29460954666
1646328685333448205,32,1646328685333448205,r1000913c5/base_front_laser_link,0,1646328685333448205,v/m1vw10zy74w/map,-3.1893105971,-1.99132058352,0.165,0.0,0.0,-0.999034183033,0.0439397443304,1,68.7171936035,65.595741272,98.3876037598,4.26395368576
1646328685411416806,33,1646328685411416806,r1000913c5/base_front_laser_link,0,1646328685411416806,v/m1vw10zy74w/map,-3.19079662801,-1.97984080824,0.165,0.0,0.0,-0.999661907667,0.0260013530278,1,63.522518158,65.5347671509,98.176399231,4.21387863159
1646328685568679709,34,1646328685568679709,r1000913c5/base_front_laser_link,0,1646328685568679709,v/m1vw10zy74w/map,-3.18893768032,-1.9593945547,0.165,0.0,0.0,-0.999984356248,-0.00559350160284,1,67.6591949463,65.5954666138,98.0963134766,4.16694879532
1646328685725440539,35,1646328685725440539,r1000913c5/base_front_laser_link,0,1646328685725440539,v/m1vw10zy74w/map,-3.18777779412,-1.93587972614,0.165,0.0,0.0,-0.999169378613,-0.040749881505,1,67.4856719971,65.6479721069,98.0051345825,4.11905479431
1646328685882553143,36,1646328685882553143,r1000913c5/base_front_laser_link,0,1646328685882553143,v/m1vw10zy74w/map,-3.18184996917,-1.91496760956,0.165,0.0,0.0,-0.997387105392,-0.0722423836726,1,66.944770813,65.6830215454,97.8841247559,4.06703424454
1646328685961532662,37,1646328685961532662,r1000913c5/base_front_laser_link,0,1646328685961532662,v/m1vw10zy74w/map,-3.17992889478,-1.90307199919,0.165,0.0,0.0,-0.995925539655,-0.0901793738258,1,66.3602752686,65.700843811,97.740447998,4.0132021904
1646328686040414932,38,1646328686040414932,r1000913c5/base_front_laser_link,0,1646328686040414932,v/m1vw10zy74w/map,-3.17756242565,-1.89137251852,0.165,0.0,0.0,-0.994159899551,-0.107917070594,1,67.7289047241,65.7528457642,97.6728591919,3.97333812714
1646328686118349240,39,1646328686118349240,r1000913c5/base_front_laser_link,0,1646328686118349240,v/m1vw10zy74w/map,-3.17157864002,-1.88384106241,0.165,0.0,0.0,-0.992704249062,-0.120574764745,1,63.3901367188,65.6937789917,97.5132293701,3.93981862068
1646328686197378391,40,1646328686197378391,r1000913c5/base_front_laser_link,0,1646328686197378391,v/m1vw10zy74w/map,-3.16885730486,-1.872728913,0.165,0.0,0.0,-0.990391639823,-0.138290996704,1,65.6651000977,65.6930770874,97.363861084,3.89026165009
1646328686354464316,41,1646328686354464316,r1000913c5/base_front_laser_link,0,1646328686354464316,v/m1vw10zy74w/map,-3.16165960889,-1.85306578512,0.165,0.0,0.0,-0.985497171554,-0.169691852659,1,64.9937744141,65.6764297485,97.2085494995,3.8440413475
1646328686433426753,42,1646328686433426753,r1000913c5/base_front_laser_link,0,1646328686433426753,v/m1vw10zy74w/map,-3.15765002252,-1.84223313692,0.165,0.0,0.0,-0.982433235246,-0.186614410711,0,63.4767189026,65.6252670288,97.0636367798,3.8127887249
1646328686669372778,43,1646328686669372778,r1000913c5/base_front_laser_link,0,1646328686669372778,v/m1vw10zy74w/map,-3.14335853424,-1.81250765418,0.165,0.0,0.0,-0.971561761789,-0.236786281337,0,61.0120429993,65.5204238892,97.0159301758,3.83183479309
1646328686826304421,44,1646328686826304421,r1000913c5/base_front_laser_link,0,1646328686826304421,v/m1vw10zy74w/map,-3.13601669097,-1.79107846231,0.165,0.0,0.0,-0.962253712165,-0.272153988442,0,63.7349395752,65.4807434082,96.8728866577,3.79738044739
1646328686906296398,45,1646328686906296398,r1000913c5/base_front_laser_link,0,1646328686906296398,v/m1vw10zy74w/map,-3.13064140349,-1.78280317319,0.165,0.0,0.0,-0.957692199817,-0.287794458617,0,64.1301803589,65.451385498,96.7320632935,3.76022672653
1646328686984381092,46,1646328686984381092,r1000913c5/base_front_laser_link,0,1646328686984381092,v/m1vw10zy74w/map,-3.12403468432,-1.77307393661,0.165,0.0,0.0,-0.952489479086,-0.304571489523,0,63.7456474304,65.4150924683,96.5974273682,3.72744321823
1646328687141480922,47,1646328687141480922,r1000913c5/base_front_laser_link,0,1646328687141480922,v/m1vw10zy74w/map,-3.11056272047,-1.75266603176,0.165,0.0,0.0,-0.94070687324,-0.33922054572,0,62.5096168518,65.3545608521,96.4886016846,3.71134614944
1646328687692442236,48,1646328687692442236,r1000913c5/base_front_laser_link,0,1646328687692442236,v/m1vw10zy74w/map,-3.0826424757,-1.70785791273,0.165,0.0,0.0,-0.913572093644,-0.406676812365,0,58.6205863953,65.2171325684,96.606300354,3.79638886452
1646328687770577792,49,1646328687770577792,r1000913c5/base_front_laser_link,0,1646328687770577792,v/m1vw10zy74w/map,-3.08401836193,-1.70363101573,0.165,0.0,0.0,-0.912480457631,-0.409120293363,0,59.8230056763,65.1092529297,96.6115722656,3.83410573006
1646328687929359905,50,1646328687929359905,r1000913c5/base_front_laser_link,0,1646328687929359905,v/m1vw10zy74w/map,-3.08508794741,-1.6916336195,0.165,0.0,0.0,-0.907183453409,-0.420735287159,0,60.0856628418,65.0107498169,96.5913696289,3.86020636559
1646328688085505666,51,1646328688085505666,r1000913c5/base_front_laser_link,0,1646328688085505666,v/m1vw10zy74w/map,-3.0831554366,-1.67214765293,0.165,0.0,0.0,-0.898176717518,-0.439634602947,0,58.4727783203,64.885017395,96.6697235107,3.92823529243
1646328688164552788,52,1646328688164552788,r1000913c5/base_front_laser_link,0,1646328688164552788,v/m1vw10zy74w/map,-3.08174319375,-1.66078862821,0.165,0.0,0.0,-0.892849345274,-0.450355466985,0,58.6418647766,64.7672271729,96.7182617188,3.98367881775
1646328688321382457,53,1646328688321382457,r1000913c5/base_front_laser_link,0,1646328688321382457,v/m1vw10zy74w/map,-3.07802108583,-1.63633117522,0.165,0.0,0.0,-0.881022656199,-0.47307407376,0,58.37707901,64.6488876343,96.770690918,4.04060077667
1646328688478424419,54,1646328688478424419,r1000913c5/base_front_laser_link,0,1646328688478424419,v/m1vw10zy74w/map,-3.07238783533,-1.60853099953,0.165,0.0,0.0,-0.866825147294,-0.498612238136,0,59.9155273438,64.562828064,96.7235565186,4.05357503891
1646328688558388333,55,1646328688558388333,r1000913c5/base_front_laser_link,0,1646328688558388333,v/m1vw10zy74w/map,-3.06976687955,-1.58981430445,0.165,0.0,0.0,-0.857463684611,-0.514544487458,0,61.0820884705,64.5006713867,96.6308670044,4.04339790344
1646328688635748990,56,1646328688635748990,r1000913c5/base_front_laser_link,0,1646328688635748990,v/m1vw10zy74w/map,-3.06486053384,-1.57411159119,0.165,0.0,0.0,-0.84849682418,-0.529200471802,0,60.8971481323,64.4374542236,96.5438308716,4.03545951843
1646328688871396897,57,1646328688871396897,r1000913c5/base_front_laser_link,0,1646328688871396897,v/m1vw10zy74w/map,-3.04702018262,-1.52321468688,0.165,0.0,0.0,-0.818234250536,-0.574884954796,0,55.1416358948,64.2771835327,96.8231735229,4.18199682236
1646328688950627899,58,1646328688950627899,r1000913c5/base_front_laser_link,0,1646328688950627899,v/m1vw10zy74w/map,-3.03876136731,-1.50494109217,0.165,0.0,0.0,-0.806607817124,-0.591086989667,0,56.8678588867,64.1515960693,96.9211807251,4.25652837753
1646328689029763308,59,1646328689029763308,r1000913c5/base_front_laser_link,0,1646328689029763308,v/m1vw10zy74w/map,-3.03101351505,-1.48633422547,0.165,0.0,0.0,-0.795179126858,-0.606374600565,0,55.5158805847,64.0076675415,97.1028900146,4.36507463455
1646328689186569926,60,1646328689186569926,r1000913c5/base_front_laser_link,0,1646328689186569926,v/m1vw10zy74w/map,-3.01217108806,-1.4480588556,0.165,0.0,0.0,0.770078931652,0.637948617857,0,58.7711029053,63.9218254089,97.0623168945,4.3801651001
1646328689265541491,61,1646328689265541491,r1000913c5/base_front_laser_link,0,1646328689265541491,v/m1vw10zy74w/map,-3.00166607116,-1.42823008806,0.165,0.0,0.0,0.756651067288,0.653818906404,0,57.2216720581,63.8137588501,97.0937652588,4.42666816711
1646328689422875891,62,1646328689422875891,r1000913c5/base_front_laser_link,0,1646328689422875891,v/m1vw10zy74w/map,-2.97736854445,-1.38962453794,0.165,0.0,0.0,0.729076488986,0.684432226891,0,57.4453735352,63.7126731873,97.1032562256,4.46352863312
1646328689501425114,63,1646328689501425114,r1000913c5/base_front_laser_link,0,1646328689501425114,v/m1vw10zy74w/map,-2.96838751282,-1.36886947561,0.165,0.0,0.0,0.715073096255,0.699049688515,0,61.933719635,63.6848754883,96.9855041504,4.43354225159
1646328689580409645,64,1646328689580409645,r1000913c5/base_front_laser_link,0,1646328689580409645,v/m1vw10zy74w/map,-2.95509712256,-1.34838394682,0.165,0.0,0.0,0.700908471197,0.713251228533,0,60.9833374023,63.6433143616,96.8778533936,4.41151332855
1646328689816527492,65,1646328689816527492,r1000913c5/base_front_laser_link,0,1646328689816527492,v/m1vw10zy74w/map,-2.90782915662,-1.28598727364,0.165,0.0,0.0,0.658036088686,0.752986391635,0,50.0984573364,63.4380874634,97.4907073975,4.68420600891
1646328689973504727,66,1646328689973504727,r1000913c5/base_front_laser_link,0,1646328689973504727,v/m1vw10zy74w/map,-2.87064713813,-1.23721177406,0.165,0.0,0.0,0.635762263674,0.771884929305,0,49.8442878723,63.2351951599,98.0442047119,4.9363360405
1646328690130414346,67,1646328690130414346,r1000913c5/base_front_laser_link,0,1646328690130414346,v/m1vw10zy74w/map,-2.78518131275,-1.17620678579,0.165,0.0,0.0,0.607185545583,0.794560075284,0,48.8574867249,63.0237579346,98.6248245239,5.20035600662
1646328690366440220,68,1646328690366440220,r1000913c5/base_front_laser_link,0,1646328690366440220,v/m1vw10zy74w/map,-2.74392316184,-1.08608475501,0.165,0.0,0.0,0.594370014019,0.804191697566,0,46.0711174011,62.7780685425,99.4303894043,5.55077505112
1646328690445572179,69,1646328690445572179,r1000913c5/base_front_laser_link,0,1646328690445572179,v/m1vw10zy74w/map,-2.7362842003,-1.05842501924,0.165,0.0,0.0,0.595524458835,0.803337176365,0,49.1027984619,62.5827064514,99.8258361816,5.7477107048
1646328690524476463,70,1646328690524476463,r1000913c5/base_front_laser_link,0,1646328690524476463,v/m1vw10zy74w/map,-2.72995934062,-1.02938237818,0.165,0.0,0.0,0.59833534348,0.801245790468,0,49.2695770264,62.395198822,100.158790588,5.92119598389
1646328690602365897,71,1646328690602365897,r1000913c5/base_front_laser_link,0,1646328690602365897,v/m1vw10zy74w/map,-2.7247993267,-1.00020906449,0.165,0.0,0.0,0.602230579411,0.798322196374,0,52.0874710083,62.2520370483,100.262641907,6.00353527069
1646328690760599596,72,1646328690760599596,r1000913c5/base_front_laser_link,0,1646328690760599596,v/m1vw10zy74w/map,-2.71188612997,-0.926940742594,0.165,0.0,0.0,0.61198034021,0.790872975386,0,45.8694114685,62.0276145935,100.815002441,6.26246166229
1646328690917469526,73,1646328690917469526,r1000913c5/base_front_laser_link,0,1646328690917469526,v/m1vw10zy74w/map,-2.70969504156,-0.86000564563,0.165,0.0,0.0,0.628024043605,0.778193935118,0,49.0150146484,61.8517684937,101.053970337,6.40073442459
1646328691153590806,74,1646328691153590806,r1000913c5/base_front_laser_link,0,1646328691153590806,v/m1vw10zy74w/map,-2.71407249377,-0.760222835219,0.165,0.0,0.0,0.655798883552,0.75493564251,0,48.4161148071,61.6726264954,101.304336548,6.54390192032
1646328691232408998,75,1646328691232408998,r1000913c5/base_front_laser_link,0,1646328691232408998,v/m1vw10zy74w/map,-2.71970154768,-0.732352051805,0.165,0.0,0.0,0.665963077288,0.745984704728,0,50.0535697937,61.519744873,101.425834656,6.63536214828
1646328691468565875,76,1646328691468565875,r1000913c5/base_front_laser_link,0,1646328691468565875,v/m1vw10zy74w/map,-2.73942408817,-0.690594979067,0.165,0.0,0.0,0.693236034183,0.720710622172,0,46.8028945923,61.3286170959,101.733360291,6.80158185959
1646328691626678959,77,1646328691626678959,r1000913c5/base_front_laser_link,0,1646328691626678959,v/m1vw10zy74w/map,-2.75889381605,-0.689560866331,0.165,0.0,0.0,0.713228415049,0.700931685663,0,47.4986877441,61.151309967,101.960342407,6.93634319305
1646328691704534778,78,1646328691704534778,r1000913c5/base_front_laser_link,0,1646328691704534778,v/m1vw10zy74w/map,-2.77315763357,-0.607708729954,0.165,0.0,0.0,0.718658391071,0.695363298531,0,48.4896011353,60.9910354614,102.103317261,7.03742694855
1646328691862364541,79,1646328691862364541,r1000913c5/base_front_laser_link,0,1646328691862364541,v/m1vw10zy74w/map,-2.79805659283,-0.604448713189,0.165,0.0,0.0,0.742729831971,0.669591216117,0,47.2051277161,60.8187141418,102.300498962,7.16059494019
1646328692019536751,80,1646328692019536751,r1000913c5/base_front_laser_link,0,1646328692019536751,v/m1vw10zy74w/map,-2.82250128452,-0.605932967754,0.165,0.0,0.0,-0.767409806359,-0.641156914572,0,48.1633300781,60.6624717712,102.422393799,7.25330686569
1646328692098525635,81,1646328692098525635,r1000913c5/base_front_laser_link,0,1646328692098525635,v/m1vw10zy74w/map,-2.83433649151,-0.605678579866,0.165,0.0,0.0,-0.779187085323,-0.6267914215,0,49.9894752502,60.5323143005,102.444664001,7.30411720276
1646328692176513681,82,1646328692176513681,r1000913c5/base_front_laser_link,0,1646328692176513681,v/m1vw10zy74w/map,-2.84597420715,-0.608551718207,0.165,0.0,0.0,-0.790286077293,-0.612738048465,0,53.2682189941,60.4447937012,102.354095459,7.30309963226
1646328692255584083,83,1646328692255584083,r1000913c5/base_front_laser_link,0,1646328692255584083,v/m1vw10zy74w/map,-2.85743946216,-0.611857688344,0.165,0.0,0.0,-0.80107877193,-0.598558937084,0,53.8907432556,60.366771698,102.249099731,7.29411077499
1646328692412514311,84,1646328692412514311,r1000913c5/base_front_laser_link,0,1646328692412514311,v/m1vw10zy74w/map,-2.87944038033,-0.610015877326,0.165,0.0,0.0,-0.821450530985,-0.570279777955,0,53.5106430054,60.2861099243,102.151908875,7.28859949112
1646328692570660798,85,1646328692570660798,r1000913c5/base_front_laser_link,0,1646328692570660798,v/m1vw10zy74w/map,-2.90210608103,-0.616743179705,0.165,0.0,0.0,-0.841336000526,-0.540512473694,0,57.4719429016,60.2533874512,102.009239197,7.25195074081
1646328692649459323,86,1646328692649459323,r1000913c5/base_front_laser_link,0,1646328692649459323,v/m1vw10zy74w/map,-2.91291090555,-0.621564473952,0.165,0.0,0.0,-0.85079318906,-0.525500665508,0,59.3037757874,60.2424736023,101.873626709,7.21038389206
1646328692727861261,87,1646328692727861261,r1000913c5/base_front_laser_link,0,1646328692727861261,v/m1vw10zy74w/map,-2.92324642964,-0.627117754797,0.165,0.0,0.0,-0.859864573571,-0.510522198458,0,59.5131950378,60.2341842651,101.741928101,7.16924667358
1646328692885590617,88,1646328692885590617,r1000913c5/base_front_laser_link,0,1646328692885590617,v/m1vw10zy74w/map,-2.94350406211,-0.637987021823,0.165,0.0,0.0,-0.877018987837,-0.480455715934,0,59.7285842896,60.2285041809,101.614295959,7.12859725952
1646328692963691199,89,1646328692963691199,r1000913c5/base_front_laser_link,0,1646328692963691199,v/m1vw10zy74w/map,-2.95344701615,-0.644517277871,0.165,0.0,0.0,-0.885418261778,-0.464795117992,0,56.8988571167,60.1915092468,101.48286438,7.09711933136
1646328693041980974,90,1646328693041980974,r1000913c5/base_front_laser_link,0,1646328693041980974,v/m1vw10zy74w/map,-2.96310048667,-0.651456629248,0.165,0.0,0.0,-0.893531215909,-0.449001075941,0,57.1464195251,60.1580467224,101.352432251,7.06479597092
1646328693120594758,91,1646328693120594758,r1000913c5/base_front_laser_link,0,1646328693120594758,v/m1vw10zy74w/map,-2.97389236184,-0.663459537146,0.165,0.0,0.0,-0.900998915561,-0.433821338984,0,58.8299064636,60.1436080933,101.225318909,7.02723550797
1646328693199797987,92,1646328693199797987,r1000913c5/base_front_laser_link,0,1646328693199797987,v/m1vw10zy74w/map,-2.98371100235,-0.675126049235,0.165,0.0,0.0,-0.90874641171,-0.417348726133,0,60.9982261658,60.152797699,101.121307373,6.98950147629
1646328693435947421,93,1646328693435947421,r1000913c5/base_front_laser_link,0,1646328693435947421,v/m1vw10zy74w/map,-3.00887192862,-0.697982543542,0.165,0.0,0.0,-0.92912501204,-0.369765752878,0,62.0888214111,60.1733932495,101.037460327,6.95468950272
1646328694143147392,94,1646328694143147392,r1000913c5/base_front_laser_link,0,1646328694143147392,v/m1vw10zy74w/map,-3.05242826368,-0.72663140669,0.165,0.0,0.0,-0.955271544869,-0.295730072132,0,63.3197822571,60.2065162659,100.981887817,6.92512559891
1646328694379651820,95,1646328694379651820,r1000913c5/base_front_laser_link,0,1646328694379651820,v/m1vw10zy74w/map,-3.07017670124,-0.732691563917,0.165,0.0,0.0,-0.959072980967,-0.283158996288,0,61.159614563,60.2164421082,100.884246826,6.88926792145
1646328694537603115,96,1646328694537603115,r1000913c5/base_front_laser_link,0,1646328694537603115,v/m1vw10zy74w/map,-3.08813538129,-0.73200919462,0.165,0.0,0.0,-0.962787814832,-0.270258438558,0,62.0380706787,60.2352218628,100.802589417,6.85578775406
1646328694693976908,97,1646328694693976908,r1000913c5/base_front_laser_link,0,1646328694693976908,v/m1vw10zy74w/map,-3.10974196343,-0.731359620001,0.165,0.0,0.0,-0.96688247531,-0.255222018914,0,64.4481582642,60.278213501,100.779075623,6.83362150192
1646328694930561956,98,1646328694930561956,r1000913c5/base_front_laser_link,0,1646328694930561956,v/m1vw10zy74w/map,-3.14642148851,-0.729253730361,0.165,0.0,0.0,-0.972538569506,-0.232741768539,0,63.9297294617,60.3150939941,100.740791321,6.8085641861
1646328695086743946,99,1646328695086743946,r1000913c5/base_front_laser_link,0,1646328695086743946,v/m1vw10zy74w/map,-3.17249722672,-0.726910694591,0.165,0.0,0.0,-0.975666902662,-0.219258055839,0,61.5251274109,60.3271942139,100.652709961,6.77517127991
1646328695323720558,100,1646328695323720558,r1000913c5/base_front_laser_link,0,1646328695323720558,v/m1vw10zy74w/map,-3.218296868,-0.723004797231,0.165,0.0,0.0,-0.979953243371,-0.199227610552,0,63.6706352234,60.3602981567,100.608543396,6.74941444397
1646328695403077361,101,1646328695403077361,r1000913c5/base_front_laser_link,0,1646328695403077361,v/m1vw10zy74w/map,-3.23499319087,-0.72084567308,0.165,0.0,0.0,-0.981256404235,-0.192706692014,0,64.923286438,60.4050331116,100.598327637,6.73109817505
1646328695559543148,102,1646328695559543148,r1000913c5/base_front_laser_link,0,1646328695559543148,v/m1vw10zy74w/map,-3.26884775722,-0.714826141404,0.165,0.0,0.0,-0.98319138756,-0.182577916047,0,66.0448684692,60.4597892761,100.622894287,6.72103452682
1646328695637727451,103,1646328695637727451,r1000913c5/base_front_laser_link,0,1646328695637727451,v/m1vw10zy74w/map,-3.28839558596,-0.712392806432,0.165,0.0,0.0,-0.984112622383,-0.177545336367,0,67.0130996704,60.5228042603,100.680183411,6.71912765503
1646328695717238876,104,1646328695717238876,r1000913c5/base_front_laser_link,0,1646328695717238876,v/m1vw10zy74w/map,-3.3027305688,-0.715665357746,0.165,0.0,0.0,-0.984956114913,-0.172804663406,0,66.7180404663,60.5818061829,100.723876953,6.71402311325
1646328696031233799,105,1646328696031233799,r1000913c5/base_front_laser_link,0,1646328696031233799,v/m1vw10zy74w/map,-3.38570116098,-0.704940253156,0.165,0.0,0.0,-0.988870935152,-0.148775917444,0,71.1795196533,60.6817817688,100.964164734,6.76079416275
1646328696110733541,106,1646328696110733541,r1000913c5/base_front_laser_link,0,1646328696110733541,v/m1vw10zy74w/map,-3.40856531869,-0.702974310454,0.165,0.0,0.0,-0.989895469266,-0.141799012432,0,70.0153121948,60.7690124512,101.136184692,6.78905630112
1646328696266763246,107,1646328696266763246,r1000913c5/base_front_laser_link,0,1646328696266763246,v/m1vw10zy74w/map,-3.4543148617,-0.700137289566,0.165,0.0,0.0,-0.991872708276,-0.12723415649,0,76.7189788818,60.9166984558,101.704788208,6.92936420441
1646328696424665140,108,1646328696424665140,r1000913c5/base_front_laser_link,0,1646328696424665140,v/m1vw10zy74w/map,-3.50512368819,-0.697097236179,0.165,0.0,0.0,-0.993532173927,-0.11355095496,0,78.7039337158,61.0798835754,102.393424988,7.10451412201
1646328696581634485,109,1646328696581634485,r1000913c5/base_front_laser_link,0,1646328696581634485,v/m1vw10zy74w/map,-3.5581186195,-0.692289976323,0.165,0.0,0.0,-0.994632635585,-0.103469416879,0,75.0235214233,61.2066421509,102.793838501,7.19573163986
1646328696738875507,110,1646328696738875507,r1000913c5/base_front_laser_link,0,1646328696738875507,v/m1vw10zy74w/map,-3.60954175253,-0.69759951923,0.165,0.0,0.0,-0.99548608939,-0.0949075646672,0,79.2327651978,61.3690414429,103.462417603,7.36445760727
1646328696896511658,111,1646328696896511658,r1000913c5/base_front_laser_link,0,1646328696896511658,v/m1vw10zy74w/map,-3.66636323781,-0.691711671498,0.165,0.0,0.0,-0.996106999953,-0.0881523944371,0,75.4449768066,61.494720459,103.847366333,7.45088338852
1646328697290653268,112,1646328697290653268,r1000913c5/base_front_laser_link,0,1646328697290653268,v/m1vw10zy74w/map,-3.82012936149,-0.732500381065,0.165,0.0,0.0,-0.997027828055,-0.077042261675,0,74.4787139893,61.6096229553,104.161941528,7.51743888855
1646328697368955465,113,1646328697368955465,r1000913c5/base_front_laser_link,0,1646328697368955465,v/m1vw10zy74w/map,-3.85689872894,-0.729187750273,0.165,0.0,0.0,-0.997289047104,-0.073583670237,0,75.2502212524,61.7292747498,104.506355286,7.59236049652
1646328697683586497,114,1646328697683586497,r1000913c5/base_front_laser_link,0,1646328697683586497,v/m1vw10zy74w/map,-3.99312872254,-0.723420962073,0.165,0.0,0.0,-0.998327375261,-0.0578139412722,0,68.799118042,61.7907524109,104.55380249,7.58768224716
1646328697919592848,115,1646328697919592848,r1000913c5/base_front_laser_link,0,1646328697919592848,v/m1vw10zy74w/map,-4.08584978627,-0.720254582588,0.165,0.0,0.0,-0.998848702176,-0.0479715557511,0,69.5453033447,61.8576011658,104.624160767,7.58885192871
1646328698076999611,116,1646328698076999611,r1000913c5/base_front_laser_link,0,1646328698076999611,v/m1vw10zy74w/map,-4.1413149883,-0.714881845835,0.165,0.0,0.0,-0.999047489806,-0.0436361445592,0,69.1009063721,61.9195098877,104.676567078,7.58568572998
1646328698233717155,117,1646328698233717155,r1000913c5/base_front_laser_link,0,1646328698233717155,v/m1vw10zy74w/map,-4.19535422107,-0.714481764052,0.165,0.0,0.0,-0.99929078001,-0.0376555040778,0,69.9721450806,61.9877548218,104.756217957,7.58948898315
1646328698470989620,118,1646328698470989620,r1000913c5/base_front_laser_link,0,1646328698470989620,v/m1vw10zy74w/map,-4.27333955771,-0.710258779264,0.165,0.0,0.0,-0.999552553595,-0.0299114125794,0,67.5363388062,62.0343818665,104.757461548,7.57435894012
1646328698626596872,119,1646328698626596872,r1000913c5/base_front_laser_link,0,1646328698626596872,v/m1vw10zy74w/map,-4.31678366621,-0.720323416795,0.165,0.0,0.0,-0.999856089095,-0.0169647015771,0,68.9258728027,62.0918083191,104.797782898,7.56865787506
1646328698784524709,120,1646328698784524709,r1000913c5/base_front_laser_link,0,1646328698784524709,v/m1vw10zy74w/map,-4.36167444517,-0.737188298492,0.165,0.0,0.0,-0.99999940835,0.00108779603856,0,70.0248336792,62.157371521,104.871810913,7.5714802742
1646328698943149442,121,1646328698943149442,r1000913c5/base_front_laser_link,0,1646328698943149442,v/m1vw10zy74w/map,-4.40864117622,-0.753171693755,0.165,0.0,0.0,-0.999725716545,0.0234198991864,0,70.3292770386,62.2243537903,104.953369141,7.57633876801
1646328699020025848,122,1646328699020025848,r1000913c5/base_front_laser_link,0,1646328699020025848,v/m1vw10zy74w/map,-4.42090051825,-0.729084899001,0.165,0.0,0.0,-0.999431223958,0.0337228198469,0,69.482673645,62.283367157,105.00402832,7.57355451584
1646328699177911490,123,1646328699177911490,r1000913c5/base_front_laser_link,0,1646328699177911490,v/m1vw10zy74w/map,-4.46303613601,-0.744787376738,0.165,0.0,0.0,-0.998322171904,0.0579037225484,0,68.5186843872,62.3336486816,105.024032593,7.56346082687
1646328699334774350,124,1646328699334774350,r1000913c5/base_front_laser_link,0,1646328699334774350,v/m1vw10zy74w/map,-4.50337023997,-0.764549341603,0.165,0.0,0.0,-0.996879782062,0.078934783941,0,65.6844024658,62.3604545593,104.977035522,7.53886079788
1646328699413924467,125,1646328699413924467,r1000913c5/base_front_laser_link,0,1646328699413924467,v/m1vw10zy74w/map,-4.53731942176,-0.804901753228,0.165,0.0,0.0,-0.996390106516,0.0848926123774,0,66.7710342407,62.3954620361,104.952217102,7.51891851425
1646328699571912119,126,1646328699571912119,r1000913c5/base_front_laser_link,0,1646328699571912119,v/m1vw10zy74w/map,-4.57537202283,-0.822137403727,0.165,0.0,0.0,-0.995023645813,0.0996390700106,0,67.5090332031,62.4357261658,104.943992615,7.50275611877
1646328699650941042,127,1646328699650941042,r1000913c5/base_front_laser_link,0,1646328699650941042,v/m1vw10zy74w/map,-4.59537737251,-0.828678847079,0.165,0.0,0.0,-0.994662502731,0.103181905682,0,71.2138290405,62.5043029785,105.044288635,7.51332855225
1646328700358241024,128,1646328700358241024,r1000913c5/base_front_laser_link,0,1646328700358241024,v/m1vw10zy74w/map,-4.70526367965,-0.855301554949,0.165,0.0,0.0,-0.995743097222,0.0921720366166,0,72.8902816772,62.584815979,105.203559875,7.53958082199
1646328700437790905,129,1646328700437790905,r1000913c5/base_front_laser_link,0,1646328700437790905,v/m1vw10zy74w/map,-4.70391486719,-0.858671049468,0.165,0.0,0.0,-0.995233207106,0.097523655967,0,70.7861099243,62.6479034424,105.281906128,7.54466772079
1646328700673655200,130,1646328700673655200,r1000913c5/base_front_laser_link,0,1646328700673655200,v/m1vw10zy74w/map,-4.69792398183,-0.871866062539,0.165,0.0,0.0,-0.992950421209,0.118530422341,0,71.7694625854,62.7175331116,105.390724182,7.55773019791
1646328700831829042,131,1646328700831829042,r1000913c5/base_front_laser_link,0,1646328700831829042,v/m1vw10zy74w/map,-4.68904892481,-0.903525787713,0.165,0.0,0.0,-0.988250652573,0.152841904234,0,73.5562133789,62.7996444702,105.56275177,7.587703228
1646328700989727834,132,1646328700989727834,r1000913c5/base_front_laser_link,0,1646328700989727834,v/m1vw10zy74w/map,-4.68259497495,-0.925689800138,0.165,0.0,0.0,-0.982394632115,0.186817522709,0,74.7712631226,62.8896560669,105.779220581,7.62985372543
1646328701145777215,133,1646328701145777215,r1000913c5/base_front_laser_link,0,1646328701145777215,v/m1vw10zy74w/map,-4.67307627532,-0.948373319454,0.165,0.0,0.0,-0.974871803675,0.222766618682,0,71.1281661987,62.9511375427,105.854225159,7.63436174393
1646328701303934579,134,1646328701303934579,r1000913c5/base_front_laser_link,0,1646328701303934579,v/m1vw10zy74w/map,-4.66733231788,-0.972026885203,0.165,0.0,0.0,-0.966310997924,0.257377262575,0,67.9948120117,62.9884986877,105.843093872,7.61819934845
1646328701462091039,135,1646328701462091039,r1000913c5/base_front_laser_link,0,1646328701462091039,v/m1vw10zy74w/map,-4.65526084393,-0.992402425585,0.165,0.0,0.0,-0.956579997473,0.29146991,0,65.3630599976,63.0059585571,105.783943176,7.59266233444
1646328701618961666,136,1646328701618961666,r1000913c5/base_front_laser_link,0,1646328701618961666,v/m1vw10zy74w/map,-4.66374303247,-0.966144179736,0.165,0.0,0.0,-0.945287300082,0.32623905392,0,63.9470024109,63.0128288269,105.708198547,7.56512403488
1646328701777025207,137,1646328701777025207,r1000913c5/base_front_laser_link,0,1646328701777025207,v/m1vw10zy74w/map,-4.64844971712,-0.984399124845,0.165,0.0,0.0,-0.93308429226,0.359657758902,0,66.2024154663,63.0359382629,105.662994385,7.54235219955
1646328701934926673,138,1646328701934926673,r1000913c5/base_front_laser_link,0,1646328701934926673,v/m1vw10zy74w/map,-4.61079081117,-1.05152909478,0.165,0.0,0.0,-0.919982275271,0.391959963755,0,63.562335968,63.0397262573,105.58505249,7.51510763168
1646328702091764925,139,1646328702091764925,r1000913c5/base_front_laser_link,0,1646328702091764925,v/m1vw10zy74w/map,-4.59312362537,-1.07017939497,0.165,0.0,0.0,-0.905454668412,0.424442980211,0,70.8483123779,63.095500946,105.646659851,7.51705169678
1646328702329932567,140,1646328702329932567,r1000913c5/base_front_laser_link,0,1646328702329932567,v/m1vw10zy74w/map,-4.57136673568,-1.0921074221,0.165,0.0,0.0,-0.881790235099,0.471641793403,0,69.9603881836,63.1441879272,105.681495667,7.51243495941
1646328702485907765,141,1646328702485907765,r1000913c5/base_front_laser_link,0,1646328702485907765,v/m1vw10zy74w/map,-4.5558065995,-1.10490303505,0.165,0.0,0.0,-0.86544833477,0.500998183473,0,74.3269119263,63.2229423523,105.855964661,7.5443406105
1646328702644162864,142,1646328702644162864,r1000913c5/base_front_laser_link,0,1646328702644162864,v/m1vw10zy74w/map,-4.53779092346,-1.11423905001,0.165,0.0,0.0,-0.848144948326,0.529764236834,0,76.1837005615,63.3135757446,106.099945068,7.59545564651
1646328702722914424,143,1646328702722914424,r1000913c5/base_front_laser_link,0,1646328702722914424,v/m1vw10zy74w/map,-4.525040769,-1.123261751,0.165,0.0,0.0,-0.837561213495,0.546343494195,0,71.4112854004,63.3698120117,106.166427612,7.59887361526
1646328702802179518,144,1646328702802179518,r1000913c5/base_front_laser_link,0,1646328702802179518,v/m1vw10zy74w/map,-4.51394496876,-1.12790093243,0.165,0.0,0.0,-0.827613379027,0.561298579061,0,70.7390365601,63.4206314087,106.212028503,7.59713172913
1646328702880173347,145,1646328702880173347,r1000913c5/base_front_laser_link,0,1646328702880173347,v/m1vw10zy74w/map,-4.50245957655,-1.13510736337,0.165,0.0,0.0,-0.816743774098,0.577000526405,0,75.414024353,63.5027770996,106.409812927,7.63567829132
1646328703038145543,146,1646328703038145543,r1000913c5/base_front_laser_link,0,1646328703038145543,v/m1vw10zy74w/map,-4.48110407784,-1.13884902673,0.165,0.0,0.0,-0.797359189111,0.603505031909,0,70.5657196045,63.5508270264,106.446075439,7.63174915314
1646328703116084447,147,1646328703116084447,r1000913c5/base_front_laser_link,0,1646328703116084447,v/m1vw10zy74w/map,-4.47099028201,-1.14151848972,0.165,0.0,0.0,-0.787834490893,0.615887014768,0,69.1746749878,63.5888252258,106.448173523,7.61978244781
1646328703195189194,148,1646328703195189194,r1000913c5/base_front_laser_link,0,1646328703195189194,v/m1vw10zy74w/map,-4.46609840087,-1.14122556626,0.165,0.0,0.0,-0.779500485541,0.626401622796,0,70.195098877,63.6331634521,106.472930908,7.6132569313
1646328703431972788,149,1646328703431972788,r1000913c5/base_front_laser_link,0,1646328703431972788,v/m1vw10zy74w/map,-4.43781777038,-1.14330444562,0.165,0.0,0.0,-0.75222542313,0.658905845169,0,71.2207794189,63.6837463379,106.522491455,7.61291599274
1646328703510653534,150,1646328703510653534,r1000913c5/base_front_laser_link,0,1646328703510653534,v/m1vw10zy74w/map,-4.43579054491,-1.13865796489,0.165,0.0,0.0,-0.746250685273,0.665665016903,0,73.4425354004,63.748374939,106.63520813,7.62894487381
1646328705795267905,151,1646328705795267905,r1000913c5/base_front_laser_link,0,1646328705795267905,v/m1vw10zy74w/map,-4.38243222055,-1.13878444936,0.165,0.0,0.0,-0.694451104227,0.719539897322,0,63.161491394,63.7445144653,106.555885315,7.60379076004
1646328705874233061,152,1646328705874233061,r1000913c5/base_front_laser_link,0,1646328705874233061,v/m1vw10zy74w/map,-4.38239506951,-1.13880709204,0.165,0.0,0.0,-0.694411806529,0.719577822722,0,62.9167098999,63.7391014099,106.476196289,7.57903242111
1646328706032317593,153,1646328706032317593,r1000913c5/base_front_laser_link,0,1646328706032317593,v/m1vw10zy74w/map,-4.38157419991,-1.14041619575,0.165,0.0,0.0,-0.693597807665,0.720362465153,0,60.5959358215,63.7186927795,106.394096375,7.55846881866
1646328706111169909,154,1646328706111169909,r1000913c5/base_front_laser_link,0,1646328706111169909,v/m1vw10zy74w/map,-4.3787165554,-1.14318152534,0.165,0.0,0.0,-0.690646490528,0.723192522861,0,58.3933372498,63.6843338013,106.322395325,7.54602098465
1646328706188104542,155,1646328706188104542,r1000913c5/base_front_laser_link,0,1646328706188104542,v/m1vw10zy74w/map,-4.37084766227,-1.14976203811,0.165,0.0,0.0,-0.682488027392,0.730896772784,0,64.8511428833,63.6918144226,106.258476257,7.5222196579
1646328706346168794,156,1646328706346168794,r1000913c5/base_front_laser_link,0,1646328706346168794,v/m1vw10zy74w/map,-4.34889767062,-1.17774748875,0.165,0.0,0.0,-0.661010716219,0.750376460881,0,69.8121948242,63.730796814,106.272689819,7.51396465302
1646328706426194741,157,1646328706426194741,r1000913c5/base_front_laser_link,0,1646328706426194741,v/m1vw10zy74w/map,-4.33892801626,-1.19773886689,0.165,0.0,0.0,-0.652752413762,0.757571307751,0,67.2383041382,63.7529983521,106.238578796,7.49519300461
1646328706582856506,158,1646328706582856506,r1000913c5/base_front_laser_link,0,1646328706582856506,v/m1vw10zy74w/map,-4.32261139242,-1.24225670345,0.165,0.0,0.0,-0.642351097484,0.766410508514,0,59.1826286316,63.7242546082,106.164924622,7.48022270203
1646328706661200306,159,1646328706661200306,r1000913c5/base_front_laser_link,0,1646328706661200306,v/m1vw10zy74w/map,-4.31558126207,-1.26477941675,0.165,0.0,0.0,-0.638991067302,0.769214154776,0,60.0714378357,63.701423645,106.088180542,7.46225261688
1646328706818237797,160,1646328706818237797,r1000913c5/base_front_laser_link,0,1646328706818237797,v/m1vw10zy74w/map,-4.30963669116,-1.30711650307,0.165,0.0,0.0,-0.637758129434,0.770236696309,0,64.1111221313,63.7039680481,106.020866394,7.4389667511
1646328706976245841,161,1646328706976245841,r1000913c5/base_front_laser_link,0,1646328706976245841,v/m1vw10zy74w/map,-4.30649187737,-1.3520046601,0.165,0.0,0.0,-0.643146414618,0.765743226783,0,66.6557998657,63.7221908569,105.980552673,7.41945409775
1646328707054080341,162,1646328707054080341,r1000913c5/base_front_laser_link,0,1646328707054080341,v/m1vw10zy74w/map,-4.30662960511,-1.37427596367,0.165,0.0,0.0,-0.647578928843,0.761998379866,0,66.2996826172,63.7380027771,105.935821533,7.39927339554
1646328707140673982,163,1646328707140673982,r1000913c5/base_front_laser_link,0,1646328707140673982,v/m1vw10zy74w/map,-4.30792805049,-1.3995907405,0.165,0.0,0.0,-0.653429221606,0.75698761704,0,61.9000854492,63.7267951965,105.860610962,7.37793731689
1646328707212231373,164,1646328707212231373,r1000913c5/base_front_laser_link,0,1646328707212231373,v/m1vw10zy74w/map,-4.3082758387,-1.41757773337,0.165,0.0,0.0,-0.657096195531,0.753806732404,0,66.9399719238,63.7462692261,105.825256348,7.35966157913
1646328707369278069,165,1646328707369278069,r1000913c5/base_front_laser_link,0,1646328707369278069,v/m1vw10zy74w/map,-4.31395212767,-1.46284048862,0.165,0.0,0.0,-0.669854483104,0.742492404988,0,69.0561065674,63.7782554626,105.824928284,7.3488907814
1646328707448131145,166,1646328707448131145,r1000913c5/base_front_laser_link,0,1646328707448131145,v/m1vw10zy74w/map,-4.31760987168,-1.48570951517,0.165,0.0,0.0,-0.676305635024,0.736621129235,0,67.5268859863,63.8007011414,105.798088074,7.33246231079
1646328707526218537,167,1646328707526218537,r1000913c5/base_front_laser_link,0,1646328707526218537,v/m1vw10zy74w/map,-4.32167914424,-1.50817189065,0.165,0.0,0.0,-0.682655680112,0.730740188036,0,66.0803146362,63.8142700195,105.752044678,7.3125910759
1646328707605158368,168,1646328707605158368,r1000913c5/base_front_laser_link,0,1646328707605158368,v/m1vw10zy74w/map,-4.32470887792,-1.5380015777,0.165,0.0,0.0,-0.685463394615,0.728107090092,0,67.8992843628,63.8384437561,105.731132507,7.29756355286
1646328707684094434,169,1646328707684094434,r1000913c5/base_front_laser_link,0,1646328707684094434,v/m1vw10zy74w/map,-4.3293527982,-1.56064184036,0.165,0.0,0.0,-0.691586383572,0.722293758839,0,66.2455978394,63.8526039124,105.687454224,7.27828264236
1646328707763316325,170,1646328707763316325,r1000913c5/base_front_laser_link,0,1646328707763316325,v/m1vw10zy74w/map,-4.33444103027,-1.58339499084,0.165,0.0,0.0,-0.697932299944,0.716163741538,0,67.4811096191,63.8738212585,105.660263062,7.26214742661
1646328707920094862,171,1646328707920094862,r1000913c5/base_front_laser_link,0,1646328707920094862,v/m1vw10zy74w/map,-4.34388273151,-1.62728564185,0.165,0.0,0.0,-0.708476844629,0.705734058002,0,70.0248413086,63.9095840454,105.677749634,7.25605583191
1646328708000208073,172,1646328708000208073,r1000913c5/base_front_laser_link,0,1646328708000208073,v/m1vw10zy74w/map,-4.34785414014,-1.64657153592,0.165,0.0,0.0,-0.710913840166,0.703279113767,0,69.3866424561,63.941242218,105.68196106,7.24690532684
1646328708157247035,173,1646328708157247035,r1000913c5/base_front_laser_link,0,1646328708157247035,v/m1vw10zy74w/map,-4.35411043585,-1.69062946409,0.165,0.0,0.0,-0.716622884935,0.697460852513,0,68.3975067139,63.9668540955,105.668327332,7.23382329941
1646328708237104944,174,1646328708237104944,r1000913c5/base_front_laser_link,0,1646328708237104944,v/m1vw10zy74w/map,-4.35700455852,-1.71335595819,0.165,0.0,0.0,-0.718927688809,0.695084871267,0,69.2092819214,63.9968109131,105.668464661,7.22388458252
1646328708393688551,175,1646328708393688551,r1000913c5/base_front_laser_link,0,1646328708393688551,v/m1vw10zy74w/map,-4.35464624439,-1.76143652977,0.165,0.0,0.0,-0.719660991732,0.694325613081,0,71.1918106079,64.037689209,105.708503723,7.2236032486
1646328708473167900,176,1646328708473167900,r1000913c5/base_front_laser_link,0,1646328708473167900,v/m1vw10zy74w/map,-4.3565822507,-1.7844126098,0.165,0.0,0.0,-0.721105251382,0.692825531017,0,68.261390686,64.0615539551,105.691688538,7.21004533768
1646328708552158585,177,1646328708552158585,r1000913c5/base_front_laser_link,0,1646328708552158585,v/m1vw10zy74w/map,-4.35874743564,-1.80702471584,0.165,0.0,0.0,-0.722373407573,0.691503188735,0,66.9644317627,64.0778656006,105.656684875,7.19294071198
1646328708631070982,178,1646328708631070982,r1000913c5/base_front_laser_link,0,1646328708631070982,v/m1vw10zy74w/map,-4.36068888951,-1.82935407898,0.165,0.0,0.0,-0.723338703294,0.690493389047,0,63.7617912292,64.0760955811,105.594337463,7.17274618149
1646328708787204263,179,1646328708787204263,r1000913c5/base_front_laser_link,0,1646328708787204263,v/m1vw10zy74w/map,-4.35593518883,-1.86655145007,0.165,0.0,0.0,-0.721347968436,0.692572818145,0,64.842628479,64.0803527832,105.539085388,7.15291070938
1646328711783504522,180,1646328711783504522,r1000913c5/base_front_laser_link,0,1646328711783504522,v/m1vw10zy74w/map,-4.34696829878,-2.22178011024,0.165,0.0,0.0,-0.70449938559,0.709704597493,0,63.4607124329,64.0769348145,105.476417542,7.13316249847
1646328711941467424,181,1646328711941467424,r1000913c5/base_front_laser_link,0,1646328711941467424,v/m1vw10zy74w/map,-4.34680592041,-2.25421039186,0.165,0.0,0.0,-0.704578598323,0.709625956956,0,63.931186676,64.076133728,105.4164505,7.11343860626
1646328712492302009,182,1646328712492302009,r1000913c5/base_front_laser_link,0,1646328712492302009,v/m1vw10zy74w/map,-4.35606272625,-2.36249434501,0.165,0.0,0.0,-0.711606843385,0.702577896356,0,66.6834793091,64.0903778076,105.379837036,7.09648704529
1646328712729907367,183,1646328712729907367,r1000913c5/base_front_laser_link,0,1646328712729907367,v/m1vw10zy74w/map,-4.35806539389,-2.41190537565,0.165,0.0,0.0,-0.71259484716,0.701575786214,0,70.8635559082,64.1271896362,105.411186218,7.09466457367
1646328712888556345,184,1646328712888556345,r1000913c5/base_front_laser_link,0,1646328712888556345,v/m1vw10zy74w/map,-4.35683984598,-2.44436304068,0.165,0.0,0.0,-0.710849738008,0.703343905905,0,70.40574646,64.1611251831,105.4323349,7.09040117264
1646328712966481752,185,1646328712966481752,r1000913c5/base_front_laser_link,0,1646328712966481752,v/m1vw10zy74w/map,-4.35606877996,-2.46046722783,0.165,0.0,0.0,-0.709879834009,0.704322810413,0,69.6391601562,64.1905822754,105.438415527,7.08261108398
1646328714227697003,186,1646328714227697003,r1000913c5/base_front_laser_link,0,1646328714227697003,v/m1vw10zy74w/map,-4.34680933093,-2.70643365233,0.165,0.0,0.0,-0.704245183822,0.709956844507,0,67.4172897339,64.2078323364,105.410293579,7.06748628616
1646328714305287657,187,1646328714305287657,r1000913c5/base_front_laser_link,0,1646328714305287657,v/m1vw10zy74w/map,-4.34654102094,-2.72169018782,0.165,0.0,0.0,-0.704215970448,0.709985821666,0,69.5944671631,64.2364883423,105.415000916,7.0595035553
1646328717930668151,188,1646328717930668151,r1000913c5/base_front_laser_link,0,1646328717930668151,v/m1vw10zy74w/map,-4.31541627204,-2.879135823,0.165,0.0,0.0,-0.709136612085,0.705071106627,0,71.0216445923,64.2723846436,105.446327209,7.05798053741
1646328718088580605,189,1646328718088580605,r1000913c5/base_front_laser_link,0,1646328718088580605,v/m1vw10zy74w/map,-4.3154172779,-2.87907692127,0.165,0.0,0.0,-0.709138026781,0.705069683771,0,72.3009338379,64.3146438599,105.50466156,7.06333971024
1646328718245820247,190,1646328718245820247,r1000913c5/base_front_laser_link,0,1646328718245820247,v/m1vw10zy74w/map,-4.31560105916,-2.87603707351,0.165,0.0,0.0,-0.709350465198,0.704855955159,0,72.1593170166,64.3557128906,105.558387756,7.06755828857
1646328718325659022,191,1646328718325659022,r1000913c5/base_front_laser_link,0,1646328718325659022,v/m1vw10zy74w/map,-4.31570214757,-2.87052711789,0.165,0.0,0.0,-0.709494206163,0.704711268124,0,71.1823196411,64.3912734985,105.589958191,7.06622838974
1646328718404318916,192,1646328718404318916,r1000913c5/base_front_laser_link,0,1646328718404318916,v/m1vw10zy74w/map,-4.31571359238,-2.86182617182,0.165,0.0,0.0,-0.709567727744,0.704637239822,0,69.4040603638,64.4172439575,105.588340759,7.05703306198
1646328718562549699,193,1646328718562549699,r1000913c5/base_front_laser_link,0,1646328718562549699,v/m1vw10zy74w/map,-4.3153383339,-2.83716188505,0.165,0.0,0.0,-0.709365586325,0.704840737286,0,66.5237121582,64.4281005859,105.549156189,7.04035139084
1646328718641350759,194,1646328718641350759,r1000913c5/base_front_laser_link,0,1646328718641350759,v/m1vw10zy74w/map,-4.31412993379,-2.82151540369,0.165,0.0,0.0,-0.708182283672,0.706029640379,0,66.8473052979,64.4405059814,105.513465881,7.02431964874
1646328718719727729,195,1646328718719727729,r1000913c5/base_front_laser_link,0,1646328718719727729,v/m1vw10zy74w/map,-4.31407625726,-2.8029734552,0.165,0.0,0.0,-0.708199048459,0.706012824078,0,66.3023605347,64.4500045776,105.472648621,7.00754737854
1646328718798605625,196,1646328718798605625,r1000913c5/base_front_laser_link,0,1646328718798605625,v/m1vw10zy74w/map,-4.31367129802,-2.78177799181,0.165,0.0,0.0,-0.707841991456,0.706370805691,0,71.7373733521,64.4869995117,105.513717651,7.00890541077
1646328718877688161,197,1646328718877688161,r1000913c5/base_front_laser_link,0,1646328718877688161,v/m1vw10zy74w/map,-4.31356902026,-2.76020227559,0.165,0.0,0.0,-0.707784984423,0.706427926844,0,70.5365600586,64.5175476074,105.530448914,7.00430011749
1646328718956550526,198,1646328718956550526,r1000913c5/base_front_laser_link,0,1646328718956550526,v/m1vw10zy74w/map,-4.31335079579,-2.73763451187,0.165,0.0,0.0,-0.707598567913,0.706614652188,0,67.5649414062,64.5328674316,105.502655029,6.98992919922
1646328719034045266,199,1646328719034045266,r1000913c5/base_front_laser_link,0,1646328719034045266,v/m1vw10zy74w/map,-4.31267096533,-2.71321620679,0.165,0.0,0.0,-0.706900858793,0.70731264363,0,67.0740127563,64.5455703735,105.469551086,6.9746594429
1646328719191899107,200,1646328719191899107,r1000913c5/base_front_laser_link,0,1646328719191899107,v/m1vw10zy74w/map,-4.31221404596,-2.66331660405,0.165,0.0,0.0,-0.706319996878,0.707892691027,0,73.1787643433,64.5885238647,105.539916992,6.98379898071
1646328719270609692,201,1646328719270609692,r1000913c5/base_front_laser_link,0,1646328719270609692,v/m1vw10zy74w/map,-4.31229141017,-2.63907634213,0.165,0.0,0.0,-0.706345921095,0.707866823458,0,74.5372695923,64.6377716064,105.642227173,7.00148439407
1646328719349756651,202,1646328719349756651,r1000913c5/base_front_laser_link,0,1646328719349756651,v/m1vw10zy74w/map,-4.3123356873,-2.61610865573,0.165,0.0,0.0,-0.706340566916,0.707872166093,0,75.9766921997,64.6936264038,105.781616211,7.02932882309
1646328719428679726,203,1646328719428679726,r1000913c5/base_front_laser_link,0,1646328719428679726,v/m1vw10zy74w/map,-4.31232300142,-2.59391948512,0.165,0.0,0.0,-0.706273492402,0.707939089139,0,81.3773498535,64.7754135132,106.101280212,7.10862159729
1646328719585706469,204,1646328719585706469,r1000913c5/base_front_laser_link,0,1646328719585706469,v/m1vw10zy74w/map,-4.33440921013,-2.53785305746,0.165,0.0,0.0,-0.707967824605,0.706244687997,0,80.5700302124,64.8524627686,106.381866455,7.17646980286
1646328719744577720,205,1646328719744577720,r1000913c5/base_front_laser_link,0,1646328719744577720,v/m1vw10zy74w/map,-4.31791611781,-2.49509762678,0.165,0.0,0.0,-0.707945592558,0.706266973586,0,79.2297363281,64.9222488403,106.608314514,7.22868728638
1646328719822722606,206,1646328719822722606,r1000913c5/base_front_laser_link,0,1646328719822722606,v/m1vw10zy74w/map,-4.31769047307,-2.47291389145,0.165,0.0,0.0,-0.707756577395,0.706456387298,0,80.0966033936,64.9955596924,106.859085083,7.28784132004
1646328719979784811,207,1646328719979784811,r1000913c5/base_front_laser_link,0,1646328719979784811,v/m1vw10zy74w/map,-4.31196435519,-2.42589686526,0.165,0.0,0.0,-0.704356696661,0.709846211422,0,77.810546875,65.0571670532,107.03011322,7.32431459427
1646328720137673187,208,1646328720137673187,r1000913c5/base_front_laser_link,0,1646328720137673187,v/m1vw10zy74w/map,-4.31220246685,-2.38228835985,0.165,0.0,0.0,-0.703972129197,0.710227598248,0,72.4872970581,65.0927200317,107.066940308,7.32474040985
1646328720216459467,209,1646328720216459467,r1000913c5/base_front_laser_link,0,1646328720216459467,v/m1vw10zy74w/map,-4.31242852329,-2.35989354302,0.165,0.0,0.0,-0.704002825767,0.710197170729,0,73.7763290405,65.1340713501,107.129241943,7.33172464371
1646328720295736332,210,1646328720295736332,r1000913c5/base_front_laser_link,0,1646328720295736332,v/m1vw10zy74w/map,-4.31264421359,-2.33739389391,0.165,0.0,0.0,-0.704023855899,0.710176323405,0,74.2374725342,65.1772155762,107.20035553,7.34104728699
1646328720373584176,211,1646328720373584176,r1000913c5/base_front_laser_link,0,1646328720373584176,v/m1vw10zy74w/map,-4.31300185923,-2.31825853115,0.165,0.0,0.0,-0.705143289487,0.709064835746,0,77.0844268799,65.2333831787,107.340827942,7.36914825439
1646328720530755594,212,1646328720530755594,r1000913c5/base_front_laser_link,0,1646328720530755594,v/m1vw10zy74w/map,-4.31317225814,-2.27407328851,0.165,0.0,0.0,-0.705117184891,0.709090795013,0,72.9255371094,65.269493103,107.381340027,7.370616436
1646328720609819583,213,1646328720609819583,r1000913c5/base_front_laser_link,0,1646328720609819583,v/m1vw10zy74w/map,-4.31332348997,-2.25179959193,0.165,0.0,0.0,-0.705145800531,0.709062338581,0,70.8403167725,65.2955245972,107.384971619,7.36314821243
1646328720767845737,214,1646328720767845737,r1000913c5/base_front_laser_link,0,1646328720767845737,v/m1vw10zy74w/map,-4.31347294634,-2.20239359399,0.165,0.0,0.0,-0.705856356336,0.708354998726,0,69.8540725708,65.3167266846,107.374229431,7.35249996185
1646328720924843028,215,1646328720924843028,r1000913c5/base_front_laser_link,0,1646328720924843028,v/m1vw10zy74w/map,-4.31367578196,-2.15761198842,0.165,0.0,0.0,-0.705975488331,0.708236266987,0,70.9784317017,65.3429412842,107.37940979,7.34548997879
1646328721003683331,216,1646328721003683331,r1000913c5/base_front_laser_link,0,1646328721003683331,v/m1vw10zy74w/map,-4.31386680628,-2.13512168772,0.165,0.0,0.0,-0.70610489094,0.708107253876,0,70.7613601685,65.3679122925,107.380981445,7.33769178391
1646328721161806477,217,1646328721161806477,r1000913c5/base_front_laser_link,0,1646328721161806477,v/m1vw10zy74w/map,-4.31528316168,-2.08875324114,0.165,0.0,0.0,-0.706198141174,0.708014255084,0,65.9947738647,65.3707885742,107.333450317,7.32088851929
1646328721240737340,218,1646328721240737340,r1000913c5/base_front_laser_link,0,1646328721240737340,v/m1vw10zy74w/map,-4.31552118249,-2.06603437517,0.165,0.0,0.0,-0.706290723188,0.707921898474,0,66.7652893066,65.3771514893,107.29120636,7.30468559265
1646328721318840345,219,1646328721318840345,r1000913c5/base_front_laser_link,0,1646328721318840345,v/m1vw10zy74w/map,-4.31559897797,-2.04355771223,0.165,0.0,0.0,-0.706307269505,0.707905389897,0,65.8976974487,65.3795166016,107.243743896,7.28807401657
1646328721397851579,220,1646328721397851579,r1000913c5/base_front_laser_link,0,1646328721397851579,v/m1vw10zy74w/map,-4.31553218974,-2.02073266918,0.165,0.0,0.0,-0.706179427079,0.708032920682,0,68.4546127319,65.3934326172,107.21672821,7.27443265915
1646328721634960277,221,1646328721634960277,r1000913c5/base_front_laser_link,0,1646328721634960277,v/m1vw10zy74w/map,-4.32079096413,-1.94706746115,0.165,0.0,0.0,-0.705035369361,0.709172142678,0,64.2739105225,65.3883895874,107.163421631,7.25834512711
1646328721791860396,222,1646328721791860396,r1000913c5/base_front_laser_link,0,1646328721791860396,v/m1vw10zy74w/map,-4.32144009793,-1.90114282169,0.165,0.0,0.0,-0.704840921985,0.709365402804,0,67.8605651855,65.3994750977,107.131088257,7.24387073517
1646328721949737381,223,1646328721949737381,r1000913c5/base_front_laser_link,0,1646328721949737381,v/m1vw10zy74w/map,-4.32065326886,-1.86419784715,0.165,0.0,0.0,-0.704519588347,0.709684542339,0,67.5089950562,65.4088973999,107.095848083,7.22898483276
1646328722027884111,224,1646328722027884111,r1000913c5/base_front_laser_link,0,1646328722027884111,v/m1vw10zy74w/map,-4.32135182416,-1.84171360746,0.165,0.0,0.0,-0.70437358279,0.70982945548,0,67.9512481689,65.4201965332,107.064659119,7.21482181549
1646328722186579701,225,1646328722186579701,r1000913c5/base_front_laser_link,0,1646328722186579701,v/m1vw10zy74w/map,-4.32165494671,-1.79686755395,0.165,0.0,0.0,-0.704327971866,0.709874712923,0,67.6998977661,65.4302825928,107.031387329,7.20036840439
1646328722344547838,226,1646328722344547838,r1000913c5/base_front_laser_link,0,1646328722344547838,v/m1vw10zy74w/map,-4.31641303334,-1.76619579989,0.165,0.0,0.0,-0.705073310545,0.709134420795,0,68.0332717896,65.4417495728,107.001235962,7.18649768829
1646328722421746600,227,1646328722421746600,r1000913c5/base_front_laser_link,0,1646328722421746600,v/m1vw10zy74w/map,-4.31658744825,-1.74633887533,0.165,0.0,0.0,-0.70509678181,0.709111083175,0,74.1917953491,65.4801254272,107.062210083,7.1940279007
1646328722580805705,228,1646328722580805705,r1000913c5/base_front_laser_link,0,1646328722580805705,v/m1vw10zy74w/map,-4.31689219735,-1.70096837295,0.165,0.0,0.0,-0.70514747607,0.709060672293,0,70.573348999,65.5023651123,107.06072998,7.18612003326
1646328722737989084,229,1646328722737989084,r1000913c5/base_front_laser_link,0,1646328722737989084,v/m1vw10zy74w/map,-4.31971600459,-1.66658752412,0.165,0.0,0.0,-0.707100693751,0.70711286857,0,74.0457077026,65.5395126343,107.117034912,7.192507267
1646328722817813562,230,1646328722817813562,r1000913c5/base_front_laser_link,0,1646328722817813562,v/m1vw10zy74w/map,-4.3197714399,-1.64650073935,0.165,0.0,0.0,-0.70711514953,0.707098412744,0,72.5344009399,65.5697937012,107.144577026,7.19159603119
1646328722974913359,231,1646328722974913359,r1000913c5/base_front_laser_link,0,1646328722974913359,v/m1vw10zy74w/map,-4.31983185299,-1.60178479982,0.165,0.0,0.0,-0.707184396319,0.707029157534,0,69.7477111816,65.5877990723,107.131561279,7.18125295639
1646328723131675649,232,1646328723131675649,r1000913c5/base_front_laser_link,0,1646328723131675649,v/m1vw10zy74w/map,-4.319018626,-1.56774194951,0.165,0.0,0.0,-0.70670128888,0.707512041096,0,69.6060028076,65.6050491333,107.116821289,7.17059326172
1646328723288770209,233,1646328723288770209,r1000913c5/base_front_laser_link,0,1646328723288770209,v/m1vw10zy74w/map,-4.31920348283,-1.52537095049,0.165,0.0,0.0,-0.70668549852,0.707527813009,0,69.6290969849,65.6222457886,107.102310181,7.16002321243
1646328723367887078,234,1646328723367887078,r1000913c5/base_front_laser_link,0,1646328723367887078,v/m1vw10zy74w/map,-4.31924872267,-1.50261814267,0.165,0.0,0.0,-0.706705401264,0.7075079334,0,69.6727294922,65.6394805908,107.088256836,7.14959192276
1646328723526074780,235,1646328723526074780,r1000913c5/base_front_laser_link,0,1646328723526074780,v/m1vw10zy74w/map,-4.32205881891,-1.46435215795,0.165,0.0,0.0,-0.706844308492,0.707369156489,0,69.8924865723,65.6575012207,107.076698303,7.13973331451
1646328723683728414,236,1646328723683728414,r1000913c5/base_front_laser_link,0,1646328723683728414,v/m1vw10zy74w/map,-4.32217923662,-1.42228235989,0.165,0.0,0.0,-0.706844819237,0.707368646123,0,68.0249481201,65.6674880981,107.04624176,7.12624979019
1646328723762727863,237,1646328723762727863,r1000913c5/base_front_laser_link,0,1646328723762727863,v/m1vw10zy74w/map,-4.32220200634,-1.40001350483,0.165,0.0,0.0,-0.706851709762,0.707361760634,0,67.6921768188,65.675994873,107.01322937,7.11241054535
1646328723841576922,238,1646328723841576922,r1000913c5/base_front_laser_link,0,1646328723841576922,v/m1vw10zy74w/map,-4.32220529974,-1.37776138353,0.165,0.0,0.0,-0.706837792882,0.707375667205,0,69.8828887939,65.6935958862,107.001602173,7.10266780853
