%time,field.header.seq,field.header.stamp,field.header.frame_id,field.pose.header.seq,field.pose.header.stamp,field.pose.header.frame_id,field.pose.pose.position.x,field.pose.pose.position.y,field.pose.pose.position.z,field.pose.pose.orientation.x,field.pose.pose.orientation.y,field.pose.pose.orientation.z,field.pose.pose.orientation.w,field.label,field.current_error,field.mean,field.threshold,field.std_dev
1646227757571791254,0,1646227757571791254,r1000913c5/base_front_laser_link,0,1646227757571791254,v/m1vw10zy74w/map,-2.83942203067,-2.38255781344,0.165,0.0,0.0,-0.701604345215,0.712566728648,0,65.2613830566,65.2613830566,nan,nan
1646227757728809203,1,1646227757728809203,r1000913c5/base_front_laser_link,0,1646227757728809203,v/m1vw10zy74w/map,-2.84148561336,-2.34176389001,0.165,0.0,0.0,-0.703448768592,0.710745967253,0,64.0622940063,64.6618423462,87.2054901123,0.847883820534
1646227759698085534,2,1646227759698085534,r1000913c5/base_front_laser_link,0,1646227759698085534,v/m1vw10zy74w/map,-2.79873686025,-2.27186814518,0.165,0.0,0.0,-0.659596361133,0.751620010631,0,61.9281005859,63.7505950928,88.8156814575,1.68836271763
1646227759933968047,3,1646227759933968047,r1000913c5/base_front_laser_link,0,1646227759933968047,v/m1vw10zy74w/map,-2.76319268191,-2.26533441251,0.165,0.0,0.0,-0.61805952452,0.786131302105,0,63.1427764893,63.5986404419,87.8335723877,1.41164422035
1646227760012845829,4,1646227760012845829,r1000913c5/base_front_laser_link,0,1646227760012845829,v/m1vw10zy74w/map,-2.75118645485,-2.26229389517,0.165,0.0,0.0,-0.603409961674,0.797431136935,0,61.9906730652,63.2770462036,87.532043457,1.41833174229
1646227760327963416,5,1646227760327963416,r1000913c5/base_front_laser_link,0,1646227760327963416,v/m1vw10zy74w/map,-2.70710145172,-2.25518473438,0.165,0.0,0.0,-0.546592138859,0.837398969272,0,61.4956741333,62.9801521301,87.3669433594,1.46226334572
1646227760485042627,6,1646227760485042627,r1000913c5/base_front_laser_link,0,1646227760485042627,v/m1vw10zy74w/map,-2.68814325406,-2.24436930787,0.165,0.0,0.0,-0.518228322088,0.855242308463,0,60.3173942566,62.5997581482,87.6149978638,1.6717479229
1646227760720737249,7,1646227760720737249,r1000913c5/base_front_laser_link,0,1646227760720737249,v/m1vw10zy74w/map,-2.65655653803,-2.22825750826,0.165,0.0,0.0,-0.470872145485,0.882201463729,0,58.0354766846,62.0292205811,88.7371368408,2.2359726429
1646227760877808862,8,1646227760877808862,r1000913c5/base_front_laser_link,0,1646227760877808862,v/m1vw10zy74w/map,-2.63720420629,-2.2145141673,0.165,0.0,0.0,-0.439327686788,0.898326880162,0,58.6209564209,61.6505241394,88.7911071777,2.38019418716
1646227761036895435,9,1646227761036895435,r1000913c5/base_front_laser_link,0,1646227761036895435,v/m1vw10zy74w/map,-2.61817963671,-2.19668363042,0.165,0.0,0.0,-0.406848727109,0.913495546376,0,55.9323387146,61.0787086487,89.7245407104,2.88194537163
1646227761193936389,10,1646227761193936389,r1000913c5/base_front_laser_link,0,1646227761193936389,v/m1vw10zy74w/map,-2.60099419455,-2.18017797061,0.165,0.0,0.0,-0.374080164658,0.92739637179,0,57.1044845581,60.717414856,89.6727600098,2.9851140976
1646227761350061506,11,1646227761350061506,r1000913c5/base_front_laser_link,0,1646227761350061506,v/m1vw10zy74w/map,-2.57876580943,-2.16280967566,0.165,0.0,0.0,-0.341316397058,0.939948465129,0,54.9274101257,60.2349128723,90.1369628906,3.30068206787
1646227761586230384,12,1646227761586230384,r1000913c5/base_front_laser_link,0,1646227761586230384,v/m1vw10zy74w/map,-2.55533694998,-2.13035271378,0.165,0.0,0.0,-0.290658879809,0.956826742722,0,52.9036178589,59.6709671021,90.9443740845,3.75780272484
1646227761744085066,13,1646227761744085066,r1000913c5/base_front_laser_link,0,1646227761744085066,v/m1vw10zy74w/map,-2.54291614474,-2.10999304168,0.165,0.0,0.0,-0.256403505393,0.966569833184,0,50.3629150391,59.0061073303,92.1594619751,4.38445091248
1646227761979965493,14,1646227761979965493,r1000913c5/base_front_laser_link,0,1646227761979965493,v/m1vw10zy74w/map,-2.53546927121,-2.07275367444,0.165,0.0,0.0,-0.204549083551,0.978856308361,0,51.4843826294,58.5046577454,92.4545211792,4.64995288849
1646227762137135009,15,1646227762137135009,r1000913c5/base_front_laser_link,0,1646227762137135009,v/m1vw10zy74w/map,-2.52490405705,-2.04803860228,0.165,0.0,0.0,-0.168461561668,0.985708223685,0,52.9106903076,58.1550369263,92.2698287964,4.70493030548
1646227762216072321,16,1646227762216072321,r1000913c5/base_front_laser_link,0,1646227762216072321,v/m1vw10zy74w/map,-2.52096442869,-2.0367304544,0.165,0.0,0.0,-0.150895786553,0.988549675839,0,51.0750732422,57.7385673523,92.3438034058,4.86841106415
1646227762373219482,17,1646227762373219482,r1000913c5/base_front_laser_link,0,1646227762373219482,v/m1vw10zy74w/map,-2.50808216704,-2.01664718475,0.165,0.0,0.0,-0.114630492826,0.993408199138,0,47.0362319946,57.1439933777,93.2074584961,5.35448932648
1646227762530865604,18,1646227762530865604,r1000913c5/base_front_laser_link,0,1646227762530865604,v/m1vw10zy74w/map,-2.50341013821,-1.99331805196,0.165,0.0,0.0,-0.0792545865565,0.99685440788,0,47.3192939758,56.6269035339,93.6393127441,5.67080259323
1646227762609197942,19,1646227762609197942,r1000913c5/base_front_laser_link,0,1646227762609197942,v/m1vw10zy74w/map,-2.50213478785,-1.9794181788,0.165,0.0,0.0,-0.0616325035956,0.998098910179,0,48.4241714478,56.2167663574,93.665763855,5.8163318634
1646227762846112430,20,1646227762846112430,r1000913c5/base_front_laser_link,0,1646227762846112430,v/m1vw10zy74w/map,-2.50410019827,-1.9647834403,0.165,0.0,0.0,-0.00940865436165,0.999955737632,0,48.9170341492,55.8691596985,93.5349731445,5.88860464096
1646227763082387478,21,1646227763082387478,r1000913c5/base_front_laser_link,0,1646227763082387478,v/m1vw10zy74w/map,-2.50695248275,-1.93172304868,0.165,0.0,0.0,0.0436111844755,0.999048579694,0,45.8951263428,55.4157943726,93.7983093262,6.12750530243
1646227763396120739,22,1646227763396120739,r1000913c5/base_front_laser_link,0,1646227763396120739,v/m1vw10zy74w/map,-2.51423150412,-1.87430423458,0.165,0.0,0.0,0.114188830141,0.993459063611,0,49.8938026428,55.1757087708,93.4647445679,6.09634542465
1646227763711098427,23,1646227763711098427,r1000913c5/base_front_laser_link,0,1646227763711098427,v/m1vw10zy74w/map,-2.5306777111,-1.82861746248,0.165,0.0,0.0,0.183524409319,0.98301515308,0,50.8239860535,54.9943885803,93.0788421631,6.02815055847
1646227763947187972,24,1646227763947187972,r1000913c5/base_front_laser_link,0,1646227763947187972,v/m1vw10zy74w/map,-2.55600947252,-1.76087693362,0.165,0.0,0.0,0.234667238501,0.972075762055,0,53.3093605042,54.9269866943,92.6595153809,5.91084289551
1646227764104208405,25,1646227764104208405,r1000913c5/base_front_laser_link,0,1646227764104208405,v/m1vw10zy74w/map,-2.56669687641,-1.74287997543,0.165,0.0,0.0,0.269484732755,0.963004661885,0,53.9706993103,54.8902053833,92.2735748291,5.79445552826
1646227764419198192,26,1646227764419198192,r1000913c5/base_front_laser_link,0,1646227764419198192,v/m1vw10zy74w/map,-2.58969501561,-1.70745798525,0.165,0.0,0.0,0.335371419007,0.942085989341,0,50.5121955872,54.7280578613,91.9602355957,5.74406051636
1646227764655259840,27,1646227764655259840,r1000913c5/base_front_laser_link,0,1646227764655259840,v/m1vw10zy74w/map,-2.61384314906,-1.68247351231,0.165,0.0,0.0,0.384448108621,0.923146603621,0,53.0487213135,54.6680793762,91.6049194336,5.64561271667
1646227765442516903,28,1646227765442516903,r1000913c5/base_front_laser_link,0,1646227765442516903,v/m1vw10zy74w/map,-2.66932644514,-1.62273473289,0.165,0.0,0.0,0.486532101537,0.873662700459,0,54.3145370483,54.6558914185,91.2887039185,5.5442700386
1646227765678392774,29,1646227765678392774,r1000913c5/base_front_laser_link,0,1646227765678392774,v/m1vw10zy74w/map,-2.66634477328,-1.61114762215,0.165,0.0,0.0,0.498034090216,0.867157451091,0,54.9703788757,54.6663742065,91.0108032227,5.44814348221
1646227765836298298,30,1646227765836298298,r1000913c5/base_front_laser_link,0,1646227765836298298,v/m1vw10zy74w/map,-2.66659561729,-1.59368593824,0.165,0.0,0.0,0.509415781008,0.860520518093,0,54.2425994873,54.6527023315,90.7240371704,5.35711193085
1646227766073375266,31,1646227766073375266,r1000913c5/base_front_laser_link,0,1646227766073375266,v/m1vw10zy74w/map,-2.66569676191,-1.56334138747,0.165,0.0,0.0,0.526385503515,0.850246024213,0,54.926448822,54.6612586975,90.4719161987,5.27022075653
1646227766230364101,32,1646227766230364101,r1000913c5/base_front_laser_link,0,1646227766230364101,v/m1vw10zy74w/map,-2.66550585859,-1.53918285497,0.165,0.0,0.0,0.539402421145,0.842048115052,0,53.7768630981,54.6344566345,90.2029724121,5.18950414658
1646227766388331823,33,1646227766388331823,r1000913c5/base_front_laser_link,0,1646227766388331823,v/m1vw10zy74w/map,-2.66152338516,-1.5086344168,0.165,0.0,0.0,0.552031511735,0.833823248687,0,54.3826599121,54.6270523071,89.9584121704,5.11045312881
1646227766625457565,34,1646227766625457565,r1000913c5/base_front_laser_link,0,1646227766625457565,v/m1vw10zy74w/map,-2.65691937039,-1.46487369169,0.165,0.0,0.0,0.567033180083,0.823694951232,0,53.1119918823,54.5837631226,89.7075042725,5.04124736786
1646227766784325687,35,1646227766784325687,r1000913c5/base_front_laser_link,0,1646227766784325687,v/m1vw10zy74w/map,-2.65367123222,-1.43236731808,0.165,0.0,0.0,0.577096260796,0.816676132733,0,57.2355232239,54.6574249268,89.6223983765,4.98832464218
1646227767020440952,36,1646227767020440952,r1000913c5/base_front_laser_link,0,1646227767020440952,v/m1vw10zy74w/map,-2.6470500357,-1.37416490065,0.165,0.0,0.0,0.589975221718,0.807421350819,0,55.0727767944,54.6686515808,89.4257354736,4.91902828217
1646227767099031524,37,1646227767099031524,r1000913c5/base_front_laser_link,0,1646227767099031524,v/m1vw10zy74w/map,-2.64461094698,-1.35518237637,0.165,0.0,0.0,0.594030761593,0.804442325018,0,54.2001686096,54.6563224792,89.2144088745,4.85269498825
1646227767178338775,38,1646227767178338775,r1000913c5/base_front_laser_link,0,1646227767178338775,v/m1vw10zy74w/map,-2.64217685412,-1.33496158417,0.165,0.0,0.0,0.598269192743,0.801295184695,0,54.6983184814,54.6573982239,89.0226669312,4.78842258453
1646227767335222002,39,1646227767335222002,r1000913c5/base_front_laser_link,0,1646227767335222002,v/m1vw10zy74w/map,-2.63774860412,-1.29315458812,0.165,0.0,0.0,0.60688533064,0.794789403209,0,53.2999267578,54.623462677,88.8179779053,4.73150444031
1646227767492445684,40,1646227767492445684,r1000913c5/base_front_laser_link,0,1646227767492445684,v/m1vw10zy74w/map,-2.63725669411,-1.25195996428,0.165,0.0,0.0,0.616118863105,0.787653189244,0,56.7693443298,54.6758003235,88.7277755737,4.68399095535
1646227767649454847,41,1646227767649454847,r1000913c5/base_front_laser_link,0,1646227767649454847,v/m1vw10zy74w/map,-2.63732023571,-1.20467322733,0.165,0.0,0.0,0.628385447602,0.777902133461,0,55.7484054565,54.7013397217,88.5897674561,4.62947559357
1646227767806764557,42,1646227767806764557,r1000913c5/base_front_laser_link,0,1646227767806764557,v/m1vw10zy74w/map,-2.64134689837,-1.15332997691,0.165,0.0,0.0,0.644333991428,0.764744210498,0,57.1837806702,54.7590713501,88.5280838013,4.58967018127
1646227767885866382,43,1646227767885866382,r1000913c5/base_front_laser_link,0,1646227767885866382,v/m1vw10zy74w/map,-2.64542368887,-1.12660428085,0.165,0.0,0.0,0.653783607744,0.75668156727,0,54.1268196106,54.7447013855,88.3556671143,4.53698968887
1646227768043437370,44,1646227768043437370,r1000913c5/base_front_laser_link,0,1646227768043437370,v/m1vw10zy74w/map,-2.66233936762,-1.07010967919,0.165,0.0,0.0,0.675836578174,0.737051504036,0,56.0142326355,54.7729110718,88.2402954102,4.48912715912
1646227768279382100,45,1646227768279382100,r1000913c5/base_front_laser_link,0,1646227768279382100,v/m1vw10zy74w/map,-2.69555167727,-0.983098613767,0.165,0.0,0.0,0.714962887918,0.699162405239,0,59.5940818787,54.8777198792,88.3642883301,4.4955239296
1646227768436691974,46,1646227768436691974,r1000913c5/base_front_laser_link,0,1646227768436691974,v/m1vw10zy74w/map,-2.72572237954,-0.928931087382,0.165,0.0,0.0,-0.745141485179,-0.666906415522,0,58.0272521973,54.944732666,88.3549118042,4.47006130219
1646227768515476298,47,1646227768515476298,r1000913c5/base_front_laser_link,0,1646227768515476298,v/m1vw10zy74w/map,-2.74566579486,-0.899853689755,0.165,0.0,0.0,-0.760845726896,-0.648932800731,0,59.9254188538,55.0484962463,88.4894104004,4.48030424118
1646227768594386472,48,1646227768594386472,r1000913c5/base_front_laser_link,0,1646227768594386472,v/m1vw10zy74w/map,-2.76675718512,-0.870546562081,0.165,0.0,0.0,-0.775844835468,-0.630923760273,0,63.4570541382,55.2201004028,88.9998245239,4.59324216843
1646227768987562247,49,1646227768987562247,r1000913c5/base_front_laser_link,0,1646227768987562247,v/m1vw10zy74w/map,-2.90538377868,-0.727931959942,0.165,0.0,0.0,-0.84749457604,-0.53080405385,0,62.0911521912,55.3575210571,89.3039779663,4.64882040024
1646227769145507389,50,1646227769145507389,r1000913c5/base_front_laser_link,0,1646227769145507389,v/m1vw10zy74w/map,-2.96587803016,-0.711424573193,0.165,0.0,0.0,-0.878468596438,-0.477800089025,0,63.0134048462,55.5076370239,89.6835708618,4.7253112793
1646227769381695704,51,1646227769381695704,r1000913c5/base_front_laser_link,0,1646227769381695704,v/m1vw10zy74w/map,-3.09923069343,-0.637337808501,0.165,0.0,0.0,-0.921259878659,-0.38894760055,0,70.4215393066,55.7944412231,91.1408843994,5.11548089981
1646227769696427637,52,1646227769696427637,r1000913c5/base_front_laser_link,0,1646227769696427637,v/m1vw10zy74w/map,-3.27876877785,-0.623681350999,0.165,0.0,0.0,-0.964341081379,-0.264662575302,0,74.0895767212,56.1396331787,93.1049499512,5.65510654449
1646227769932697909,53,1646227769932697909,r1000913c5/base_front_laser_link,0,1646227769932697909,v/m1vw10zy74w/map,-3.43987853469,-0.617769387638,0.165,0.0,0.0,-0.981490416013,-0.191511261483,0,69.5643157959,56.3882369995,94.0638885498,5.89188241959
1646227770089549954,54,1646227770089549954,r1000913c5/base_front_laser_link,0,1646227770089549954,v/m1vw10zy74w/map,-3.53347316305,-0.624648035607,0.165,0.0,0.0,-0.988877018879,-0.148735475034,0,73.249710083,56.69480896,95.4875259399,6.26423835754
1646227770247517422,55,1646227770247517422,r1000913c5/base_front_laser_link,0,1646227770247517422,v/m1vw10zy74w/map,-3.62652931579,-0.626322728835,0.165,0.0,0.0,-0.994178309172,-0.107747341366,0,71.5299530029,56.9597244263,96.5074920654,6.51592206955
1646227770483597334,56,1646227770483597334,r1000913c5/base_front_laser_link,0,1646227770483597334,v/m1vw10zy74w/map,-3.76539903152,-0.632209189363,0.165,0.0,0.0,-0.998244103226,-0.0592343681829,0,73.1632385254,57.2439956665,97.6583938599,6.80479860306
1646227770562416003,57,1646227770562416003,r1000913c5/base_front_laser_link,0,1646227770562416003,v/m1vw10zy74w/map,-3.81599062478,-0.636638161875,0.165,0.0,0.0,-0.999000899265,-0.0446900801907,0,72.1757278442,57.5014381409,98.5735244751,7.02402973175
1646227770877600693,58,1646227770877600693,r1000913c5/base_front_laser_link,0,1646227770877600693,v/m1vw10zy74w/map,-3.99091832806,-0.668111977648,0.165,0.0,0.0,-0.99995954712,-0.00899467200629,0,69.1236114502,57.698425293,99.0755615234,7.1257109642
1646227771036725947,59,1646227771036725947,r1000913c5/base_front_laser_link,0,1646227771036725947,v/m1vw10zy74w/map,-4.09518298308,-0.680579598078,0.165,0.0,0.0,-0.999982961865,0.00583746344967,0,70.8441314697,57.9175186157,99.715637207,7.26603841782
1646227771194041333,60,1646227771194041333,r1000913c5/base_front_laser_link,0,1646227771194041333,v/m1vw10zy74w/map,-4.19845332379,-0.689253511367,0.165,0.0,0.0,-0.99990858119,0.0135214371551,0,68.262802124,58.0871162415,100.065040588,7.32597398758
1646227771430608283,61,1646227771430608283,r1000913c5/base_front_laser_link,0,1646227771430608283,v/m1vw10zy74w/map,-4.37018973234,-0.704631096176,0.165,0.0,0.0,-0.999771548182,0.021374083499,0,66.8281326294,58.228099823,100.278083801,7.34999370575
1646227771667595595,62,1646227771667595595,r1000913c5/base_front_laser_link,0,1646227771667595595,v/m1vw10zy74w/map,-4.54890834064,-0.717857012378,0.165,0.0,0.0,-0.999677449151,0.0253968041184,0,69.846282959,58.4125137329,100.720428467,7.4359703064
1646227771825561586,63,1646227771825561586,r1000913c5/base_front_laser_link,0,1646227771825561586,v/m1vw10zy74w/map,-4.67086209803,-0.725425600037,0.165,0.0,0.0,-0.99965802219,0.0261503091826,0,71.759979248,58.6210670471,101.310203552,7.56304454803
1646227771983777941,64,1646227771983777941,r1000913c5/base_front_laser_link,0,1646227771983777941,v/m1vw10zy74w/map,-4.79581301394,-0.734906271262,0.165,0.0,0.0,-0.999691854892,0.0248232806659,0,69.2677154541,58.7848625183,101.641983032,7.61903953552
1646227772139943358,65,1646227772139943358,r1000913c5/base_front_laser_link,0,1646227772139943358,v/m1vw10zy74w/map,-4.91868622902,-0.740534208838,0.165,0.0,0.0,-0.999777930773,0.0210734225688,0,66.3430252075,58.8993797302,101.751075745,7.61723232269
1646227772377187128,66,1646227772377187128,r1000913c5/base_front_laser_link,0,1646227772377187128,v/m1vw10zy74w/map,-5.11475731809,-0.731764656421,0.165,0.0,0.0,-0.999896741725,0.0143703126967,0,68.0763549805,59.0363502502,101.962333679,7.64199399948
1646227772612608665,67,1646227772612608665,r1000913c5/base_front_laser_link,0,1646227772612608665,v/m1vw10zy74w/map,-5.32940094719,-0.739201561118,0.165,0.0,0.0,-0.999917404237,0.0128524201453,0,67.291633606,59.1577529907,102.109344482,7.6505317688
1646227772771615705,68,1646227772771615705,r1000913c5/base_front_laser_link,0,1646227772771615705,v/m1vw10zy74w/map,-5.47028582028,-0.742857274442,0.165,0.0,0.0,-0.999926121983,0.0121552694738,0,65.1387176514,59.2444343567,102.128814697,7.62812709808
1646227772927714884,69,1646227772927714884,r1000913c5/base_front_laser_link,0,1646227772927714884,v/m1vw10zy74w/map,-5.61453345364,-0.743896735987,0.165,0.0,0.0,-0.999955024606,0.009484132315,0,69.2970352173,59.38804245,102.390167236,7.66737604141
1646227773243712161,70,1646227773243712161,r1000913c5/base_front_laser_link,0,1646227773243712161,v/m1vw10zy74w/map,-5.89994820063,-0.742597365532,0.165,0.0,0.0,-0.999998358395,0.00181196204709,0,70.5792922974,59.545665741,102.727882385,7.72740697861
1646227773399891387,71,1646227773399891387,r1000913c5/base_front_laser_link,0,1646227773399891387,v/m1vw10zy74w/map,-6.04596539052,-0.744827630889,0.165,0.0,0.0,-0.999998339826,-0.00182218128007,0,67.4364395142,59.6552581787,102.842086792,7.72894382477
1646227773558570279,72,1646227773558570279,r1000913c5/base_front_laser_link,0,1646227773558570279,v/m1vw10zy74w/map,-6.19605816434,-0.739691239501,0.165,0.0,0.0,-0.999984104443,-0.00563833849931,0,68.8467025757,59.7811698914,103.031494141,7.75010967255
1646227773715179712,73,1646227773715179712,r1000913c5/base_front_laser_link,0,1646227773715179712,v/m1vw10zy74w/map,-6.34838179267,-0.74096643576,0.165,0.0,0.0,-0.999985312805,-0.00541979464686,0,69.104385376,59.9071578979,103.225479126,7.77277469635
1646227773950711306,74,1646227773950711306,r1000913c5/base_front_laser_link,0,1646227773950711306,v/m1vw10zy74w/map,-6.58034453714,-0.73890677337,0.165,0.0,0.0,-0.999996220799,-0.00274925204754,0,66.2671890259,59.9919586182,103.256744385,7.7549290657
1646227774107692839,75,1646227774107692839,r1000913c5/base_front_laser_link,0,1646227774107692839,v/m1vw10zy74w/map,-6.74006498481,-0.735345441575,0.165,0.0,0.0,-0.999999593341,-0.000901841117472,0,66.9743041992,60.0838317871,103.317581177,7.74458265305
1646227774265731043,76,1646227774265731043,r1000913c5/base_front_laser_link,0,1646227774265731043,v/m1vw10zy74w/map,-6.90601819669,-0.732785737979,0.165,0.0,0.0,-0.999996386063,0.00268846796827,0,64.846244812,60.1456794739,103.283424377,7.71258211136
1646227774422980972,77,1646227774422980972,r1000913c5/base_front_laser_link,0,1646227774422980972,v/m1vw10zy74w/map,-7.07472608566,-0.724541752917,0.165,0.0,0.0,-0.999993726468,0.00354217787828,0,70.5618667603,60.2792205811,103.536941528,7.75257301331
1646227774579895769,78,1646227774579895769,r1000913c5/base_front_laser_link,0,1646227774579895769,v/m1vw10zy74w/map,-7.24882159631,-0.725208022721,0.165,0.0,0.0,-0.999990145508,0.00443946926046,0,66.928276062,60.3633880615,103.58026123,7.73895788193
1646227774658804967,79,1646227774658804967,r1000913c5/base_front_laser_link,0,1646227774658804967,v/m1vw10zy74w/map,-7.33492250551,-0.723868157607,0.165,0.0,0.0,-0.999992636693,0.00383752003488,0,68.6077346802,60.4664421082,103.701042175,7.74486684799
1646227774894935464,80,1646227774894935464,r1000913c5/base_front_laser_link,0,1646227774894935464,v/m1vw10zy74w/map,-7.60024206536,-0.724158680669,0.165,0.0,0.0,-0.999991039758,0.00423324981443,0,61.4730072021,60.4788665771,103.570236206,7.69712162018
1646227774972780313,81,1646227774972780313,r1000913c5/base_front_laser_link,0,1646227774972780313,v/m1vw10zy74w/map,-7.68188032121,-0.72463986845,0.165,0.0,0.0,-0.999990574994,0.0043416497327,0,60.208442688,60.4755706787,103.424125671,7.64951944351
1646227775208781711,82,1646227775208781711,r1000913c5/base_front_laser_link,0,1646227775208781711,v/m1vw10zy74w/map,-7.92160656539,-0.724323396887,0.165,0.0,0.0,-0.999986812317,0.00513567830296,0,64.6499176025,60.5258636475,103.375442505,7.61652755737
1646227775524775336,83,1646227775524775336,r1000913c5/base_front_laser_link,0,1646227775524775336,v/m1vw10zy74w/map,-8.17267955913,-0.72150092613,0.165,0.0,0.0,-0.999992252883,0.00393626391651,0,69.7820281982,60.6360549927,103.548774719,7.63757276535
1646227775602840510,84,1646227775602840510,r1000913c5/base_front_laser_link,0,1646227775602840510,v/m1vw10zy74w/map,-8.21791499974,-0.722327322462,0.165,0.0,0.0,-0.999988158784,0.00486644550226,0,68.8266525269,60.7324180603,103.663749695,7.64377689362
1646227775839956869,85,1646227775839956869,r1000913c5/base_front_laser_link,0,1646227775839956869,v/m1vw10zy74w/map,-8.322561646,-0.726993294527,0.165,0.0,0.0,-0.999971273035,0.00757978265332,0,69.0956192017,60.829662323,103.785690308,7.65200901031
1646227776154953936,86,1646227776154953936,r1000913c5/base_front_laser_link,0,1646227776154953936,v/m1vw10zy74w/map,-8.45305806292,-0.733198488627,0.165,0.0,0.0,-0.999947151609,0.0102807582197,0,69.8670349121,60.9335403442,103.940071106,7.66884422302
1646227776312832086,87,1646227776312832086,r1000913c5/base_front_laser_link,0,1646227776312832086,v/m1vw10zy74w/map,-8.50591415241,-0.736346805861,0.165,0.0,0.0,-0.999943143544,0.010663474101,0,69.7709121704,61.0339660645,104.081832886,7.68262147903
1646227776470855723,88,1646227776470855723,r1000913c5/base_front_laser_link,0,1646227776470855723,v/m1vw10zy74w/map,-8.55760331516,-0.737564014363,0.165,0.0,0.0,-0.999941339792,0.0108312960759,0,64.9636459351,61.0781173706,104.028701782,7.65019416809
1646227776629017758,89,1646227776629017758,r1000913c5/base_front_laser_link,0,1646227776629017758,v/m1vw10zy74w/map,-8.60498423351,-0.742739960998,0.165,0.0,0.0,-0.999929927421,0.0118380846651,0,67.2447662354,61.1466369629,104.051086426,7.63481521606
1646227776785965362,90,1646227776785965362,r1000913c5/base_front_laser_link,0,1646227776785965362,v/m1vw10zy74w/map,-8.65227986176,-0.746145059259,0.165,0.0,0.0,-0.999885951778,0.0151024314773,0,66.8340759277,61.2091369629,104.056098938,7.61565494537
1646227777023950523,91,1646227777023950523,r1000913c5/base_front_laser_link,0,1646227777023950523,v/m1vw10zy74w/map,-8.71925605376,-0.761968979014,0.165,0.0,0.0,-0.999527426761,0.0307396023335,0,67.5796356201,61.2783813477,104.086662292,7.60276126862
1646227777259857595,92,1646227777259857595,r1000913c5/base_front_laser_link,0,1646227777259857595,v/m1vw10zy74w/map,-8.7890380388,-0.77649334539,0.165,0.0,0.0,-0.998863397052,0.0476645993419,0,60.3072013855,61.2679367065,103.953933716,7.56199932098
1646227777416919520,93,1646227777416919520,r1000913c5/base_front_laser_link,0,1646227777416919520,v/m1vw10zy74w/map,-8.83038411,-0.78845164889,0.165,0.0,0.0,-0.998264540413,0.05888894084,0,62.3080101013,61.2790031433,103.845001221,7.52199840546
1646227777574682424,94,1646227777574682424,r1000913c5/base_front_laser_link,0,1646227777574682424,v/m1vw10zy74w/map,-8.87541999986,-0.801693252399,0.165,0.0,0.0,-0.997500002222,0.0706664387631,0,63.170539856,61.2989120483,103.752105713,7.48439741135
1646227777731798874,95,1646227777731798874,r1000913c5/base_front_laser_link,0,1646227777731798874,v/m1vw10zy74w/map,-8.9094399122,-0.810521067905,0.165,0.0,0.0,-0.996545184789,0.0830523610431,0,60.1667518616,61.2871208191,103.624519348,7.44579839706
1646227777888535926,96,1646227777888535926,r1000913c5/base_front_laser_link,0,1646227777888535926,v/m1vw10zy74w/map,-8.94589480991,-0.828360074863,0.165,0.0,0.0,-0.99504916659,0.0993838823383,0,59.6176872253,61.269908905,103.49647522,7.40885591507
1646227778125835342,97,1646227778125835342,r1000913c5/base_front_laser_link,0,1646227778125835342,v/m1vw10zy74w/map,-8.98882088936,-0.857293837259,0.165,0.0,0.0,-0.99153703551,0.129824139556,0,64.31980896,61.30103302,103.432037354,7.3770031929
1646227778282043085,98,1646227778282043085,r1000913c5/base_front_laser_link,0,1646227778282043085,v/m1vw10zy74w/map,-8.99880015871,-0.87877161408,0.165,0.0,0.0,-0.987767078796,0.155936519284,0,68.3757095337,61.3724937439,103.493385315,7.37363100052
1646227778439332272,99,1646227778439332272,r1000913c5/base_front_laser_link,0,1646227778439332272,v/m1vw10zy74w/map,-8.99397227314,-0.895175380911,0.165,0.0,0.0,-0.983552467764,0.180622654047,0,66.677520752,61.4255447388,103.491897583,7.3554520607
1646227778675198381,100,1646227778675198381,r1000913c5/base_front_laser_link,0,1646227778675198381,v/m1vw10zy74w/map,-8.98477238847,-0.923031697355,0.165,0.0,0.0,-0.97413089304,0.22598451988,0,65.9135742188,61.4699783325,103.466560364,7.33219432831
1646227778833101068,101,1646227778833101068,r1000913c5/base_front_laser_link,0,1646227778833101068,v/m1vw10zy74w/map,-8.97218728829,-0.946221070228,0.165,0.0,0.0,-0.964463709606,0.264215353176,0,61.0058822632,61.4654273987,103.353279114,7.29595088959
1646227778989974724,102,1646227778989974724,r1000913c5/base_front_laser_link,0,1646227778989974724,v/m1vw10zy74w/map,-8.9681173709,-0.962046789884,0.165,0.0,0.0,-0.954868895683,0.297027594774,0,64.2506866455,61.4924697876,103.288322449,7.26528358459
1646227779147121749,103,1646227779147121749,r1000913c5/base_front_laser_link,0,1646227779147121749,v/m1vw10zy74w/map,-8.95417181521,-0.981008966358,0.165,0.0,0.0,-0.943836130942,0.330413919089,0,63.8160743713,61.5148124695,103.215370178,7.23351860046
1646227779226106063,104,1646227779226106063,r1000913c5/base_front_laser_link,0,1646227779226106063,v/m1vw10zy74w/map,-8.95868691254,-0.991109677871,0.165,0.0,0.0,-0.938920078155,0.344135274039,0,61.4515571594,61.5142097473,103.110191345,7.19866037369
1646227779541070597,105,1646227779541070597,r1000913c5/base_front_laser_link,0,1646227779541070597,v/m1vw10zy74w/map,-8.92802659107,-1.02386665816,0.165,0.0,0.0,-0.913328108937,0.407224465653,0,60.397819519,61.5036773682,102.999038696,7.16511964798
1646227779619093272,106,1646227779619093272,r1000913c5/base_front_laser_link,0,1646227779619093272,v/m1vw10zy74w/map,-8.9190111557,-1.03142299323,0.165,0.0,0.0,-0.906037397404,0.423197630552,0,62.1603965759,61.5098152161,102.904388428,7.13152456284
1646227779857061594,107,1646227779857061594,r1000913c5/base_front_laser_link,0,1646227779857061594,v/m1vw10zy74w/map,-8.89029907453,-1.04117203731,0.165,0.0,0.0,-0.881848152549,0.471533493876,0,63.1686515808,61.525177002,102.824920654,7.09991598129
1646227779935204360,108,1646227779935204360,r1000913c5/base_front_laser_link,0,1646227779935204360,v/m1vw10zy74w/map,-8.8804241411,-1.04738877574,0.165,0.0,0.0,-0.87349863805,0.48682659061,0,61.5634651184,61.5255279541,102.72644043,7.06697034836
1646227780014202206,109,1646227780014202206,r1000913c5/base_front_laser_link,0,1646227780014202206,v/m1vw10zy74w/map,-8.86925061915,-1.05409187553,0.165,0.0,0.0,-0.868326201059,0.495993556968,0,60.9912643433,61.5206680298,102.624656677,7.03466320038
1646227780093200708,110,1646227780093200708,r1000913c5/base_front_laser_link,0,1646227780093200708,v/m1vw10zy74w/map,-8.8587497756,-1.06042457826,0.165,0.0,0.0,-0.859442379067,0.511232625194,0,63.0278968811,61.5342483521,102.546478271,7.00407552719
1646227780251227009,111,1646227780251227009,r1000913c5/base_front_laser_link,0,1646227780251227009,v/m1vw10zy74w/map,-8.82233564659,-1.04567246814,0.165,0.0,0.0,-0.842619300791,0.538509715728,0,64.5494155884,61.5611686707,102.495986938,6.97827243805
1646227780408770378,112,1646227780408770378,r1000913c5/base_front_laser_link,0,1646227780408770378,v/m1vw10zy74w/map,-8.79975722445,-1.05301338485,0.165,0.0,0.0,-0.823436976998,0.567407741322,0,62.5251045227,61.5696983337,102.412620544,6.94764137268
1646227780487339728,113,1646227780487339728,r1000913c5/base_front_laser_link,0,1646227780487339728,v/m1vw10zy74w/map,-8.78912177345,-1.05682292546,0.165,0.0,0.0,-0.813661946272,0.581338315603,0,64.3245544434,61.5938644409,102.358795166,6.92164182663
1646227780566243493,114,1646227780566243493,r1000913c5/base_front_laser_link,0,1646227780566243493,v/m1vw10zy74w/map,-8.77921442283,-1.0595510492,0.165,0.0,0.0,-0.805455920499,0.592655684301,0,65.4491119385,61.6273880005,102.329154968,6.90058803558
1646227780723232804,115,1646227780723232804,r1000913c5/base_front_laser_link,0,1646227780723232804,v/m1vw10zy74w/map,-8.76026998512,-1.06480300622,0.165,0.0,0.0,-0.787708357949,0.616048328312,0,66.4032821655,61.6685600281,102.323005676,6.88481473923
1646227781040156624,116,1646227781040156624,r1000913c5/base_front_laser_link,0,1646227781040156624,v/m1vw10zy74w/map,-8.7209539819,-1.07092401103,0.165,0.0,0.0,-0.753695516903,0.657223757787,0,67.890335083,61.721736908,102.359230042,6.87916469574
1646227782775362284,117,1646227782775362284,r1000913c5/base_front_laser_link,0,1646227782775362284,v/m1vw10zy74w/map,-8.7007887001,-1.09724993562,0.165,0.0,0.0,-0.704712263567,0.70949321743,0,70.1217498779,61.7929229736,102.472564697,6.89321470261
1646227782853284811,118,1646227782853284811,r1000913c5/base_front_laser_link,0,1646227782853284811,v/m1vw10zy74w/map,-8.70078986636,-1.09726272516,0.165,0.0,0.0,-0.704713654109,0.709491836255,0,69.9784240723,61.8617095947,102.576217651,6.90483665466
1646227782933031330,119,1646227782933031330,r1000913c5/base_front_laser_link,0,1646227782933031330,v/m1vw10zy74w/map,-8.70078768238,-1.09729406909,0.165,0.0,0.0,-0.704710807278,0.709494663902,0,69.7788009644,61.9276847839,102.668617249,6.91364336014
1646227783012268117,120,1646227783012268117,r1000913c5/base_front_laser_link,0,1646227783012268117,v/m1vw10zy74w/map,-8.70075719741,-1.09862328041,0.165,0.0,0.0,-0.704695961576,0.709509409196,0,69.8488235474,61.9931488037,102.760147095,6.92233276367
1646227783090301712,121,1646227783090301712,r1000913c5/base_front_laser_link,0,1646227783090301712,v/m1vw10zy74w/map,-8.70129011023,-1.10210860982,0.165,0.0,0.0,-0.705302537152,0.708906433239,0,72.3361434937,62.0779304504,102.948860168,6.9569773674
1646227783326421754,122,1646227783326421754,r1000913c5/base_front_laser_link,0,1646227783326421754,v/m1vw10zy74w/map,-8.70277947631,-1.13039579669,0.165,0.0,0.0,-0.706981313472,0.707232226642,0,69.8959274292,62.1414909363,103.034011841,6.9641752243
1646227783404234183,123,1646227783404234183,r1000913c5/base_front_laser_link,0,1646227783404234183,v/m1vw10zy74w/map,-8.70094202865,-1.14832490398,0.165,0.0,0.0,-0.705122439562,0.709085569749,0,70.9054794312,62.2121658325,103.153121948,6.98031806946
1646227783483438254,124,1646227783483438254,r1000913c5/base_front_laser_link,0,1646227783483438254,v/m1vw10zy74w/map,-8.69870197538,-1.17084210672,0.165,0.0,0.0,-0.702957839492,0.711231520601,0,69.6852264404,62.2719497681,103.224472046,6.98417329788
1646227783640362179,125,1646227783640362179,r1000913c5/base_front_laser_link,0,1646227783640362179,v/m1vw10zy74w/map,-8.69401480943,-1.21807681913,0.165,0.0,0.0,-0.698814355038,0.715303080654,0,70.7823181152,62.3394927979,103.331619263,6.99737501144
1646227783719518050,126,1646227783719518050,r1000913c5/base_front_laser_link,0,1646227783719518050,v/m1vw10zy74w/map,-8.69144341336,-1.24144945793,0.165,0.0,0.0,-0.69670996772,0.717352926306,0,66.6757736206,62.3736381531,103.31413269,6.9801659584
1646227783876421883,127,1646227783876421883,r1000913c5/base_front_laser_link,0,1646227783876421883,v/m1vw10zy74w/map,-8.68688692216,-1.28669067302,0.165,0.0,0.0,-0.693453284326,0.720501590878,0,69.6723556519,62.4306602478,103.37815094,6.9824962616
1646227784034429454,128,1646227784034429454,r1000913c5/base_front_laser_link,0,1646227784034429454,v/m1vw10zy74w/map,-8.68642548738,-1.33170241748,0.165,0.0,0.0,-0.694799697906,0.719203295174,0,71.3050765991,62.4994544983,103.496208191,6.99891853333
1646227784112256802,129,1646227784112256802,r1000913c5/base_front_laser_link,0,1646227784112256802,v/m1vw10zy74w/map,-8.67852301124,-1.34540981487,0.165,0.0,0.0,-0.694065182091,0.719912163399,0,73.7666397095,62.5861244202,103.710395813,7.04142522812
1646227784270536539,130,1646227784270536539,r1000913c5/base_front_laser_link,0,1646227784270536539,v/m1vw10zy74w/map,-8.68187676199,-1.39052873678,0.165,0.0,0.0,-0.699366852546,0.71476290164,0,76.6250457764,62.6932907104,104.055480957,7.12072944641
1646227784349425569,131,1646227784349425569,r1000913c5/base_front_laser_link,0,1646227784349425569,v/m1vw10zy74w/map,-8.68388634737,-1.41300982033,0.165,0.0,0.0,-0.701964760292,0.712211678722,0,71.6819076538,62.7613868713,104.170921326,7.13651227951
1646227784427452076,132,1646227784427452076,r1000913c5/base_front_laser_link,0,1646227784427452076,v/m1vw10zy74w/map,-8.68598574017,-1.43515848392,0.165,0.0,0.0,-0.704461965029,0.709741741641,0,71.9072341919,62.8301544189,104.290725708,7.15352344513
1646227784585460324,133,1646227784585460324,r1000913c5/base_front_laser_link,0,1646227784585460324,v/m1vw10zy74w/map,-8.68696975734,-1.47365276063,0.165,0.0,0.0,-0.70673603014,0.707477337943,0,73.779876709,62.9118652344,104.479110718,7.18908119202
1646227784664432707,134,1646227784664432707,r1000913c5/base_front_laser_link,0,1646227784664432707,v/m1vw10zy74w/map,-8.68986799047,-1.49617964563,0.165,0.0,0.0,-0.709734438919,0.704469322407,0,74.2344741821,62.9957389832,104.680328369,7.22819757462
1646227784823001552,135,1646227784823001552,r1000913c5/base_front_laser_link,0,1646227784823001552,v/m1vw10zy74w/map,-8.69650063216,-1.541086037,0.165,0.0,0.0,-0.715951303045,0.698150221419,0,73.1349411011,63.0702896118,104.831298828,7.25367021561
1646227784979404173,136,1646227784979404173,r1000913c5/base_front_laser_link,0,1646227784979404173,v/m1vw10zy74w/map,-8.69442851098,-1.57296842445,0.165,0.0,0.0,-0.717824885397,0.696223695305,0,73.7803039551,63.1484680176,105.002410889,7.28464889526
1646227785058363943,137,1646227785058363943,r1000913c5/base_front_laser_link,0,1646227785058363943,v/m1vw10zy74w/map,-8.69775267477,-1.59472666287,0.165,0.0,0.0,-0.720503092315,0.693451724322,0,72.4346008301,63.2157554626,105.118560791,7.30093383789
1646227785137421149,138,1646227785137421149,r1000913c5/base_front_laser_link,0,1646227785137421149,v/m1vw10zy74w/map,-8.70045255782,-1.61682694393,0.165,0.0,0.0,-0.722366497888,0.691510406812,0,71.7627716064,63.2772483826,105.208648682,7.31046724319
1646227785374460795,139,1646227785374460795,r1000913c5/base_front_laser_link,0,1646227785374460795,v/m1vw10zy74w/map,-8.69551439709,-1.6826733755,0.165,0.0,0.0,-0.719617590258,0.694370595425,0,72.5470428467,63.343460083,105.321861267,7.32613325119
1646227785452408881,140,1646227785452408881,r1000913c5/base_front_laser_link,0,1646227785452408881,v/m1vw10zy74w/map,-8.69587281302,-1.70475096186,0.165,0.0,0.0,-0.719181321793,0.694822442344,0,70.4786376953,63.3940620422,105.367897034,7.32461071014
1646227785531362300,141,1646227785531362300,r1000913c5/base_front_laser_link,0,1646227785531362300,v/m1vw10zy74w/map,-8.69598880027,-1.72704954714,0.165,0.0,0.0,-0.718523837405,0.695502332909,0,72.3570785522,63.4571838379,105.468917847,7.33724546432
1646227785610577999,142,1646227785610577999,r1000913c5/base_front_laser_link,0,1646227785610577999,v/m1vw10zy74w/map,-8.69607860776,-1.7493681691,0.165,0.0,0.0,-0.717880277027,0.696166580536,0,69.0176391602,63.4960670471,105.474472046,7.32613563538
1646227785689520935,143,1646227785689520935,r1000913c5/base_front_laser_link,0,1646227785689520935,v/m1vw10zy74w/map,-8.69063972116,-1.77177458235,0.165,0.0,0.0,-0.714857973548,0.699269674485,0,69.5201187134,63.537902832,105.491043091,7.31771421432
1646227791197956408,144,1646227791197956408,r1000913c5/base_front_laser_link,0,1646227791197956408,v/m1vw10zy74w/map,-8.67102194327,-2.63150696202,0.165,0.0,0.0,-0.703994831557,0.710205095125,0,67.4102325439,63.5646057129,105.462654114,7.29934835434
1646227791276769209,145,1646227791276769209,r1000913c5/base_front_laser_link,0,1646227791276769209,v/m1vw10zy74w/map,-8.67094361784,-2.64731649037,0.165,0.0,0.0,-0.70405774026,0.710142730991,0,66.7336730957,63.5863113403,105.422897339,7.27886152267
1646227794898055554,146,1646227794898055554,r1000913c5/base_front_laser_link,0,1646227794898055554,v/m1vw10zy74w/map,-8.67635985897,-2.81682230863,0.165,0.0,0.0,-0.709746894483,0.704456773529,0,64.1038131714,63.5898323059,105.351882935,7.25401639938
1646227794976993998,147,1646227794976993998,r1000913c5/base_front_laser_link,0,1646227794976993998,v/m1vw10zy74w/map,-8.67635810277,-2.81680103017,0.165,0.0,0.0,-0.709745213845,0.704458466784,0,64.4749298096,63.5958137512,105.284812927,7.22966718674
1646227795134083768,148,1646227795134083768,r1000913c5/base_front_laser_link,0,1646227795134083768,v/m1vw10zy74w/map,-8.67611990613,-2.81518599925,0.165,0.0,0.0,-0.709506833979,0.704698554374,0,64.855255127,63.6042671204,105.222084045,7.20593976974
1646227795213001879,149,1646227795213001879,r1000913c5/base_front_laser_link,0,1646227795213001879,v/m1vw10zy74w/map,-8.67609196523,-2.81163027829,0.165,0.0,0.0,-0.70950352526,0.704701885653,0,66.209564209,63.621635437,105.176239014,7.18486785889
1646227795370130095,150,1646227795370130095,r1000913c5/base_front_laser_link,0,1646227795370130095,v/m1vw10zy74w/map,-8.67603072556,-2.79346359515,0.165,0.0,0.0,-0.709573019957,0.704631910538,0,64.0123138428,63.6242218018,105.107070923,7.16094875336
1646227795449275075,151,1646227795449275075,r1000913c5/base_front_laser_link,0,1646227795449275075,v/m1vw10zy74w/map,-8.67572050601,-2.78214557666,0.165,0.0,0.0,-0.709327613979,0.704878951344,0,64.3460388184,63.6289710999,105.041282654,7.13743782043
1646227795528267013,152,1646227795528267013,r1000913c5/base_front_laser_link,0,1646227795528267013,v/m1vw10zy74w/map,-8.67441581931,-2.76857428168,0.165,0.0,0.0,-0.708020764974,0.706191614483,0,65.773147583,63.6429862976,104.991081238,7.11603212357
1646227795686063746,153,1646227795686063746,r1000913c5/base_front_laser_link,0,1646227795686063746,v/m1vw10zy74w/map,-8.67265787633,-2.72765192534,0.165,0.0,0.0,-0.706199220327,0.708013178698,0,68.1990356445,63.6725692749,104.979270935,7.10223484039
1646227795765031653,154,1646227795765031653,r1000913c5/base_front_laser_link,0,1646227795765031653,v/m1vw10zy74w/map,-8.67184446821,-2.70524866361,0.165,0.0,0.0,-0.705265410529,0.708943369185,0,74.7412338257,63.7439804077,105.148223877,7.13474702835
1646227795842434590,155,1646227795842434590,r1000913c5/base_front_laser_link,0,1646227795842434590,v/m1vw10zy74w/map,-8.67149256321,-2.6834485225,0.165,0.0,0.0,-0.704761454182,0.7094443549,0,74.0861587524,63.8102760315,105.289489746,7.15973758698
1646227795921885524,156,1646227795921885524,r1000913c5/base_front_laser_link,0,1646227795921885524,v/m1vw10zy74w/map,-8.67218131484,-2.66090456632,0.165,0.0,0.0,-0.705350706187,0.708858505826,0,73.7461700439,63.8735618591,105.41558075,7.18067169189
1646227796079108698,157,1646227796079108698,r1000913c5/base_front_laser_link,0,1646227796079108698,v/m1vw10zy74w/map,-8.67417481874,-2.61511711959,0.165,0.0,0.0,-0.707327614003,0.706885879381,0,71.6437759399,63.9227409363,105.475975037,7.18441009521
1646227796157675653,158,1646227796157675653,r1000913c5/base_front_laser_link,0,1646227796157675653,v/m1vw10zy74w/map,-8.67527571369,-2.59087817157,0.165,0.0,0.0,-0.70853721991,0.705673442892,0,69.4060974121,63.9572296143,105.481712341,7.1748290062
1646227796314370205,159,1646227796314370205,r1000913c5/base_front_laser_link,0,1646227796314370205,v/m1vw10zy74w/map,-8.67715296646,-2.54306744664,0.165,0.0,0.0,-0.710416239175,0.703781761,0,66.4753265381,63.9729652405,105.437965393,7.15500116348
1646227796393986989,160,1646227796393986989,r1000913c5/base_front_laser_link,0,1646227796393986989,v/m1vw10zy74w/map,-8.67604518218,-2.51948091567,0.165,0.0,0.0,-0.709585475684,0.704619367246,0,66.2254333496,63.98695755,105.391403198,7.13481521606
1646227796472180626,161,1646227796472180626,r1000913c5/base_front_laser_link,0,1646227796472180626,v/m1vw10zy74w/map,-8.67496148471,-2.49640347062,0.165,0.0,0.0,-0.708877042827,0.705332076509,0,66.9008331299,64.0049438477,105.353858948,7.11630630493
1646227796550178829,162,1646227796550178829,r1000913c5/base_front_laser_link,0,1646227796550178829,v/m1vw10zy74w/map,-8.6744910023,-2.47431704214,0.165,0.0,0.0,-0.708484822849,0.705726048685,0,70.4683227539,64.044593811,105.381645203,7.11234855652
1646227796629166656,163,1646227796629166656,r1000913c5/base_front_laser_link,0,1646227796629166656,v/m1vw10zy74w/map,-8.6741800597,-2.45194807839,0.165,0.0,0.0,-0.708243362698,0.705968369826,0,75.1495361328,64.1123123169,105.542289734,7.1433262825
1646227796787074074,164,1646227796787074074,r1000913c5/base_front_laser_link,0,1646227796787074074,v/m1vw10zy74w/map,-8.67540635388,-2.40596826113,0.165,0.0,0.0,-0.707187755216,0.707025797883,0,74.1530685425,64.1731643677,105.666015625,7.16428518295
1646227796865990540,165,1646227796865990540,r1000913c5/base_front_laser_link,0,1646227796865990540,v/m1vw10zy74w/map,-8.67550550399,-2.3836561277,0.165,0.0,0.0,-0.707301100803,0.706912408155,0,73.5607070923,64.2297134399,105.768539429,7.17960929871
1646227796943296648,166,1646227796943296648,r1000913c5/base_front_laser_link,0,1646227796943296648,v/m1vw10zy74w/map,-8.67558567796,-2.36177297752,0.165,0.0,0.0,-0.707401284143,0.706812155522,0,73.0052719116,64.2822647095,105.852531433,7.19009113312
1646227797023250938,167,1646227797023250938,r1000913c5/base_front_laser_link,0,1646227797023250938,v/m1vw10zy74w/map,-8.67566119069,-2.33915959701,0.165,0.0,0.0,-0.707504504133,0.706708834409,0,73.7836074829,64.3388137817,105.956558228,7.20591402054
1646227797180241440,168,1646227797180241440,r1000913c5/base_front_laser_link,0,1646227797180241440,v/m1vw10zy74w/map,-8.67228424788,-2.30478779941,0.165,0.0,0.0,-0.708280887238,0.705930722361,0,70.5769882202,64.3757324219,105.977058411,7.20044326782
1646227797259200170,169,1646227797259200170,r1000913c5/base_front_laser_link,0,1646227797259200170,v/m1vw10zy74w/map,-8.67243527448,-2.28226390406,0.165,0.0,0.0,-0.70852585247,0.705684856279,0,71.0027236938,64.4147109985,106.005943298,7.197078228
1646227797338034550,170,1646227797338034550,r1000913c5/base_front_laser_link,0,1646227797338034550,v/m1vw10zy74w/map,-8.6725910673,-2.25958316879,0.165,0.0,0.0,-0.708792895671,0.705416636497,0,70.1758041382,64.4484024048,106.016571045,7.18939065933
1646227797416158240,171,1646227797416158240,r1000913c5/base_front_laser_link,0,1646227797416158240,v/m1vw10zy74w/map,-8.67261073404,-2.23718511489,0.165,0.0,0.0,-0.708933171111,0.705275661637,0,65.0798110962,64.4520721436,105.957572937,7.16849994659
1646227797494270165,172,1646227797494270165,r1000913c5/base_front_laser_link,0,1646227797494270165,v/m1vw10zy74w/map,-8.67417171591,-2.22741052829,0.165,0.0,0.0,-0.707643629954,0.706569524524,0,66.5952224731,64.4644622803,105.91292572,7.14948749542
1646227797573183043,173,1646227797573183043,r1000913c5/base_front_laser_link,0,1646227797573183043,v/m1vw10zy74w/map,-8.67380118625,-2.20583789461,0.165,0.0,0.0,-0.707844276049,0.706368516332,0,66.4134902954,64.4756622314,105.866638184,7.13032579422
1646227797730278624,174,1646227797730278624,r1000913c5/base_front_laser_link,0,1646227797730278624,v/m1vw10zy74w/map,-8.67382028728,-2.16165807596,0.165,0.0,0.0,-0.707972491442,0.706240009743,0,66.810836792,64.4890060425,105.824996948,7.11199760437
1646227797888387239,175,1646227797888387239,r1000913c5/base_front_laser_link,0,1646227797888387239,v/m1vw10zy74w/map,-8.6728453136,-2.12180828505,0.165,0.0,0.0,-0.707903443045,0.706309220756,0,71.0414276123,64.5262374878,105.852714539,7.10882711411
1646227797966373633,176,1646227797966373633,r1000913c5/base_front_laser_link,0,1646227797966373633,v/m1vw10zy74w/map,-8.67303378054,-2.1012892355,0.165,0.0,0.0,-0.707905820325,0.706306838102,0,76.2687530518,64.5925750732,106.022598267,7.14334011078
1646227798124310574,177,1646227798124310574,r1000913c5/base_front_laser_link,0,1646227798124310574,v/m1vw10zy74w/map,-8.67292544156,-2.05599361302,0.165,0.0,0.0,-0.7079000383,0.706312633169,0,74.703125,64.6493759155,106.139373779,7.16333055496
1646227798281224182,178,1646227798281224182,r1000913c5/base_front_laser_link,0,1646227798281224182,v/m1vw10zy74w/map,-8.67556461307,-2.01825446538,0.165,0.0,0.0,-0.708018346119,0.706194039595,0,77.1187210083,64.719039917,106.330215454,7.20372533798
1646227798359428681,179,1646227798359428681,r1000913c5/base_front_laser_link,0,1646227798359428681,v/m1vw10zy74w/map,-8.67540108734,-1.99731592063,0.165,0.0,0.0,-0.707662787811,0.706550337023,0,74.0328140259,64.7707824707,106.421905518,7.21704053879
1646227798517258900,180,1646227798517258900,r1000913c5/base_front_laser_link,0,1646227798517258900,v/m1vw10zy74w/map,-8.67516499308,-1.95207323014,0.165,0.0,0.0,-0.707469803693,0.706743572212,0,74.8879470825,64.8266830444,106.535118103,7.23614692688
1646227798596327710,181,1646227798596327710,r1000913c5/base_front_laser_link,0,1646227798596327710,v/m1vw10zy74w/map,-8.67517385539,-1.92934920241,0.165,0.0,0.0,-0.70750490423,0.706708433861,0,75.4123916626,64.8848419189,106.660842896,7.25866556168
1646227798674362277,182,1646227798674362277,r1000913c5/base_front_laser_link,0,1646227798674362277,v/m1vw10zy74w/map,-8.67503524583,-1.90390050568,0.165,0.0,0.0,-0.707365444332,0.706848023386,0,69.3676986694,64.9093399048,106.648170471,7.24627780914
1646227798910481835,183,1646227798910481835,r1000913c5/base_front_laser_link,0,1646227798910481835,v/m1vw10zy74w/map,-8.67471141642,-1.83919638058,0.165,0.0,0.0,-0.707461263405,0.706752121173,0,69.0302352905,64.9317321777,106.630241394,7.23283529282
1646227799146298700,184,1646227799146298700,r1000913c5/base_front_laser_link,0,1646227799146298700,v/m1vw10zy74w/map,-8.67377218058,-1.76622825492,0.165,0.0,0.0,-0.708322124449,0.705889345448,0,69.0888290405,64.954208374,106.613082886,7.2196264267
1646227799382337122,185,1646227799382337122,r1000913c5/base_front_laser_link,0,1646227799382337122,v/m1vw10zy74w/map,-8.67317314883,-1.69876662871,0.165,0.0,0.0,-0.707876323832,0.706336400136,0,72.3154449463,64.9937820435,106.654655457,7.22029018402
1646227799540416663,186,1646227799540416663,r1000913c5/base_front_laser_link,0,1646227799540416663,v/m1vw10zy74w/map,-8.67554804468,-1.66154260142,0.165,0.0,0.0,-0.708591682601,0.705618754959,0,71.8538665771,65.0304641724,106.685394287,7.21830797195
1646227799618443293,187,1646227799618443293,r1000913c5/base_front_laser_link,0,1646227799618443293,v/m1vw10zy74w/map,-8.67545101324,-1.63949253429,0.165,0.0,0.0,-0.708586880489,0.705623577269,0,72.2715072632,65.0689849854,106.723960876,7.2183265686
1646227799776528468,188,1646227799776528468,r1000913c5/base_front_laser_link,0,1646227799776528468,v/m1vw10zy74w/map,-8.67524403955,-1.59478713498,0.165,0.0,0.0,-0.708563928025,0.705646625374,0,74.1453475952,65.1170043945,106.804946899,7.22931241989
1646227800012516536,189,1646227800012516536,r1000913c5/base_front_laser_link,0,1646227800012516536,v/m1vw10zy74w/map,-8.67373298681,-1.51772875701,0.165,0.0,0.0,-0.707315687602,0.706897813034,0,71.107383728,65.1485366821,106.818275452,7.22324752808
1646227800248673229,190,1646227800248673229,r1000913c5/base_front_laser_link,0,1646227800248673229,v/m1vw10zy74w/map,-8.67401360178,-1.45345165256,0.165,0.0,0.0,-0.707969246868,0.706243262261,0,68.9232635498,65.168296814,106.796463013,7.20938968658
1646227800405757313,191,1646227800405757313,r1000913c5/base_front_laser_link,0,1646227800405757313,v/m1vw10zy74w/map,-8.67393316026,-1.4089139459,0.165,0.0,0.0,-0.708061085481,0.706151187231,0,68.7074356079,65.1867294312,106.771812439,7.19502687454
1646227800641450119,192,1646227800641450119,r1000913c5/base_front_laser_link,0,1646227800641450119,v/m1vw10zy74w/map,-8.67577132023,-1.33596875608,0.165,0.0,0.0,-0.708555443856,0.705655144516,0,71.4129333496,65.2189941406,106.789733887,7.19024610519
1646227800799590872,193,1646227800799590872,r1000913c5/base_front_laser_link,0,1646227800799590872,v/m1vw10zy74w/map,-8.6763644303,-1.30257921146,0.165,0.0,0.0,-0.707661171289,0.706551956087,0,73.3472366333,65.260887146,106.846786499,7.19529914856
1646227800956449183,194,1646227800956449183,r1000913c5/base_front_laser_link,0,1646227800956449183,v/m1vw10zy74w/map,-8.67632358342,-1.25775252742,0.165,0.0,0.0,-0.707692681445,0.706520395056,0,70.1340484619,65.2858810425,106.841506958,7.18520975113
1646227801113334649,195,1646227801113334649,r1000913c5/base_front_laser_link,0,1646227801113334649,v/m1vw10zy74w/map,-8.67772372241,-1.23542978686,0.165,0.0,0.0,-0.707671815922,0.706541294582,0,69.8592681885,65.309211731,106.831825256,7.17420387268
1646227801271466783,196,1646227801271466783,r1000913c5/base_front_laser_link,0,1646227801271466783,v/m1vw10zy74w/map,-8.67770072073,-1.19081441364,0.165,0.0,0.0,-0.707724935246,0.706488086262,0,70.4169769287,65.335144043,106.83052063,7.1651263237
1646227801508331070,197,1646227801508331070,r1000913c5/base_front_laser_link,0,1646227801508331070,v/m1vw10zy74w/map,-8.67299706598,-1.11463084516,0.165,0.0,0.0,-0.70430760172,0.709894923323,0,70.4962005615,65.3612060547,106.830177307,7.15632295609
1646227801665481797,198,1646227801665481797,r1000913c5/base_front_laser_link,0,1646227801665481797,v/m1vw10zy74w/map,-8.67337913891,-1.07058465425,0.165,0.0,0.0,-0.704348042915,0.709854798139,0,69.5976486206,65.3824996948,106.816123962,7.14454317093
1646227801822412966,199,1646227801822412966,r1000913c5/base_front_laser_link,0,1646227801822412966,v/m1vw10zy74w/map,-8.67530473972,-1.02859344606,0.165,0.0,0.0,-0.706866047147,0.707347433296,0,70.4086151123,65.407623291,106.813903809,7.13542556763
1646227801980077338,200,1646227801980077338,r1000913c5/base_front_laser_link,0,1646227801980077338,v/m1vw10zy74w/map,-8.67723792005,-0.97493043521,0.165,0.0,0.0,-0.704690043345,0.709515287228,0,68.3765029907,65.4223937988,106.784332275,7.1206445694
1646227802058436901,201,1646227802058436901,r1000913c5/base_front_laser_link,0,1646227802058436901,v/m1vw10zy74w/map,-8.67729679375,-0.953037314374,0.165,0.0,0.0,-0.704590433191,0.70961420607,0,71.7809906006,65.4538726807,106.804832458,7.11698532104
1646227802216185918,202,1646227802216185918,r1000913c5/base_front_laser_link,0,1646227802216185918,v/m1vw10zy74w/map,-8.67761001846,-0.90781741666,0.165,0.0,0.0,-0.704581011032,0.7096235614,0,72.4589614868,65.4883804321,106.837440491,7.11635160446
1646227802293554415,203,1646227802293554415,r1000913c5/base_front_laser_link,0,1646227802293554415,v/m1vw10zy74w/map,-8.67695393529,-0.897566426698,0.165,0.0,0.0,-0.704225743961,0.709976127445,0,70.6204071045,65.5135421753,106.837211609,7.10788965225
1646227804892496527,204,1646227804892496527,r1000913c5/base_front_laser_link,0,1646227804892496527,v/m1vw10zy74w/map,-8.67956100122,-0.748376534737,0.165,0.0,0.0,-0.702376194167,0.711805929919,0,72.1723403931,65.5460205078,106.863067627,7.10568284988
1646227805207671689,205,1646227805207671689,r1000913c5/base_front_laser_link,0,1646227805207671689,v/m1vw10zy74w/map,-8.67218227299,-0.767729463453,0.165,0.0,0.0,-0.694943620598,0.719064228139,0,70.5579376221,65.570350647,106.861129761,7.09692716599
1646227805364839584,206,1646227805364839584,r1000913c5/base_front_laser_link,0,1646227805364839584,v/m1vw10zy74w/map,-8.66434873578,-0.783823167694,0.165,0.0,0.0,-0.68721339376,0.726455608717,0,64.6619491577,65.5659637451,106.805847168,7.07996225357
1646227805523473487,207,1646227805523473487,r1000913c5/base_front_laser_link,0,1646227805523473487,v/m1vw10zy74w/map,-8.65192307783,-0.801972547787,0.165,0.0,0.0,-0.675012320247,0.737806456677,0,70.7010498047,65.5906524658,106.80607605,7.071808815
1646227805679802594,208,1646227805679802594,r1000913c5/base_front_laser_link,0,1646227805679802594,v/m1vw10zy74w/map,-8.63636811024,-0.821251776303,0.165,0.0,0.0,-0.660067679378,0.751206135918,0,66.8046264648,65.5964584351,106.762329102,7.05528879166
1646227805758697344,209,1646227805758697344,r1000913c5/base_front_laser_link,0,1646227805758697344,v/m1vw10zy74w/map,-8.62752682849,-0.831922361905,0.165,0.0,0.0,-0.651823281492,0.758370891915,0,67.4734115601,65.6054000854,106.724143982,7.03958129883
1646227805916800175,210,1646227805916800175,r1000913c5/base_front_laser_link,0,1646227805916800175,v/m1vw10zy74w/map,-8.60563528509,-0.854245959894,0.165,0.0,0.0,-0.631496563256,0.775378675614,0,66.4352416992,65.6093292236,106.67842865,7.02303314209
1646227805994897611,211,1646227805994897611,r1000913c5/base_front_laser_link,0,1646227805994897611,v/m1vw10zy74w/map,-8.59215869848,-0.866098045393,0.165,0.0,0.0,-0.619042157166,0.785357757746,0,67.4460144043,65.6179962158,106.640510559,7.00750637054
1646227806073628454,212,1646227806073628454,r1000913c5/base_front_laser_link,0,1646227806073628454,v/m1vw10zy74w/map,-8.57624203311,-0.877785724026,0.165,0.0,0.0,-0.604219489883,0.796817926534,0,65.5213165283,65.6175384521,106.590431213,6.99096298218
1646227806232375642,213,1646227806232375642,r1000913c5/base_front_laser_link,0,1646227806232375642,v/m1vw10zy74w/map,-8.54149414623,-0.901860865593,0.165,0.0,0.0,-0.572585991602,0.819844669569,0,62.2152786255,65.6016387939,106.536872864,6.97840929031
1646227806310830855,214,1646227806310830855,r1000913c5/base_front_laser_link,0,1646227806310830855,v/m1vw10zy74w/map,-8.52053379019,-0.911546098758,0.165,0.0,0.0,-0.552773290071,0.833331680535,0,64.989402771,65.5987930298,106.485427856,6.96221065521
1646227806467725563,215,1646227806467725563,r1000913c5/base_front_laser_link,0,1646227806467725563,v/m1vw10zy74w/map,-8.47400333458,-0.927388517469,0.165,0.0,0.0,-0.508916161145,0.860816090071,0,66.5471038818,65.603187561,106.442085266,6.94630050659
1646227806625634914,216,1646227806625634914,r1000913c5/base_front_laser_link,0,1646227806625634914,v/m1vw10zy74w/map,-8.41851663151,-0.933852707298,0.165,0.0,0.0,-0.455612490612,0.890178217212,0,69.1098709106,65.6193466187,106.422210693,6.93428945541
1646227806703834826,217,1646227806703834826,r1000913c5/base_front_laser_link,0,1646227806703834826,v/m1vw10zy74w/map,-8.3908822638,-0.934926902498,0.165,0.0,0.0,-0.427739036991,0.903902271395,0,67.9065475464,65.6298370361,106.389915466,6.92002773285
1646227806861846156,218,1646227806861846156,r1000913c5/base_front_laser_link,0,1646227806861846156,v/m1vw10zy74w/map,-8.33243141348,-0.931234099829,0.165,0.0,0.0,-0.366612670732,0.930373661309,0,70.1397171021,65.650428772,106.383010864,6.91086053848
1646227806940865699,219,1646227806940865699,r1000913c5/base_front_laser_link,0,1646227806940865699,v/m1vw10zy74w/map,-8.29719889883,-0.934881864244,0.165,0.0,0.0,-0.336388646365,0.941723249472,0,65.3444213867,65.6490402222,106.334320068,6.89509487152
1646227807018853474,220,1646227807018853474,r1000913c5/base_front_laser_link,0,1646227807018853474,v/m1vw10zy74w/map,-8.27042836469,-0.92236316122,0.165,0.0,0.0,-0.304771560983,0.952425480348,0,61.3170013428,65.6294326782,106.28616333,6.88557529449
1646227807256704779,221,1646227807256704779,r1000913c5/base_front_laser_link,0,1646227807256704779,v/m1vw10zy74w/map,-8.17329039421,-0.911130134121,0.165,0.0,0.0,-0.211441711836,0.977390608966,0,60.4091796875,65.6059188843,106.242645264,6.87890768051
1646227807333894281,222,1646227807333894281,r1000913c5/base_front_laser_link,0,1646227807333894281,v/m1vw10zy74w/map,-8.14337584973,-0.904406586599,0.165,0.0,0.0,-0.184969390166,0.982744282457,0,55.9806022644,65.5627593994,106.243553162,6.89359712601
1646227807413865541,223,1646227807413865541,r1000913c5/base_front_laser_link,0,1646227807413865541,v/m1vw10zy74w/map,-8.11159852187,-0.894180900323,0.165,0.0,0.0,-0.162653978619,0.986683172675,0,59.9015045166,65.5374832153,106.203033447,6.88851642609
1646227807570897820,224,1646227807570897820,r1000913c5/base_front_laser_link,0,1646227807570897820,v/m1vw10zy74w/map,-8.05157498229,-0.880502419376,0.165,0.0,0.0,-0.119441836149,0.992841199678,0,53.6243286133,65.4845352173,106.241111755,6.91885757446
1646227807727989216,225,1646227807727989216,r1000913c5/base_front_laser_link,0,1646227807727989216,v/m1vw10zy74w/map,-7.98898899667,-0.864936318206,0.165,0.0,0.0,-0.0841033080461,0.996457040507,0,59.6237182617,65.4586029053,106.20199585,6.91446447372
1646227807806860424,226,1646227807806860424,r1000913c5/base_front_laser_link,0,1646227807806860424,v/m1vw10zy74w/map,-7.95762292351,-0.85793900662,0.165,0.0,0.0,-0.0671645182182,0.997741914271,0,61.0622291565,65.439239502,106.155189514,6.90531778336
1646227807885885082,227,1646227807885885082,r1000913c5/base_front_laser_link,0,1646227807885885082,v/m1vw10zy74w/map,-7.92443915361,-0.848494788304,0.165,0.0,0.0,-0.0502771553391,0.998735304098,0,60.5813064575,65.417930603,106.110725403,6.8975982666
1646227808042737988,228,1646227808042737988,r1000913c5/base_front_laser_link,0,1646227808042737988,v/m1vw10zy74w/map,-7.85982501054,-0.833102365601,0.165,0.0,0.0,-0.0207353239054,0.999785000059,0,64.8250274658,65.4153442383,106.063041687,6.88256692886
1646227808121781801,229,1646227808121781801,r1000913c5/base_front_laser_link,0,1646227808121781801,v/m1vw10zy74w/map,-7.81506584844,-0.836246093908,0.165,0.0,0.0,-0.00975545851606,0.999952414382,0,65.0615234375,65.4138031006,106.016494751,6.86756277084
1646227808357808758,230,1646227808357808758,r1000913c5/base_front_laser_link,0,1646227808357808758,v/m1vw10zy74w/map,-7.70991063631,-0.810879235703,0.165,0.0,0.0,0.0237930532543,0.999716905237,0,63.3809204102,65.4050064087,105.966766357,6.8539223671
1646227808513901301,231,1646227808513901301,r1000913c5/base_front_laser_link,0,1646227808513901301,v/m1vw10zy74w/map,-7.63784532871,-0.800977839398,0.165,0.0,0.0,0.0369407732027,0.999317456705,0,58.9958381653,65.3773803711,105.933387756,6.85200309753
1646227808593039536,232,1646227808593039536,r1000913c5/base_front_laser_link,0,1646227808593039536,v/m1vw10zy74w/map,-7.60128872857,-0.794275318506,0.165,0.0,0.0,0.0426307549961,0.999090896129,0,59.9602890015,65.3541259766,105.8934021,6.84642362595
1646227808671926597,233,1646227808671926597,r1000913c5/base_front_laser_link,0,1646227808671926597,v/m1vw10zy74w/map,-7.56408372527,-0.786717409324,0.165,0.0,0.0,0.0462242229482,0.998931089321,0,58.2226829529,65.3236541748,105.866462708,6.84760427475
1646227808829103656,234,1646227808829103656,r1000913c5/base_front_laser_link,0,1646227808829103656,v/m1vw10zy74w/map,-7.49019225402,-0.774839201787,0.165,0.0,0.0,0.0529016704801,0.998599726247,0,59.2534561157,65.2978210449,105.831085205,6.84442090988
1646227808907904841,235,1646227808907904841,r1000913c5/base_front_laser_link,0,1646227808907904841,v/m1vw10zy74w/map,-7.45048961179,-0.76777376856,0.165,0.0,0.0,0.0553395835971,0.998467591105,0,59.8343925476,65.2746734619,105.79196167,6.83909606934
1646227808985972261,236,1646227808985972261,r1000913c5/base_front_laser_link,0,1646227808985972261,v/m1vw10zy74w/map,-7.41290424951,-0.757594395872,0.165,0.0,0.0,0.0574791546548,0.998346706701,0,61.7314605713,65.2597198486,105.745132446,6.82847070694
1646227809221940856,237,1646227809221940856,r1000913c5/base_front_laser_link,0,1646227809221940856,v/m1vw10zy74w/map,-7.28798416593,-0.741582222611,0.165,0.0,0.0,0.0500463313795,0.998746897224,0,63.2114830017,65.2511138916,105.697143555,6.81534290314
1646227809380809172,238,1646227809380809172,r1000913c5/base_front_laser_link,0,1646227809380809172,v/m1vw10zy74w/map,-7.20261524271,-0.739629721181,0.165,0.0,0.0,0.0437983720118,0.99904039088,0,58.3191223145,65.222114563,105.669433594,6.81577539444
