%time,field.header.seq,field.header.stamp,field.header.frame_id,field.pose.header.seq,field.pose.header.stamp,field.pose.header.frame_id,field.pose.pose.position.x,field.pose.pose.position.y,field.pose.pose.position.z,field.pose.pose.orientation.x,field.pose.pose.orientation.y,field.pose.pose.orientation.z,field.pose.pose.orientation.w,field.label,field.current_error,field.mean,field.threshold,field.std_dev
1646745815851149684,0,1646745815851149684,r1000913c5/base_front_laser_link,0,1646745815851149684,v/m1vw10zy74w/map,-2.87665651494,-2.45095247818,0.165,0.0,0.0,-0.707217159287,0.706996385854,0,62.9659004211,62.9659004211,nan,nan
1646745815930125375,1,1646745815930125375,r1000913c5/base_front_laser_link,0,1646745815930125375,v/m1vw10zy74w/map,-2.87665427036,-2.42848917182,0.165,0.0,0.0,-0.707222223459,0.706991320064,0,61.00938797,61.9876441956,86.1380386353,1.3834631443
1646745816166034400,2,1646745816166034400,r1000913c5/base_front_laser_link,0,1646745816166034400,v/m1vw10zy74w/map,-2.87522313538,-2.35982482459,0.165,0.0,0.0,-0.705346683745,0.70886250834,0,60.3741340637,61.4498100281,85.5023498535,1.35084795952
1646745817817062554,3,1646745817817062554,r1000913c5/base_front_laser_link,0,1646745817817062554,v/m1vw10zy74w/map,-2.87150376947,-2.27743827555,0.165,0.0,0.0,-0.700501878298,0.713650557697,0,57.6918411255,60.5103187561,87.0466690063,2.17878508568
1646745817896520034,4,1646745817896520034,r1000913c5/base_front_laser_link,0,1646745817896520034,v/m1vw10zy74w/map,-2.87018435966,-2.27685896372,0.165,0.0,0.0,-0.69908272008,0.715040803372,0,61.8305969238,60.7743721008,86.705696106,1.97710800171
1646745818211292269,5,1646745818211292269,r1000913c5/base_front_laser_link,0,1646745818211292269,v/m1vw10zy74w/map,-2.84650599653,-2.27516826803,0.165,0.0,0.0,-0.673289503078,0.739378959022,0,60.2399291992,60.6852989197,86.0306625366,1.78178834915
1646745818368441906,6,1646745818368441906,r1000913c5/base_front_laser_link,0,1646745818368441906,v/m1vw10zy74w/map,-2.82464973796,-2.27183991498,0.165,0.0,0.0,-0.648524521041,0.761193763511,0,61.0887870789,60.7429389954,85.6439666748,1.63367652893
1646745818605287904,7,1646745818605287904,r1000913c5/base_front_laser_link,0,1646745818605287904,v/m1vw10zy74w/map,-2.78782982803,-2.26431495573,0.165,0.0,0.0,-0.604758423643,0.796408970964,0,63.0096282959,61.0262756348,86.1613311768,1.71168410778
1646745818683402903,8,1646745818683402903,r1000913c5/base_front_laser_link,0,1646745818683402903,v/m1vw10zy74w/map,-2.77594978086,-2.26109761896,0.165,0.0,0.0,-0.590012390232,0.807394190822,0,66.1287155151,61.5932121277,88.6008911133,2.33589267731
1646745818762481437,9,1646745818762481437,r1000913c5/base_front_laser_link,0,1646745818762481437,v/m1vw10zy74w/map,-2.77054904276,-2.26338737676,0.165,0.0,0.0,-0.581961936322,0.813216025833,0,64.3327713013,61.8671684265,88.9668731689,2.36656856537
1646745818998410356,10,1646745818998410356,r1000913c5/base_front_laser_link,0,1646745818998410356,v/m1vw10zy74w/map,-2.73757723918,-2.25510164794,0.165,0.0,0.0,-0.540982635051,0.841033761851,0,59.4972267151,61.6517219543,88.7200088501,2.35609507561
1646745819155578570,11,1646745819155578570,r1000913c5/base_front_laser_link,0,1646745819155578570,v/m1vw10zy74w/map,-2.71643806511,-2.2453104423,0.165,0.0,0.0,-0.511430092624,0.859324886384,0,62.4236450195,61.7160491943,88.4884719849,2.25747346878
1646745819234667309,12,1646745819234667309,r1000913c5/base_front_laser_link,0,1646745819234667309,v/m1vw10zy74w/map,-2.70447856634,-2.23971313791,0.165,0.0,0.0,-0.492956057816,0.870054208117,0,59.1065559387,61.5153160095,88.3532867432,2.27932190895
1646745819391841845,13,1646745819391841845,r1000913c5/base_front_laser_link,0,1646745819391841845,v/m1vw10zy74w/map,-2.68341853939,-2.22636083531,0.165,0.0,0.0,-0.460145896218,0.887843316241,0,60.1329994202,61.4165802002,88.0791168213,2.22084569931
1646745819549081298,14,1646745819549081298,r1000913c5/base_front_laser_link,0,1646745819549081298,v/m1vw10zy74w/map,-2.66203704641,-2.20307874006,0.165,0.0,0.0,-0.427109404804,0.904199953732,0,60.9525566101,61.3856468201,87.8158798218,2.14341163635
1646745819627473316,15,1646745819627473316,r1000913c5/base_front_laser_link,0,1646745819627473316,v/m1vw10zy74w/map,-2.65267973874,-2.19536418024,0.165,0.0,0.0,-0.410732694805,0.911755807998,0,65.7326202393,61.6573295593,88.6730651855,2.33857727051
1646745819706531676,16,1646745819706531676,r1000913c5/base_front_laser_link,0,1646745819706531676,v/m1vw10zy74w/map,-2.64437032284,-2.18379569573,0.165,0.0,0.0,-0.393584979985,0.919288237459,0,58.238571167,61.4562263489,88.6903076172,2.41136026382
1646745820021239784,17,1646745820021239784,r1000913c5/base_front_laser_link,0,1646745820021239784,v/m1vw10zy74w/map,-2.61353994193,-2.14717053023,0.165,0.0,0.0,-0.32566852096,0.945484010682,0,58.0742149353,61.2683372498,88.6826858521,2.47144985199
1646745820099623177,18,1646745820099623177,r1000913c5/base_front_laser_link,0,1646745820099623177,v/m1vw10zy74w/map,-2.60656703514,-2.13696365495,0.165,0.0,0.0,-0.308114347198,0.951349330714,0,59.0363769531,61.1508674622,88.5182495117,2.45579314232
1646745820178432480,19,1646745820178432480,r1000913c5/base_front_laser_link,0,1646745820178432480,v/m1vw10zy74w/map,-2.59971242693,-2.12719907123,0.165,0.0,0.0,-0.291112277585,0.956688895012,0,58.8385314941,61.0352516174,88.3719787598,2.44557714462
1646745820335660909,20,1646745820335660909,r1000913c5/base_front_laser_link,0,1646745820335660909,v/m1vw10zy74w/map,-2.58600223348,-2.0988080336,0.165,0.0,0.0,-0.255494154212,0.966810600461,0,57.6930084229,60.8760948181,88.354309082,2.49273681641
1646745820650536319,21,1646745820650536319,r1000913c5/base_front_laser_link,0,1646745820650536319,v/m1vw10zy74w/map,-2.56732844689,-2.05057950852,0.165,0.0,0.0,-0.184230324044,0.982883099714,0,53.9871940613,60.5629653931,89.0879135132,2.84165072441
1646745820807557967,22,1646745820807557967,r1000913c5/base_front_laser_link,0,1646745820807557967,v/m1vw10zy74w/map,-2.55949476326,-2.02784659777,0.165,0.0,0.0,-0.148181394242,0.988960198593,0,54.9956932068,60.3209075928,89.3486251831,3.00923919678
1646745820886525137,23,1646745820886525137,r1000913c5/base_front_laser_link,0,1646745820886525137,v/m1vw10zy74w/map,-2.55618216325,-2.01635419286,0.165,0.0,0.0,-0.130426160758,0.991458025632,0,52.682926178,60.002658844,89.9943161011,3.33055329323
1646745821122494881,24,1646745821122494881,r1000913c5/base_front_laser_link,0,1646745821122494881,v/m1vw10zy74w/map,-2.55366556874,-1.98172860251,0.165,0.0,0.0,-0.0767606653698,0.997049547541,0,51.1655845642,59.6491775513,90.7751541138,3.70865893364
1646745821279518797,25,1646745821279518797,r1000913c5/base_front_laser_link,0,1646745821279518797,v/m1vw10zy74w/map,-2.55088968485,-1.9583253032,0.165,0.0,0.0,-0.0416206760793,0.999133484237,0,51.8531303406,59.3493270874,91.1761856079,3.94228506088
1646745821357518995,26,1646745821357518995,r1000913c5/base_front_laser_link,0,1646745821357518995,v/m1vw10zy74w/map,-2.5495438421,-1.94619221014,0.165,0.0,0.0,-0.0233804255063,0.999726640489,0,52.2426795959,59.0861206055,91.3877258301,4.1005358696
1646745821672553431,27,1646745821672553431,r1000913c5/base_front_laser_link,0,1646745821672553431,v/m1vw10zy74w/map,-2.54945611315,-1.89743273563,0.165,0.0,0.0,0.0463783392965,0.998923945876,0,49.790435791,58.7541313171,91.9260406494,4.3906378746
1646745821751599471,28,1646745821751599471,r1000913c5/base_front_laser_link,0,1646745821751599471,v/m1vw10zy74w/map,-2.55089761724,-1.88556601348,0.165,0.0,0.0,0.0640852645623,0.997944426742,0,50.6378288269,58.4742584229,92.176322937,4.56735610962
1646745821908570149,29,1646745821908570149,r1000913c5/base_front_laser_link,0,1646745821908570149,v/m1vw10zy74w/map,-2.55495239188,-1.86177129448,0.165,0.0,0.0,0.0986409647528,0.995123087901,0,51.1942901611,58.2315940857,92.2733840942,4.68059825897
1646745822065750609,30,1646745822065750609,r1000913c5/base_front_laser_link,0,1646745822065750609,v/m1vw10zy74w/map,-2.56040974968,-1.83868487066,0.165,0.0,0.0,0.133838392481,0.991003170882,0,49.7683982849,57.9585876465,92.4979858398,4.84646701813
1646745822301720971,31,1646745822301720971,r1000913c5/base_front_laser_link,0,1646745822301720971,v/m1vw10zy74w/map,-2.57281423188,-1.80239572643,0.165,0.0,0.0,0.18582132837,0.982583550607,0,50.5391769409,57.7267303467,92.561050415,4.94477462769
1646745822381541367,32,1646745822381541367,r1000913c5/base_front_laser_link,0,1646745822381541367,v/m1vw10zy74w/map,-2.57500278668,-1.78998256788,0.165,0.0,0.0,0.203701767446,0.979032987156,0,53.6122932434,57.6020507812,92.3600082397,4.91931867599
1646745822617375957,33,1646745822617375957,r1000913c5/base_front_laser_link,0,1646745822617375957,v/m1vw10zy74w/map,-2.58938448467,-1.75796615462,0.165,0.0,0.0,0.254728051401,0.967012729921,0,54.9635620117,57.5244483948,92.1203384399,4.86529779434
1646745822852619256,34,1646745822852619256,r1000913c5/base_front_laser_link,0,1646745822852619256,v/m1vw10zy74w/map,-2.60518191349,-1.72783870902,0.165,0.0,0.0,0.306693094726,0.951808460588,0,51.9528808594,57.3652610779,92.0198364258,4.88485813141
1646745823009413325,35,1646745823009413325,r1000913c5/base_front_laser_link,0,1646745823009413325,v/m1vw10zy74w/map,-2.61902711961,-1.71175422575,0.165,0.0,0.0,0.338565440313,0.940942847693,0,53.5286750793,57.2586860657,91.8292236328,4.85684490204
1646745824033569256,36,1646745824033569256,r1000913c5/base_front_laser_link,0,1646745824033569256,v/m1vw10zy74w/map,-2.67361286113,-1.64090806134,0.165,0.0,0.0,0.47047881992,0.88241128733,0,56.4517784119,57.2368812561,91.6091308594,4.79075050354
1646745824190821514,37,1646745824190821514,r1000913c5/base_front_laser_link,0,1646745824190821514,v/m1vw10zy74w/map,-2.67192082343,-1.62940577827,0.165,0.0,0.0,0.47887994376,0.877880401572,0,57.1450881958,57.234462738,91.411239624,4.72559070587
1646745824348705176,38,1646745824348705176,r1000913c5/base_front_laser_link,0,1646745824348705176,v/m1vw10zy74w/map,-2.67243532597,-1.6112917871,0.165,0.0,0.0,0.491955532781,0.870620326989,0,55.1310424805,57.1805305481,91.2059707642,4.67514610291
1646745824427056655,39,1646745824427056655,r1000913c5/base_front_laser_link,0,1646745824427056655,v/m1vw10zy74w/map,-2.67246417154,-1.60145059871,0.165,0.0,0.0,0.498510701855,0.866883544737,0,54.2406997681,57.1070327759,91.0215454102,4.63816976547
1646745824505834102,40,1646745824505834102,r1000913c5/base_front_laser_link,0,1646745824505834102,v/m1vw10zy74w/map,-2.67225990608,-1.59119017599,0.165,0.0,0.0,0.504870527127,0.863195082724,0,59.3340454102,57.1613502502,90.9403915405,4.59301328659
1646745824585413305,41,1646745824585413305,r1000913c5/base_front_laser_link,0,1646745824585413305,v/m1vw10zy74w/map,-2.67178396434,-1.5802280494,0.165,0.0,0.0,0.51117448783,0.859476958965,0,56.3503494263,57.1420402527,90.7571868896,4.53838062286
1646745824663855466,42,1646745824663855466,r1000913c5/base_front_laser_link,0,1646745824663855466,v/m1vw10zy74w/map,-2.67109642258,-1.56883942353,0.165,0.0,0.0,0.517284929566,0.855813239933,0,57.6083335876,57.152885437,90.6066589355,4.4845905304
1646745824741831690,43,1646745824741831690,r1000913c5/base_front_laser_link,0,1646745824741831690,v/m1vw10zy74w/map,-2.67006968525,-1.55675120923,0.165,0.0,0.0,0.523210057219,0.852203752646,0,58.9714431763,57.1942176819,90.5160446167,4.44060850143
1646745824899681740,44,1646745824899681740,r1000913c5/base_front_laser_link,0,1646745824899681740,v/m1vw10zy74w/map,-2.66622968257,-1.51837023583,0.165,0.0,0.0,0.534757703742,0.845005442757,0,56.2793502808,57.1738853455,90.3498153687,4.39197492599
1646745825136103013,45,1646745825136103013,r1000913c5/base_front_laser_link,0,1646745825136103013,v/m1vw10zy74w/map,-2.66141468246,-1.47118191307,0.165,0.0,0.0,0.553302211214,0.832980589849,0,56.1430664062,57.1514778137,90.1881561279,4.34556007385
1646745825372811711,46,1646745825372811711,r1000913c5/base_front_laser_link,0,1646745825372811711,v/m1vw10zy74w/map,-2.65355158483,-1.42232844135,0.165,0.0,0.0,0.566788383413,0.823863416125,0,60.3432769775,57.2193870544,90.1890106201,4.32320833206
1646745825765012547,47,1646745825765012547,r1000913c5/base_front_laser_link,0,1646745825765012547,v/m1vw10zy74w/map,-2.63348249889,-1.31889810537,0.165,0.0,0.0,0.587011289891,0.809578745731,0,59.9818572998,57.2769393921,90.163482666,4.29551506042
1646745826000877544,48,1646745826000877544,r1000913c5/base_front_laser_link,0,1646745826000877544,v/m1vw10zy74w/map,-2.62114259245,-1.24472871029,0.165,0.0,0.0,0.598684921104,0.800984622351,0,62.0444068909,57.3742332458,90.2884902954,4.30475282669
1646745826157903341,49,1646745826157903341,r1000913c5/base_front_laser_link,0,1646745826157903341,v/m1vw10zy74w/map,-2.61774035561,-1.19563203629,0.165,0.0,0.0,0.610573395293,0.791959676348,0,62.7792625427,57.482334137,90.4682159424,4.32862615585
1646745826472909098,50,1646745826472909098,r1000913c5/base_front_laser_link,0,1646745826472909098,v/m1vw10zy74w/map,-2.62478248947,-1.07262335012,0.165,0.0,0.0,0.648116756747,0.761540983549,0,62.4002761841,57.5787658691,90.5990753174,4.34010362625
1646745826708960516,51,1646745826708960516,r1000913c5/base_front_laser_link,0,1646745826708960516,v/m1vw10zy74w/map,-2.65084823718,-0.984789023807,0.165,0.0,0.0,0.68817945543,0.725540513772,0,62.0230674744,57.6642341614,90.6881713867,4.34131336212
1646745826866838588,52,1646745826866838588,r1000913c5/base_front_laser_link,0,1646745826866838588,v/m1vw10zy74w/map,-2.67892705576,-0.919661544469,0.165,0.0,0.0,0.71956734242,0.694422666481,0,61.0298156738,57.7277336121,90.7001876831,4.32415056229
1646745827182538016,53,1646745827182538016,r1000913c5/base_front_laser_link,0,1646745827182538016,v/m1vw10zy74w/map,-2.76780263366,-0.799752840176,0.165,0.0,0.0,0.790987499487,0.611832310078,0,66.2500152588,57.8855552673,91.1977386475,4.43739414215
1646745827418865371,54,1646745827418865371,r1000913c5/base_front_laser_link,0,1646745827418865371,v/m1vw10zy74w/map,-2.87876576907,-0.75646472789,0.165,0.0,0.0,0.848699705123,0.528875042447,0,72.6962661743,58.154838562,92.6402587891,4.82847213745
1646745827653832332,55,1646745827653832332,r1000913c5/base_front_laser_link,0,1646745827653832332,v/m1vw10zy74w/map,-2.99358374766,-0.703110223654,0.165,0.0,0.0,0.900400897252,0.435061172971,0,70.2683563232,58.3711509705,93.5235443115,5.05079746246
1646745827889804391,56,1646745827889804391,r1000913c5/base_front_laser_link,0,1646745827889804391,v/m1vw10zy74w/map,-3.12465873224,-0.639891954253,0.165,0.0,0.0,0.941096821758,0.338137208952,0,73.3329162598,58.6336402893,94.7841949463,5.38351964951
1646745828047933933,57,1646745828047933933,r1000913c5/base_front_laser_link,0,1646745828047933933,v/m1vw10zy74w/map,-3.21492988372,-0.619134800402,0.165,0.0,0.0,-0.960270297889,-0.279071594742,0,71.4825973511,58.8551750183,95.6445388794,5.59645414352
1646745828362950026,58,1646745828362950026,r1000913c5/base_front_laser_link,0,1646745828362950026,v/m1vw10zy74w/map,-3.40847420902,-0.600372442613,0.165,0.0,0.0,-0.985335582939,-0.170627632563,0,72.9236297607,59.0936203003,96.6211471558,5.84250736237
1646745828519926615,59,1646745828519926615,r1000913c5/base_front_laser_link,0,1646745828519926615,v/m1vw10zy74w/map,-3.5030024337,-0.604051637858,0.165,0.0,0.0,-0.992431432489,-0.122800048078,0,69.6847763062,59.2701416016,97.1260375977,5.95196437836
1646745828756124220,60,1646745828756124220,r1000913c5/base_front_laser_link,0,1646745828756124220,v/m1vw10zy74w/map,-3.63957312309,-0.618200504522,0.165,0.0,0.0,-0.997884941415,-0.0650049513321,0,68.1019134521,59.4149246216,97.4434356689,6.00950431824
1646745828993168428,61,1646745828993168428,r1000913c5/base_front_laser_link,0,1646745828993168428,v/m1vw10zy74w/map,-3.78515202301,-0.639941309707,0.165,0.0,0.0,-0.999777950611,-0.0210724813877,0,72.3434066772,59.6234474182,98.1696624756,6.18207120895
1646745829151038761,62,1646745829151038761,r1000913c5/base_front_laser_link,0,1646745829151038761,v/m1vw10zy74w/map,-3.87917893668,-0.649694500304,0.165,0.0,0.0,-0.999980471361,-0.00624955173787,0,72.5696640015,59.8289451599,98.8646392822,6.34523200989
1646745829229065991,63,1646745829229065991,r1000913c5/base_front_laser_link,0,1646745829229065991,v/m1vw10zy74w/map,-3.93191760474,-0.661522517341,0.165,0.0,0.0,-0.999993038787,0.00373127026466,0,71.0128326416,60.003692627,99.3478240967,6.44804286957
1646745829308234227,64,1646745829308234227,r1000913c5/base_front_laser_link,0,1646745829308234227,v/m1vw10zy74w/map,-3.98416505217,-0.665369508259,0.165,0.0,0.0,-0.999963672081,0.00852376199616,0,73.2288589478,60.207157135,100.020439148,6.60442733765
1646745829545180514,65,1646745829545180514,r1000913c5/base_front_laser_link,0,1646745829545180514,v/m1vw10zy74w/map,-4.12849391219,-0.704949818512,0.165,0.0,0.0,-0.999983282882,0.00578221038083,0,74.2121658325,60.4193534851,100.748474121,6.77637290955
1646745829702201427,66,1646745829702201427,r1000913c5/base_front_laser_link,0,1646745829702201427,v/m1vw10zy74w/map,-4.23247893843,-0.709860044775,0.165,0.0,0.0,-0.999996714293,0.00256347483146,0,70.1062011719,60.5639343262,101.048461914,6.82817745209
1646745829860342111,67,1646745829860342111,r1000913c5/base_front_laser_link,0,1646745829860342111,v/m1vw10zy74w/map,-4.3441589785,-0.717111979586,0.165,0.0,0.0,-0.999990754002,0.00430022205399,0,71.513671875,60.7249603271,101.442626953,6.90588951111
1646745829939271322,68,1646745829939271322,r1000913c5/base_front_laser_link,0,1646745829939271322,v/m1vw10zy74w/map,-4.40232223953,-0.717805987664,0.165,0.0,0.0,-0.999990048804,0.00446119865503,0,70.30052948,60.863735199,101.717262268,6.95117473602
1646745830097789549,69,1646745830097789549,r1000913c5/base_front_laser_link,0,1646745830097789549,v/m1vw10zy74w/map,-4.52548452811,-0.725109781931,0.165,0.0,0.0,-0.999938089002,0.0111273609878,0,69.6432876587,60.9891586304,101.929008484,6.97995090485
1646745830333176310,70,1646745830333176310,r1000913c5/base_front_laser_link,0,1646745830333176310,v/m1vw10zy74w/map,-4.70338453206,-0.735537427672,0.165,0.0,0.0,-0.999866131937,0.0163620966229,0,71.3810348511,61.1355209351,102.251922607,7.0388007164
1646745830492088592,71,1646745830492088592,r1000913c5/base_front_laser_link,0,1646745830492088592,v/m1vw10zy74w/map,-4.82975679742,-0.737430266837,0.165,0.0,0.0,-0.999914130797,0.0131046187355,0,66.5637207031,61.2109146118,102.265731812,7.0182723999
1646745830570182863,72,1646745830570182863,r1000913c5/base_front_laser_link,0,1646745830570182863,v/m1vw10zy74w/map,-4.88946003521,-0.742498154873,0.165,0.0,0.0,-0.999917876173,0.0128156509732,0,68.7739028931,61.3145179749,102.390571594,7.02535247803
1646745830728231045,73,1646745830728231045,r1000913c5/base_front_laser_link,0,1646745830728231045,v/m1vw10zy74w/map,-5.01703685392,-0.741147301457,0.165,0.0,0.0,-0.999950491641,0.00995059127999,0,69.4844055176,61.4249191284,102.54914856,7.04141044617
1646745830806305098,74,1646745830806305098,r1000913c5/base_front_laser_link,0,1646745830806305098,v/m1vw10zy74w/map,-5.08191280014,-0.740589721695,0.165,0.0,0.0,-0.999972804008,0.00737504195021,0,69.1307601929,61.5276641846,102.677810669,7.05004787445
1646745830885192748,75,1646745830885192748,r1000913c5/base_front_laser_link,0,1646745830885192748,v/m1vw10zy74w/map,-5.14814052852,-0.740079620718,0.165,0.0,0.0,-0.99998482118,0.0055097558257,0,66.4063949585,61.5918579102,102.667503357,7.02521514893
1646745831201179046,76,1646745831201179046,r1000913c5/base_front_laser_link,0,1646745831201179046,v/m1vw10zy74w/map,-5.41861998999,-0.737661057023,0.165,0.0,0.0,-0.999987156518,0.00506821449446,0,66.1922912598,61.6516036987,102.647125244,6.99850845337
1646745831358280847,77,1646745831358280847,r1000913c5/base_front_laser_link,0,1646745831358280847,v/m1vw10zy74w/map,-5.55348165455,-0.735556282242,0.165,0.0,0.0,-0.999988258317,0.00484594969229,0,69.2433547974,61.7489356995,102.766487122,7.00584983826
1646745831594275368,78,1646745831594275368,r1000913c5/base_front_laser_link,0,1646745831594275368,v/m1vw10zy74w/map,-5.76743330076,-0.737430439402,0.165,0.0,0.0,-0.999992266909,0.00393269911758,0,68.4536437988,61.8338050842,102.8384552,7.0015501976
1646745831673249813,79,1646745831673249813,r1000913c5/base_front_laser_link,0,1646745831673249813,v/m1vw10zy74w/map,-5.84046796802,-0.737638150652,0.165,0.0,0.0,-0.999994183414,0.00341073870979,0,69.9144897461,61.9348144531,102.98134613,7.01551103592
1646745831909344839,80,1646745831909344839,r1000913c5/base_front_laser_link,0,1646745831909344839,v/m1vw10zy74w/map,-6.05972706053,-0.733611201834,0.165,0.0,0.0,-0.999999807006,-0.000621279734121,0,66.1144104004,61.9864120483,102.947341919,6.98697662354
1646745832066259079,81,1646745832066259079,r1000913c5/base_front_laser_link,0,1646745832066259079,v/m1vw10zy74w/map,-6.19672340802,-0.734667317063,0.165,0.0,0.0,-0.999995663223,-0.00294508655129,0,70.4047317505,62.0890769958,103.106079102,7.00566911697
1646745832302407293,82,1646745832302407293,r1000913c5/base_front_laser_link,0,1646745832302407293,v/m1vw10zy74w/map,-6.41707119191,-0.746447570126,0.165,0.0,0.0,-0.999949889577,-0.0100109107546,0,68.8835144043,62.1709365845,103.178878784,7.00264692307
1646745832460140809,83,1646745832460140809,r1000913c5/base_front_laser_link,0,1646745832460140809,v/m1vw10zy74w/map,-6.57785804577,-0.745274737894,0.165,0.0,0.0,-0.999985762859,-0.00533611083929,0,68.748008728,62.2492332458,103.24092865,6.99723052979
1646745832696527680,84,1646745832696527680,r1000913c5/base_front_laser_link,0,1646745832696527680,v/m1vw10zy74w/map,-6.83110186204,-0.733190902013,0.165,0.0,0.0,-0.999999999961,-8.8780312073e-06,0,68.1565704346,62.3187332153,103.273452759,6.98490571976
1646745832853389356,85,1646745832853389356,r1000913c5/base_front_laser_link,0,1646745832853389356,v/m1vw10zy74w/map,-7.00351351153,-0.734991909375,0.165,0.0,0.0,-0.999998775068,0.00156520338699,0,69.5201339722,62.402469635,103.363426208,6.98698425293
1646745833089331535,86,1646745833089331535,r1000913c5/base_front_laser_link,0,1646745833089331535,v/m1vw10zy74w/map,-7.25864662478,-0.726131058206,0.165,0.0,0.0,-0.999999762913,-0.000688602564834,0,69.1765594482,62.4803314209,103.432655334,6.98410701752
1646745833246404903,87,1646745833246404903,r1000913c5/base_front_laser_link,0,1646745833246404903,v/m1vw10zy74w/map,-7.4268189322,-0.726788585501,0.165,0.0,0.0,-0.999999767208,0.000682336445864,0,65.9378204346,62.5196228027,103.380500793,6.95362710953
1646745833403423148,88,1646745833403423148,r1000913c5/base_front_laser_link,0,1646745833403423148,v/m1vw10zy74w/map,-7.59946272276,-0.72455618432,0.165,0.0,0.0,-0.99999275644,0.00380618802265,0,62.6042556763,62.5205726624,103.26260376,6.91401100159
1646745833482182089,89,1646745833482182089,r1000913c5/base_front_laser_link,0,1646745833482182089,v/m1vw10zy74w/map,-7.6793902676,-0.722085774993,0.165,0.0,0.0,-0.99999519034,0.00310149927699,0,67.7244110107,62.5783920288,103.269111633,6.89690637589
1646745833639333546,90,1646745833639333546,r1000913c5/base_front_laser_link,0,1646745833639333546,v/m1vw10zy74w/map,-7.85834786821,-0.723675649623,0.165,0.0,0.0,-0.999997551445,0.00221293998887,0,64.9514770508,62.604473114,103.193450928,6.86299324036
1646745833797292055,91,1646745833797292055,r1000913c5/base_front_laser_link,0,1646745833797292055,v/m1vw10zy74w/map,-8.03983780354,-0.728919046988,0.165,0.0,0.0,-0.999999718316,-0.000750578206818,0,67.9491653442,62.6625671387,103.206230164,6.84788894653
1646745833954300581,92,1646745833954300581,r1000913c5/base_front_laser_link,0,1646745833954300581,v/m1vw10zy74w/map,-8.21200936387,-0.719085597969,0.165,0.0,0.0,-0.999997815513,-0.00209020772236,0,68.9142456055,62.7297897339,103.253852844,6.84135389328
1646745834033371440,93,1646745834033371440,r1000913c5/base_front_laser_link,0,1646745834033371440,v/m1vw10zy74w/map,-8.31912452837,-0.73501641869,0.165,0.0,0.0,-0.99999335034,-0.00364681725625,0,65.2971572876,62.7570991516,103.185974121,6.80962324142
1646745834111497038,94,1646745834111497038,r1000913c5/base_front_laser_link,0,1646745834111497038,v/m1vw10zy74w/map,-8.40391437321,-0.738652984176,0.165,0.0,0.0,-0.99999396499,-0.0034741880634,0,64.9878005981,62.780582428,103.112091064,6.77717065811
1646745834347657668,95,1646745834347657668,r1000913c5/base_front_laser_link,0,1646745834347657668,v/m1vw10zy74w/map,-8.68907600846,-0.711129564885,0.165,0.0,0.0,-0.999999999882,-1.53478000805e-05,0,66.0556106567,62.8146972656,103.06375885,6.74968862534
1646745834426512461,96,1646745834426512461,r1000913c5/base_front_laser_link,0,1646745834426512461,v/m1vw10zy74w/map,-8.78465423915,-0.715034982914,0.165,0.0,0.0,-0.999993787001,0.00352504739215,0,63.3302612305,62.8200111389,102.963951111,6.71464586258
1646745834504573878,97,1646745834504573878,r1000913c5/base_front_laser_link,0,1646745834504573878,v/m1vw10zy74w/map,-8.88675735236,-0.714963843783,0.165,0.0,0.0,-0.999989941181,0.0044852577472,0,62.0722808838,62.8123817444,102.853500366,6.68037176132
1646745834662382292,98,1646745834662382292,r1000913c5/base_front_laser_link,0,1646745834662382292,v/m1vw10zy74w/map,-9.08730037942,-0.724258581428,0.165,0.0,0.0,-0.999970301783,0.00770685102429,0,62.085105896,62.8050346375,102.744842529,6.64660263062
1646745834740451260,99,1646745834740451260,r1000913c5/base_front_laser_link,0,1646745834740451260,v/m1vw10zy74w/map,-9.1916201206,-0.717133047678,0.165,0.0,0.0,-0.999984624632,0.00554531336323,0,60.9782028198,62.7867660522,102.633178711,6.6154718399
1646745834898996181,100,1646745834898996181,r1000913c5/base_front_laser_link,0,1646745834898996181,v/m1vw10zy74w/map,-9.39818968763,-0.719780629332,0.165,0.0,0.0,-0.999981837113,0.00602705924471,0,61.0744438171,62.7698135376,102.523361206,6.58451604843
1646745835055504732,101,1646745835055504732,r1000913c5/base_front_laser_link,0,1646745835055504732,v/m1vw10zy74w/map,-9.6076490501,-0.719849776396,0.165,0.0,0.0,-0.999993586224,0.00358155136026,0,51.7014694214,62.6613006592,102.589897156,6.64286422729
1646745835134510834,102,1646745835134510834,r1000913c5/base_front_laser_link,0,1646745835134510834,v/m1vw10zy74w/map,-9.71345777708,-0.719325722662,0.165,0.0,0.0,-0.999999176482,0.00128336837168,0,55.5680084229,62.5924339294,102.533638,6.64706802368
1646745835213537871,103,1646745835213537871,r1000913c5/base_front_laser_link,0,1646745835213537871,v/m1vw10zy74w/map,-9.8072264267,-0.756677410697,0.165,0.0,0.0,-0.999999461385,0.00103789664556,0,61.6000289917,62.5828895569,102.429206848,6.61543798447
1646745835291561834,104,1646745835291561834,r1000913c5/base_front_laser_link,0,1646745835291561834,v/m1vw10zy74w/map,-9.9112902285,-0.756972731267,0.165,0.0,0.0,-0.999997413148,-0.00227457643824,0,62.1681594849,62.5789413452,102.329986572,6.58368062973
1646745835370367453,105,1646745835370367453,r1000913c5/base_front_laser_link,0,1646745835370367453,v/m1vw10zy74w/map,-10.0167008461,-0.752087306013,0.165,0.0,0.0,-0.999974977866,-0.00707415303447,0,59.1091804504,62.546207428,102.22895813,6.56091594696
1646745835527456163,106,1646745835527456163,r1000913c5/base_front_laser_link,0,1646745835527456163,v/m1vw10zy74w/map,-10.2255255067,-0.759611892721,0.165,0.0,0.0,-0.999878632083,-0.0155795091081,0,64.7274856567,62.5665931702,102.166488647,6.53329896927
1646745835607384796,107,1646745835607384796,r1000913c5/base_front_laser_link,0,1646745835607384796,v/m1vw10zy74w/map,-10.3364587852,-0.752964560837,0.165,0.0,0.0,-0.999806702043,-0.0196610922703,0,60.6987838745,62.5492973328,102.064842224,6.50518131256
1646745835764520450,108,1646745835764520450,r1000913c5/base_front_laser_link,0,1646745835764520450,v/m1vw10zy74w/map,-10.5531483564,-0.74501389717,0.165,0.0,0.0,-0.999776684786,-0.0211324527316,0,63.1811676025,62.5550956726,101.980926514,6.47527742386
1646745835922665160,109,1646745835922665160,r1000913c5/base_front_laser_link,0,1646745835922665160,v/m1vw10zy74w/map,-10.7854454028,-0.728660651848,0.165,0.0,0.0,-0.9997607971,-0.0218711815453,0,60.08644104,62.5326538086,101.88205719,6.44980239868
1646745836001520437,110,1646745836001520437,r1000913c5/base_front_laser_link,0,1646745836001520437,v/m1vw10zy74w/map,-10.9061886725,-0.728019265056,0.165,0.0,0.0,-0.999775041,-0.0212100776576,0,59.2753067017,62.5033073425,101.786880493,6.42785787582
1646745836158639308,111,1646745836158639308,r1000913c5/base_front_laser_link,0,1646745836158639308,v/m1vw10zy74w/map,-11.1250779954,-0.717263958395,0.165,0.0,0.0,-0.999788316997,-0.0205747708539,0,56.6385383606,62.4509429932,101.719314575,6.42279005051
1646745836237511778,112,1646745836237511778,r1000913c5/base_front_laser_link,0,1646745836237511778,v/m1vw10zy74w/map,-11.2415289417,-0.71424653268,0.165,0.0,0.0,-0.999819304622,-0.0190094214967,0,56.5066146851,62.3983383179,101.653717041,6.41845798492
1646745836394517609,113,1646745836394517609,r1000913c5/base_front_laser_link,0,1646745836394517609,v/m1vw10zy74w/map,-11.4654220906,-0.689909345524,0.165,0.0,0.0,-0.999848272799,-0.0174192818927,0,56.4156723022,62.3458595276,101.589401245,6.41451501846
1646745836552459461,114,1646745836552459461,r1000913c5/base_front_laser_link,0,1646745836552459461,v/m1vw10zy74w/map,-11.715309402,-0.67853442997,0.165,0.0,0.0,-0.999928278008,-0.011976595516,0,61.2736434937,62.3365364075,101.497840881,6.38710165024
1646745836709574511,115,1646745836709574511,r1000913c5/base_front_laser_link,0,1646745836709574511,v/m1vw10zy74w/map,-11.9419988377,-0.676262091294,0.165,0.0,0.0,-0.999983437154,-0.00575546854721,0,59.1749534607,62.3092803955,101.407409668,6.36604261398
1646745836788517294,116,1646745836788517294,r1000913c5/base_front_laser_link,0,1646745836788517294,v/m1vw10zy74w/map,-12.0571789646,-0.676506641108,0.165,0.0,0.0,-0.99999101304,-0.00423955655527,0,60.1206359863,62.2905731201,101.315895081,6.34177207947
1646745836866482456,117,1646745836866482456,r1000913c5/base_front_laser_link,0,1646745836866482456,v/m1vw10zy74w/map,-12.1792505081,-0.686131459451,0.165,0.0,0.0,-0.999999741572,-0.000718927078713,0,62.5092353821,62.292427063,101.236358643,6.3146443367
1646745837024615531,118,1646745837024615531,r1000913c5/base_front_laser_link,0,1646745837024615531,v/m1vw10zy74w/map,-12.3921079406,-0.704092884443,0.165,0.0,0.0,-0.999999889861,-0.000469337287379,0,59.0230293274,62.2649536133,101.149864197,6.29496908188
1646745837102481737,119,1646745837102481737,r1000913c5/base_front_laser_link,0,1646745837102481737,v/m1vw10zy74w/map,-12.495337104,-0.70112741721,0.165,0.0,0.0,-0.999992303209,-0.00392345797234,0,56.5729598999,62.2175216675,101.087409973,6.28996276855
1646745837260561192,120,1646745837260561192,r1000913c5/base_front_laser_link,0,1646745837260561192,v/m1vw10zy74w/map,-12.6589169025,-0.662860829948,0.165,0.0,0.0,-0.99990714148,-0.0136274875332,0,56.2523841858,62.16822052,101.02960968,6.28713035583
1646745837418652279,121,1646745837418652279,r1000913c5/base_front_laser_link,0,1646745837418652279,v/m1vw10zy74w/map,-12.788756242,-0.653051211845,0.165,0.0,0.0,-0.99989970269,-0.0141627879064,0,57.667640686,62.1313323975,100.954353333,6.27434110641
1646745837575874510,122,1646745837575874510,r1000913c5/base_front_laser_link,0,1646745837575874510,v/m1vw10zy74w/map,-12.9022904461,-0.659097598429,0.165,0.0,0.0,-0.999913132032,-0.0131806065933,0,58.4038276672,62.1010284424,100.873847961,6.25760602951
1646745837813209981,123,1646745837813209981,r1000913c5/base_front_laser_link,0,1646745837813209981,v/m1vw10zy74w/map,-13.0097025344,-0.676238969826,0.165,0.0,0.0,-0.999981375799,-0.00610311853775,0,58.078994751,62.0685920715,100.796318054,6.24257421494
1646745838050697701,124,1646745838050697701,r1000913c5/base_front_laser_link,0,1646745838050697701,v/m1vw10zy74w/map,-13.0845614143,-0.689763696742,0.165,0.0,0.0,-0.999974542333,0.00713545272647,0,59.3001747131,62.0464439392,100.713287354,6.22228050232
1646745838207386391,125,1646745838207386391,r1000913c5/base_front_laser_link,0,1646745838207386391,v/m1vw10zy74w/map,-13.1286711371,-0.697252890607,0.165,0.0,0.0,-0.999858915786,0.0167972772288,0,60.2755317688,62.0323905945,100.630439758,6.19934940338
1646745838364510543,126,1646745838364510543,r1000913c5/base_front_laser_link,0,1646745838364510543,v/m1vw10zy74w/map,-13.1825389349,-0.71656543368,0.165,0.0,0.0,-0.999510176578,0.031295477571,0,61.2143974304,62.0259475708,100.551330566,6.17512655258
1646745838679553090,127,1646745838679553090,r1000913c5/base_front_laser_link,0,1646745838679553090,v/m1vw10zy74w/map,-13.2645058421,-0.744851428384,0.165,0.0,0.0,-0.998066817287,0.0621500461062,0,64.6311569214,62.0463027954,100.511528015,6.15507555008
1646745838836699100,128,1646745838836699100,r1000913c5/base_front_laser_link,0,1646745838836699100,v/m1vw10zy74w/map,-13.3050667052,-0.756017069056,0.165,0.0,0.0,-0.997048262758,0.0767773516786,0,60.152633667,62.0316238403,100.431381226,6.13325166702
1646745839152789568,129,1646745839152789568,r1000913c5/base_front_laser_link,0,1646745839152789568,v/m1vw10zy74w/map,-13.3771637673,-0.79434180312,0.165,0.0,0.0,-0.993621906523,0.11276305635,0,62.9155845642,62.0384216309,100.36819458,6.10992527008
1646745839308767681,130,1646745839308767681,r1000913c5/base_front_laser_link,0,1646745839308767681,v/m1vw10zy74w/map,-13.4073650864,-0.813220670928,0.165,0.0,0.0,-0.991493992158,0.130152462577,0,66.9676208496,62.0760498047,100.380844116,6.10159778595
1646745839466343445,131,1646745839466343445,r1000913c5/base_front_laser_link,0,1646745839466343445,v/m1vw10zy74w/map,-13.4188466633,-0.834163629123,0.165,0.0,0.0,-0.987966811946,0.154666022428,0,67.2974777222,62.1156044006,100.401298523,6.09523105621
1646745839545502980,132,1646745839545502980,r1000913c5/base_front_laser_link,0,1646745839545502980,v/m1vw10zy74w/map,-13.4184255753,-0.842022666932,0.165,0.0,0.0,-0.98617609532,0.165700660888,0,65.0890579224,62.1379623413,100.370674133,6.07757091522
1646745839860866754,133,1646745839860866754,r1000913c5/base_front_laser_link,0,1646745839860866754,v/m1vw10zy74w/map,-13.400425036,-0.877721781644,0.165,0.0,0.0,-0.974403027927,0.224808227535,0,66.7449035645,62.1723442078,100.375579834,6.06774520874
1646745839938826006,134,1646745839938826006,r1000913c5/base_front_laser_link,0,1646745839938826006,v/m1vw10zy74w/map,-13.3945853013,-0.889301615469,0.165,0.0,0.0,-0.969863690202,0.243648152932,0,66.8949050903,62.2073249817,100.383460999,6.05871105194
1646745840252849175,135,1646745840252849175,r1000913c5/base_front_laser_link,0,1646745840252849175,v/m1vw10zy74w/map,-13.3754926768,-0.92801762356,0.165,0.0,0.0,-0.949456846955,0.31389758803,0,69.0985336304,62.2579956055,100.45324707,6.0650844574
1646745840331896365,136,1646745840331896365,r1000913c5/base_front_laser_link,0,1646745840331896365,v/m1vw10zy74w/map,-13.3682744787,-0.937412020477,0.165,0.0,0.0,-0.94375511311,0.330645257759,0,68.3690414429,62.3026008606,100.498374939,6.06525850296
1646745840567926122,137,1646745840567926122,r1000913c5/base_front_laser_link,0,1646745840567926122,v/m1vw10zy74w/map,-13.3615421751,-0.971264911497,0.165,0.0,0.0,-0.924669453645,0.380770799163,0,71.6771774292,62.3705329895,100.657165527,6.0955452919
1646745840724890523,138,1646745840724890523,r1000913c5/base_front_laser_link,0,1646745840724890523,v/m1vw10zy74w/map,-13.3411323334,-0.981088619178,0.165,0.0,0.0,-0.911002504582,0.412400820374,0,73.2953033447,62.4491271973,100.880233765,6.14370107651
1646745840960922621,139,1646745840960922621,r1000913c5/base_front_laser_link,0,1646745840960922621,v/m1vw10zy74w/map,-13.3146624427,-1.00277489074,0.165,0.0,0.0,-0.88837854019,0.4591117177,0,70.8138809204,62.5088768005,100.995620728,6.16224765778
1646745841117757209,140,1646745841117757209,r1000913c5/base_front_laser_link,0,1646745841117757209,v/m1vw10zy74w/map,-13.2947852609,-1.01705078352,0.165,0.0,0.0,-0.871379407566,0.4906097513,0,69.6682662964,62.5596542358,101.068847656,6.16973114014
1646745841353929259,141,1646745841353929259,r1000913c5/base_front_laser_link,0,1646745841353929259,v/m1vw10zy74w/map,-13.2651074843,-1.03196361333,0.165,0.0,0.0,-0.844307087128,0.535859629591,0,63.7199630737,62.5678253174,101.013580322,6.14858484268
1646745841590006538,142,1646745841590006538,r1000913c5/base_front_laser_link,0,1646745841590006538,v/m1vw10zy74w/map,-13.2321712385,-1.03702371921,0.165,0.0,0.0,-0.816306419778,0.577619103761,0,61.8427391052,62.56275177,100.944343567,6.12719678879
1646745841747981546,143,1646745841747981546,r1000913c5/base_front_laser_link,0,1646745841747981546,v/m1vw10zy74w/map,-13.2118548622,-1.04719641923,0.165,0.0,0.0,-0.795819414384,0.605534028515,0,63.3560523987,62.5682640076,100.886543274,6.10609292984
1646745841905057511,144,1646745841905057511,r1000913c5/base_front_laser_link,0,1646745841905057511,v/m1vw10zy74w/map,-13.1961133139,-1.05468230508,0.165,0.0,0.0,-0.777774667864,0.628543209357,0,62.1925430298,62.5656700134,100.820472717,6.08493423462
1646745842220085437,145,1646745842220085437,r1000913c5/base_front_laser_link,0,1646745842220085437,v/m1vw10zy74w/map,-13.1617650722,-1.06308923996,0.165,0.0,0.0,-0.742358538251,0.670002836327,0,64.9642868042,62.5820999146,100.783592224,6.06716394424
1646745844662118550,146,1646745844662118550,r1000913c5/base_front_laser_link,0,1646745844662118550,v/m1vw10zy74w/map,-13.1188710753,-1.04476400785,0.165,0.0,0.0,-0.709875349037,0.704327330742,0,63.4169082642,62.5877799988,100.728004456,6.04674243927
1646745844819244763,147,1646745844819244763,r1000913c5/base_front_laser_link,0,1646745844819244763,v/m1vw10zy74w/map,-13.1187587724,-1.04636699364,0.165,0.0,0.0,-0.709743759982,0.704459931555,0,62.9689254761,62.5903549194,100.669021606,6.02622175217
1646745845055521388,148,1646745845055521388,r1000913c5/base_front_laser_link,0,1646745845055521388,v/m1vw10zy74w/map,-13.1161997102,-1.07091245541,0.165,0.0,0.0,-0.706957383433,0.707256147382,0,60.9457855225,62.5793151855,100.601333618,6.0073390007
1646745845134285444,149,1646745845134285444,r1000913c5/base_front_laser_link,0,1646745845134285444,v/m1vw10zy74w/map,-13.1107072316,-1.08705405862,0.165,0.0,0.0,-0.701245852153,0.712919529006,0,66.2912368774,62.6040611267,100.588500977,5.99481248856
1646745845372127887,150,1646745845372127887,r1000913c5/base_front_laser_link,0,1646745845372127887,v/m1vw10zy74w/map,-13.0769565769,-1.15294608269,0.165,0.0,0.0,-0.668497556778,0.743714338024,0,63.0912742615,62.6072883606,100.532073975,5.97492790222
1646745845450346729,151,1646745845450346729,r1000913c5/base_front_laser_link,0,1646745845450346729,v/m1vw10zy74w/map,-13.0649568883,-1.17442981977,0.165,0.0,0.0,-0.658027177148,0.75299417935,0,63.1869850159,62.6111030579,100.476989746,5.95529603958
1646745845528070498,152,1646745845528070498,r1000913c5/base_front_laser_link,0,1646745845528070498,v/m1vw10zy74w/map,-13.0537046249,-1.1954925864,0.165,0.0,0.0,-0.648849732643,0.760916568652,0,61.4973297119,62.6038246155,100.412895203,5.93635702133
1646745845608180478,153,1646745845608180478,r1000913c5/base_front_laser_link,0,1646745845608180478,v/m1vw10zy74w/map,-13.0432528752,-1.21723927792,0.165,0.0,0.0,-0.641236577639,0.767343242296,0,61.5585708618,62.5970344543,100.349609375,5.91752481461
1646745845686140996,154,1646745845686140996,r1000913c5/base_front_laser_link,0,1646745845686140996,v/m1vw10zy74w/map,-13.0337639554,-1.23854440563,0.165,0.0,0.0,-0.634987927253,0.77252205939,0,65.8120880127,62.6177787781,100.329574585,5.9039311409
1646745845921330637,155,1646745845921330637,r1000913c5/base_front_laser_link,0,1646745845921330637,v/m1vw10zy74w/map,-13.0242247916,-1.30422844662,0.165,0.0,0.0,-0.637481515601,0.770465649634,0,67.1058578491,62.6465492249,100.333999634,5.8958158493
1646745846001316718,156,1646745846001316718,r1000913c5/base_front_laser_link,0,1646745846001316718,v/m1vw10zy74w/map,-13.0220455827,-1.32790520814,0.165,0.0,0.0,-0.64061544126,0.767861873268,0,64.4727172852,62.6581802368,100.294265747,5.87869548798
1646745846157268387,157,1646745846157268387,r1000913c5/base_front_laser_link,0,1646745846157268387,v/m1vw10zy74w/map,-13.0219153032,-1.37287179187,0.165,0.0,0.0,-0.649195052819,0.760621971412,0,64.1335830688,62.6675186157,100.25087738,5.86111927032
1646745846236489160,158,1646745846236489160,r1000913c5/base_front_laser_link,0,1646745846236489160,v/m1vw10zy74w/map,-13.0230758188,-1.39573368094,0.165,0.0,0.0,-0.654417969819,0.756133004687,0,62.6693725586,62.6675300598,100.195152283,5.84254169464
1646745846394368113,159,1646745846394368113,r1000913c5/base_front_laser_link,0,1646745846394368113,v/m1vw10zy74w/map,-13.0289384803,-1.44146724983,0.165,0.0,0.0,-0.667519302659,0.744592492964,0,60.4165992737,62.6534614563,100.134033203,5.82685804367
1646745846552317105,160,1646745846552317105,r1000913c5/base_front_laser_link,0,1646745846552317105,v/m1vw10zy74w/map,-13.0325444407,-1.49602306193,0.165,0.0,0.0,-0.677287846757,0.735718133959,0,62.9744758606,62.655456543,100.081481934,5.80867576599
1646745846630217365,161,1646745846630217365,r1000913c5/base_front_laser_link,0,1646745846630217365,v/m1vw10zy74w/map,-13.0380243909,-1.51877040228,0.165,0.0,0.0,-0.685116373212,0.728433631264,0,64.5414199829,62.6670951843,100.04460907,5.79250383377
1646745846788196653,162,1646745846788196653,r1000913c5/base_front_laser_link,0,1646745846788196653,v/m1vw10zy74w/map,-13.0498201007,-1.56442338872,0.165,0.0,0.0,-0.6998827832,0.71425771944,0,63.9493637085,62.6749649048,100.00138092,5.77547121048
1646745846946424036,163,1646745846946424036,r1000913c5/base_front_laser_link,0,1646745846946424036,v/m1vw10zy74w/map,-13.0623177719,-1.60937233948,0.165,0.0,0.0,-0.713212607262,0.70094777041,0,60.7913017273,62.6634788513,99.9422988892,5.75960636139
1646745847104386550,164,1646745847104386550,r1000913c5/base_front_laser_link,0,1646745847104386550,v/m1vw10zy74w/map,-13.0697367822,-1.65942504192,0.165,0.0,0.0,-0.720813659025,0.693128897798,0,65.115737915,62.6783409119,99.9139175415,5.74519252777
1646745847183490164,165,1646745847183490164,r1000913c5/base_front_laser_link,0,1646745847183490164,v/m1vw10zy74w/map,-13.0751223509,-1.68141855548,0.165,0.0,0.0,-0.725346174388,0.688384287518,0,58.7805519104,62.6548576355,99.8620834351,5.73574018478
1646745847419959561,166,1646745847419959561,r1000913c5/base_front_laser_link,0,1646745847419959561,v/m1vw10zy74w/map,-13.0848456824,-1.74779483077,0.165,0.0,0.0,-0.73115013522,0.682216593002,0,59.2324256897,62.6343650818,99.8080673218,5.72456693649
1646745847499335076,167,1646745847499335076,r1000913c5/base_front_laser_link,0,1646745847499335076,v/m1vw10zy74w/map,-13.0853837,-1.77444847131,0.165,0.0,0.0,-0.729287552486,0.684207326612,0,57.6259384155,62.6045532227,99.765953064,5.72046756744
1646745852849778480,168,1646745852849778480,r1000913c5/base_front_laser_link,0,1646745852849778480,v/m1vw10zy74w/map,-13.0643562023,-2.59745956327,0.165,0.0,0.0,-0.707247723023,0.706965811252,0,73.356803894,62.6681747437,99.9574050903,5.76307678223
1646745852928647034,169,1646745852928647034,r1000913c5/base_front_laser_link,0,1646745852928647034,v/m1vw10zy74w/map,-13.0643602928,-2.61356801949,0.165,0.0,0.0,-0.707245164901,0.706968370384,0,71.333770752,62.7191505432,100.07208252,5.78431034088
1646745856705080582,170,1646745856705080582,r1000913c5/base_front_laser_link,0,1646745856705080582,v/m1vw10zy74w/map,-13.0906675225,-2.75113422683,0.165,0.0,0.0,-0.710905336322,0.703287709824,0,60.2914505005,62.70495224,100.015731812,5.77025985718
1646745856783933083,171,1646745856783933083,r1000913c5/base_front_laser_link,0,1646745856783933083,v/m1vw10zy74w/map,-13.0906499379,-2.75023391749,0.165,0.0,0.0,-0.71089707193,0.703296063632,0,60.3146095276,62.6910552979,99.9598007202,5.7562494278
1646745856940972189,172,1646745856940972189,r1000913c5/base_front_laser_link,0,1646745856940972189,v/m1vw10zy74w/map,-13.0906033349,-2.74296959724,0.165,0.0,0.0,-0.710930660159,0.703262110771,0,58.6583824158,62.6677474976,99.910774231,5.74767494202
1646745857097853151,173,1646745857097853151,r1000913c5/base_front_laser_link,0,1646745857097853151,v/m1vw10zy74w/map,-13.0907326164,-2.72235526798,0.165,0.0,0.0,-0.711312184618,0.702876216709,0,60.1695175171,62.6533889771,99.8558883667,5.73416757584
1646745857177135878,174,1646745857177135878,r1000913c5/base_front_laser_link,0,1646745857177135878,v/m1vw10zy74w/map,-13.0906511467,-2.71025890609,0.165,0.0,0.0,-0.711377662764,0.702809946515,0,59.4097480774,62.634853363,99.8036193848,5.72292137146
1646745857334082940,175,1646745857334082940,r1000913c5/base_front_laser_link,0,1646745857334082940,v/m1vw10zy74w/map,-13.0901863202,-2.67687236962,0.165,0.0,0.0,-0.711317356803,0.702870982407,0,58.6828460693,62.6124000549,99.7553482056,5.71431684494
1646745857413102901,176,1646745857413102901,r1000913c5/base_front_laser_link,0,1646745857413102901,v/m1vw10zy74w/map,-13.0897752047,-2.6572873503,0.165,0.0,0.0,-0.711126300804,0.703064281773,0,66.9171066284,62.63671875,99.7584381104,5.707239151
1646745857570109988,177,1646745857570109988,r1000913c5/base_front_laser_link,0,1646745857570109988,v/m1vw10zy74w/map,-13.0892698389,-2.61483299126,0.165,0.0,0.0,-0.711104281873,0.703086552496,0,65.9971313477,62.6555976868,99.74559021,5.69666481018
1646745857649103563,178,1646745857649103563,r1000913c5/base_front_laser_link,0,1646745857649103563,v/m1vw10zy74w/map,-13.088793387,-2.59027711561,0.165,0.0,0.0,-0.710891026915,0.703302173928,0,69.4337310791,62.6934661865,99.803024292,5.70318698883
1646745857727132420,179,1646745857727132420,r1000913c5/base_front_laser_link,0,1646745857727132420,v/m1vw10zy74w/map,-13.0878903093,-2.56576467102,0.165,0.0,0.0,-0.710201620744,0.70399833657,0,72.3294906616,62.7469978333,99.9442138672,5.73240613937
1646745857805971394,180,1646745857805971394,r1000913c5/base_front_laser_link,0,1646745857805971394,v/m1vw10zy74w/map,-13.0868752024,-2.54066957435,0.165,0.0,0.0,-0.709336552615,0.704869956179,0,73.1193237305,62.8043022156,100.108955383,5.76821613312
1646745857963848453,181,1646745857963848453,r1000913c5/base_front_laser_link,0,1646745857963848453,v/m1vw10zy74w/map,-13.0869666409,-2.49242247768,0.165,0.0,0.0,-0.709770255363,0.704433236441,0,73.583366394,62.8635292053,100.285987854,5.80748558044
1646745858042067224,182,1646745858042067224,r1000913c5/base_front_laser_link,0,1646745858042067224,v/m1vw10zy74w/map,-13.0868202498,-2.46995781559,0.165,0.0,0.0,-0.709796209211,0.704407084994,0,73.4645614624,62.921459198,100.454315186,5.8442864418
1646745858200909568,183,1646745858200909568,r1000913c5/base_front_laser_link,0,1646745858200909568,v/m1vw10zy74w/map,-13.0863854635,-2.4251383603,0.165,0.0,0.0,-0.709692512796,0.704511559367,0,72.3454360962,62.9726753235,100.581352234,5.86955785751
1646745858357899238,184,1646745858357899238,r1000913c5/base_front_laser_link,0,1646745858357899238,v/m1vw10zy74w/map,-13.0855100844,-2.38132953176,0.165,0.0,0.0,-0.709077745133,0.705130308069,0,71.5432815552,63.0190048218,100.681213379,5.88740444183
1646745858435958770,185,1646745858435958770,r1000913c5/base_front_laser_link,0,1646745858435958770,v/m1vw10zy74w/map,-13.0755122573,-2.37423167232,0.165,0.0,0.0,-0.709970580725,0.70423133593,0,72.0632858276,63.0676269531,100.794036865,5.90880250931
1646745858514018000,186,1646745858514018000,r1000913c5/base_front_laser_link,0,1646745858514018000,v/m1vw10zy74w/map,-13.0750385474,-2.35406043719,0.165,0.0,0.0,-0.709558815582,0.704646214231,0,72.0589523315,63.1157112122,100.90410614,5.92946529388
1646745858593162431,187,1646745858593162431,r1000913c5/base_front_laser_link,0,1646745858593162431,v/m1vw10zy74w/map,-13.0747802308,-2.33143816262,0.165,0.0,0.0,-0.709448228146,0.704757555178,0,72.2493133545,63.1642951965,101.01726532,5.95099020004
1646745858750025099,188,1646745858750025099,r1000913c5/base_front_laser_link,0,1646745858750025099,v/m1vw10zy74w/map,-13.074817702,-2.28644042964,0.165,0.0,0.0,-0.709812689914,0.704390477816,0,70.9326477051,63.2053947449,101.091339111,5.96198034286
1646745858829090203,189,1646745858829090203,r1000913c5/base_front_laser_link,0,1646745858829090203,v/m1vw10zy74w/map,-13.0749381948,-2.26399355415,0.165,0.0,0.0,-0.710130484913,0.704070091963,0,69.3124237061,63.237537384,101.125549316,5.9626698494
1646745858986141281,190,1646745858986141281,r1000913c5/base_front_laser_link,0,1646745858986141281,v/m1vw10zy74w/map,-13.0728542022,-2.23403972996,0.165,0.0,0.0,-0.709929766805,0.704272480085,0,71.3072433472,63.2797889709,101.206451416,5.97555446625
1646745859066160920,191,1646745859066160920,r1000913c5/base_front_laser_link,0,1646745859066160920,v/m1vw10zy74w/map,-13.0727639863,-2.21133609825,0.165,0.0,0.0,-0.710028920908,0.704172515421,0,69.4699020386,63.3120269775,101.241859436,5.97661066055
1646745859144203144,192,1646745859144203144,r1000913c5/base_front_laser_link,0,1646745859144203144,v/m1vw10zy74w/map,-13.0726152049,-2.18935181328,0.165,0.0,0.0,-0.710064917765,0.704136217333,0,68.5618133545,63.3392295837,101.258201599,5.97299194336
1646745859301996112,193,1646745859301996112,r1000913c5/base_front_laser_link,0,1646745859301996112,v/m1vw10zy74w/map,-13.0722888608,-2.14444321554,0.165,0.0,0.0,-0.710120843134,0.704079816602,0,64.5041351318,63.3452339172,101.219490051,5.95808458328
1646745859458220273,194,1646745859458220273,r1000913c5/base_front_laser_link,0,1646745859458220273,v/m1vw10zy74w/map,-13.074316101,-2.1169868841,0.165,0.0,0.0,-0.707752874557,0.706460096931,0,63.3703422546,63.3453636169,101.173492432,5.94270944595
1646745859538091840,195,1646745859538091840,r1000913c5/base_front_laser_link,0,1646745859538091840,v/m1vw10zy74w/map,-13.0742770534,-2.094147259,0.165,0.0,0.0,-0.707755678212,0.706457288135,0,61.9288330078,63.3381347656,101.123085022,5.9283156395
1646745859616045608,196,1646745859616045608,r1000913c5/base_front_laser_link,0,1646745859616045608,v/m1vw10zy74w/map,-13.0742521398,-2.0719487698,0.165,0.0,0.0,-0.707772714928,0.706440219696,0,58.7452163696,63.3148193359,101.081481934,5.9222202301
1646745859695115326,197,1646745859695115326,r1000913c5/base_front_laser_link,0,1646745859695115326,v/m1vw10zy74w/map,-13.0742191201,-2.04950044548,0.165,0.0,0.0,-0.707782908133,0.706430007117,0,66.0574951172,63.3286743164,101.059829712,5.91038513184
1646745859774123389,198,1646745859774123389,r1000913c5/base_front_laser_link,0,1646745859774123389,v/m1vw10zy74w/map,-13.0741720551,-2.02715076171,0.165,0.0,0.0,-0.707778253252,0.706434670881,0,64.737159729,63.3357505798,101.024612427,5.89628648758
1646745859851089566,199,1646745859851089566,r1000913c5/base_front_laser_link,0,1646745859851089566,v/m1vw10zy74w/map,-13.0692378262,-1.99095675631,0.165,0.0,0.0,-0.709967647048,0.704234293503,0,64.738494873,63.3427658081,100.989631653,5.88228940964
1646745859930202964,200,1646745859930202964,r1000913c5/base_front_laser_link,0,1646745859930202964,v/m1vw10zy74w/map,-13.0692103965,-1.9682122301,0.165,0.0,0.0,-0.709942839453,0.704259302182,0,66.8050003052,63.3599891663,100.977920532,5.87264490128
1646745860087162624,201,1646745860087162624,r1000913c5/base_front_laser_link,0,1646745860087162624,v/m1vw10zy74w/map,-13.0688634982,-1.92414022534,0.165,0.0,0.0,-0.709951480933,0.704250590856,0,62.6097564697,63.3562736511,100.931045532,5.85825586319
1646745860245257938,202,1646745860245257938,r1000913c5/base_front_laser_link,0,1646745860245257938,v/m1vw10zy74w/map,-13.0685602203,-1.87899205065,0.165,0.0,0.0,-0.710018649692,0.704182871909,0,64.0548477173,63.3597183228,100.891548157,5.84394311905
1646745860402246204,203,1646745860402246204,r1000913c5/base_front_laser_link,0,1646745860402246204,v/m1vw10zy74w/map,-13.0717892902,-1.82479220617,0.165,0.0,0.0,-0.709461855947,0.704743836408,0,58.7871589661,63.3373031616,100.852249146,5.83831548691
1646745860559294627,204,1646745860559294627,r1000913c5/base_front_laser_link,0,1646745860559294627,v/m1vw10zy74w/map,-13.0715115409,-1.7800007284,0.165,0.0,0.0,-0.709484214993,0.704721326963,0,59.5568466187,63.3188591003,100.808769226,5.8299703598
1646745860638256954,205,1646745860638256954,r1000913c5/base_front_laser_link,0,1646745860638256954,v/m1vw10zy74w/map,-13.0713919474,-1.75766308164,0.165,0.0,0.0,-0.709517584226,0.704687730612,0,59.8135185242,63.3018455505,100.764419556,5.82085943222
1646745860795460005,206,1646745860795460005,r1000913c5/base_front_laser_link,0,1646745860795460005,v/m1vw10zy74w/map,-13.0706923967,-1.71380845586,0.165,0.0,0.0,-0.710285931434,0.703913272787,0,61.2524757385,63.2919425964,100.717323303,5.80846071243
1646745860874187287,207,1646745860874187287,r1000913c5/base_front_laser_link,0,1646745860874187287,v/m1vw10zy74w/map,-13.0705991884,-1.69141729401,0.165,0.0,0.0,-0.710277429346,0.703921851743,0,57.0215110779,63.2617988586,100.693901062,5.81070232391
1646745861031211783,208,1646745861031211783,r1000913c5/base_front_laser_link,0,1646745861031211783,v/m1vw10zy74w/map,-13.0701432596,-1.64694576472,0.165,0.0,0.0,-0.710214526189,0.703985317169,0,60.1214370728,63.2467727661,100.649131775,5.80078601837
1646745861267604365,209,1646745861267604365,r1000913c5/base_front_laser_link,0,1646745861267604365,v/m1vw10zy74w/map,-13.0673346326,-1.57990297563,0.165,0.0,0.0,-0.708480408326,0.705730480437,0,62.0960884094,63.2412910461,100.603599548,5.78743648529
1646745861346271283,210,1646745861346271283,r1000913c5/base_front_laser_link,0,1646745861346271283,v/m1vw10zy74w/map,-13.0670482909,-1.55747446441,0.165,0.0,0.0,-0.708271366429,0.705940274738,0,62.8768119812,63.239566803,100.560653687,5.77369499207
1646745861504293179,211,1646745861504293179,r1000913c5/base_front_laser_link,0,1646745861504293179,v/m1vw10zy74w/map,-13.0667703596,-1.51236120069,0.165,0.0,0.0,-0.708201545198,0.706010319598,0,62.1156730652,63.2342643738,100.515808105,5.76051425934
1646745861661377485,212,1646745861661377485,r1000913c5/base_front_laser_link,0,1646745861661377485,v/m1vw10zy74w/map,-13.0665720628,-1.46722077968,0.165,0.0,0.0,-0.708136174682,0.706075886932,0,66.3954696655,63.2491035461,100.502082825,5.75099277496
1646745861741367462,213,1646745861741367462,r1000913c5/base_front_laser_link,0,1646745861741367462,v/m1vw10zy74w/map,-13.0624060072,-1.43999742621,0.165,0.0,0.0,-0.707013681594,0.707199868523,0,65.3657302856,63.2589950562,100.476898193,5.73930072784
1646745861897680995,214,1646745861897680995,r1000913c5/base_front_laser_link,0,1646745861897680995,v/m1vw10zy74w/map,-13.062147968,-1.39499101723,0.165,0.0,0.0,-0.706912921215,0.707300588024,0,63.1980857849,63.2587127686,100.436340332,5.72587680817
1646745862054498455,215,1646745862054498455,r1000913c5/base_front_laser_link,0,1646745862054498455,v/m1vw10zy74w/map,-13.0621674829,-1.34997412065,0.165,0.0,0.0,-0.706907132856,0.707306373163,0,62.7678108215,63.256439209,100.394371033,5.71264314651
1646745862133388953,216,1646745862133388953,r1000913c5/base_front_laser_link,0,1646745862133388953,v/m1vw10zy74w/map,-13.0621752274,-1.3273882523,0.165,0.0,0.0,-0.706901764162,0.707311738786,0,65.3980636597,63.2663078308,100.37008667,5.70125818253
1646745862211352488,217,1646745862211352488,r1000913c5/base_front_laser_link,0,1646745862211352488,v/m1vw10zy74w/map,-13.0639447185,-1.30403122233,0.165,0.0,0.0,-0.709255561224,0.704951451429,0,57.9252243042,63.241809845,100.34059906,5.6995973587
1646745862448226857,218,1646745862448226857,r1000913c5/base_front_laser_link,0,1646745862448226857,v/m1vw10zy74w/map,-13.0637663675,-1.23680117201,0.165,0.0,0.0,-0.70967408088,0.704530126345,0,62.2696304321,63.2373695374,100.298042297,5.68688964844
1646745862606359213,219,1646745862606359213,r1000913c5/base_front_laser_link,0,1646745862606359213,v/m1vw10zy74w/map,-13.0633953164,-1.19178001132,0.165,0.0,0.0,-0.709625506649,0.704579051855,0,59.2855873108,63.2194061279,100.25983429,5.68014287949
1646745862762319853,220,1646745862762319853,r1000913c5/base_front_laser_link,0,1646745862762319853,v/m1vw10zy74w/map,-13.0623317353,-1.14842846668,0.165,0.0,0.0,-0.710251517072,0.703947997011,0,60.2274856567,63.2058677673,100.21824646,5.67079114914
1646745862998461901,221,1646745862998461901,r1000913c5/base_front_laser_link,0,1646745862998461901,v/m1vw10zy74w/map,-13.0616249178,-1.08060006682,0.165,0.0,0.0,-0.710131920493,0.704068644023,0,59.6160545349,63.1896972656,100.178924561,5.66307449341
1646745863077605198,222,1646745863077605198,r1000913c5/base_front_laser_link,0,1646745863077605198,v/m1vw10zy74w/map,-13.0614196941,-1.05796518496,0.165,0.0,0.0,-0.710119833875,0.704080834519,0,56.9886283875,63.1618919373,100.15852356,5.66554355621
1646745863155465911,223,1646745863155465911,r1000913c5/base_front_laser_link,0,1646745863155465911,v/m1vw10zy74w/map,-13.0589963749,-1.04080744513,0.165,0.0,0.0,-0.71026694178,0.703932433842,0,61.0942001343,63.1526603699,100.116203308,5.65451431274
1646745863234543404,224,1646745863234543404,r1000913c5/base_front_laser_link,0,1646745863234543404,v/m1vw10zy74w/map,-13.0586187655,-1.02039042831,0.165,0.0,0.0,-0.710580867171,0.70361554219,0,58.9485206604,63.1339759827,100.080482483,5.64883613586
1646745863313420146,225,1646745863313420146,r1000913c5/base_front_laser_link,0,1646745863313420146,v/m1vw10zy74w/map,-13.0583531898,-0.997933149091,0.165,0.0,0.0,-0.71053310186,0.703663777071,0,60.6064567566,63.1227912903,100.039123535,5.63877630234
1646745863470569228,226,1646745863470569228,r1000913c5/base_front_laser_link,0,1646745863470569228,v/m1vw10zy74w/map,-13.0578609873,-0.953432330337,0.165,0.0,0.0,-0.710466055409,0.703731471594,0,59.2263450623,63.1056251526,100.002311707,5.63222789764
1646745863549477828,227,1646745863549477828,r1000913c5/base_front_laser_link,0,1646745863549477828,v/m1vw10zy74w/map,-13.0576143676,-0.931039944026,0.165,0.0,0.0,-0.710430044578,0.703767825181,0,59.6208953857,63.0903434753,99.963973999,5.62454509735
1646745863706564469,228,1646745863706564469,r1000913c5/base_front_laser_link,0,1646745863706564469,v/m1vw10zy74w/map,-13.0511858876,-0.893220203059,0.165,0.0,0.0,-0.713508910548,0.700646155038,0,61.2426490784,63.0822753906,99.9228515625,5.61352491379
1646745863785496240,229,1646745863785496240,r1000913c5/base_front_laser_link,0,1646745863785496240,v/m1vw10zy74w/map,-13.0507675958,-0.870402562212,0.165,0.0,0.0,-0.71350569459,0.70064943002,0,63.1664428711,63.0826416016,99.8864135742,5.60125780106
1646745863943460557,230,1646745863943460557,r1000913c5/base_front_laser_link,0,1646745863943460557,v/m1vw10zy74w/map,-13.0498764671,-0.824827974691,0.165,0.0,0.0,-0.713436205957,0.700720186686,0,57.0449142456,63.0565032959,99.8660049438,5.60316753387
1646745864100158164,231,1646745864100158164,r1000913c5/base_front_laser_link,0,1646745864100158164,v/m1vw10zy74w/map,-13.0532693793,-0.778239667186,0.165,0.0,0.0,-0.713117341376,0.701044690037,0,55.0464057922,63.0219764709,99.8690872192,5.61570453644
1646745866459763923,232,1646745866459763923,r1000913c5/base_front_laser_link,0,1646745866459763923,v/m1vw10zy74w/map,-13.0515530517,-0.686629920675,0.165,0.0,0.0,-0.713429267157,0.700727251335,0,59.2952537537,63.0059814453,99.8326950073,5.60890436172
1646745866695903469,233,1646745866695903469,r1000913c5/base_front_laser_link,0,1646745866695903469,v/m1vw10zy74w/map,-13.0504131998,-0.707657232863,0.165,0.0,0.0,-0.71186767474,0.702313614891,0,61.0593643188,62.9976615906,99.7925720215,5.59830188751
1646745866774993191,234,1646745866774993191,r1000913c5/base_front_laser_link,0,1646745866774993191,v/m1vw10zy74w/map,-13.0491911809,-0.716017537093,0.165,0.0,0.0,-0.710476787333,0.703720636802,0,63.2426795959,62.9987068176,99.7577514648,5.5863494873
1646745866931786466,235,1646745866931786466,r1000913c5/base_front_laser_link,0,1646745866931786466,v/m1vw10zy74w/map,-13.0446642703,-0.734166261309,0.165,0.0,0.0,-0.705623994411,0.708586465092,0,61.8490829468,62.9938354492,99.7186965942,5.57495355606
1646745867246805892,236,1646745867246805892,r1000913c5/base_front_laser_link,0,1646745867246805892,v/m1vw10zy74w/map,-13.0228204017,-0.776563877802,0.165,0.0,0.0,-0.683521886151,0.729930017983,0,66.1220245361,63.0070343018,99.7075500488,5.56683921814
1646745867403744814,237,1646745867403744814,r1000913c5/base_front_laser_link,0,1646745867403744814,v/m1vw10zy74w/map,-13.0056503827,-0.800679015189,0.165,0.0,0.0,-0.666910754201,0.745137602011,0,61.2682685852,62.9997291565,99.6684036255,5.55622577667
