%time,field.header.seq,field.header.stamp,field.header.frame_id,field.pose.header.seq,field.pose.header.stamp,field.pose.header.frame_id,field.pose.pose.position.x,field.pose.pose.position.y,field.pose.pose.position.z,field.pose.pose.orientation.x,field.pose.pose.orientation.y,field.pose.pose.orientation.z,field.pose.pose.orientation.w,field.label,field.current_error,field.mean,field.threshold,field.std_dev
1.64622490629021E+018,0,1.64622490629021E+018,r1000913c5/base_front_laser_link,0,1.64622490629021E+018,v/m1vw10zy74w/map,-2.84631026987,-2.50676200464,0.165,0,0,-0.705274628596,0.708934198822,0,63.1461906433,63.1461906433,86.0584030151,1.27010476589
1.64622490636931E+018,1,1.64622490636931E+018,r1000913c5/base_front_laser_link,0,1.64622490636931E+018,v/m1vw10zy74w/map,-2.84785727513,-2.48619914251,0.165,0,0,-0.705340078291,0.708869080971,0,61.3499908447,62.2480926514,86.0584030151,1.27010476589
1.64622490644633E+018,2,1.64622490644633E+018,r1000913c5/base_front_laser_link,0,1.64622490644633E+018,v/m1vw10zy74w/map,-2.84860489964,-2.47235857805,0.165,0,0,-0.705816790816,0.708394422481,0,62.8598327637,62.4520072937,85.3471603394,0.965052485466
1.64622490652519E+018,3,1.64622490652519E+018,r1000913c5/base_front_laser_link,0,1.64622490652519E+018,v/m1vw10zy74w/map,-2.84896766272,-2.44972523721,0.165,0,0,-0.706123062018,0.708089133715,0,61.6598930359,62.2539787292,84.8996734619,0.881898105145
1.64622490660445E+018,4,1.64622490660445E+018,r1000913c5/base_front_laser_link,0,1.64622490660445E+018,v/m1vw10zy74w/map,-2.84911079235,-2.42707327081,0.165,0,0,-0.706210261352,0.708002165788,0,59.3635177612,61.6758842468,86.1801452637,1.5014193058
1.64622490684033E+018,5,1.64622490684033E+018,r1000913c5/base_front_laser_link,0,1.64622490684033E+018,v/m1vw10zy74w/map,-2.8505747607,-2.38204307838,0.165,0,0,-0.703536669615,0.710658957944,0,58.7799568176,61.1932296753,86.5607528687,1.78917384148
1.64622490849552E+018,6,1.64622490849552E+018,r1000913c5/base_front_laser_link,0,1.64622490849552E+018,v/m1vw10zy74w/map,-2.84853659793,-2.25016206455,0.165,0,0,-0.699419026465,0.714711847823,0,62.2972373962,61.350944519,86.4081802368,1.68574547768
1.64622490904655E+018,7,1.64622490904655E+018,r1000913c5/base_front_laser_link,0,1.64622490904655E+018,v/m1vw10zy74w/map,-2.81470688923,-2.2472875541,0.165,0,0,-0.662291153623,0.749246573454,0,58.8206443787,61.0346565247,86.431388855,1.79891073704
1.64622490920443E+018,8,1.64622490920443E+018,r1000913c5/base_front_laser_link,0,1.64622490920443E+018,v/m1vw10zy74w/map,-2.79195014715,-2.24301632726,0.165,0,0,-0.636010601117,0.771680319347,0,61.3022727966,61.0643920898,86.1196594238,1.68508970737
1.6462249092834E+018,9,1.6462249092834E+018,r1000913c5/base_front_laser_link,0,1.6462249092834E+018,v/m1vw10zy74w/map,-2.77986157698,-2.24031479773,0.165,0,0,-0.621621406473,0.783317832693,0,57.5689430237,60.7148475647,86.5211029053,1.93541765213
1.64622490936261E+018,10,1.64622490936261E+018,r1000913c5/base_front_laser_link,0,1.64622490936261E+018,v/m1vw10zy74w/map,-2.76786460735,-2.2372404716,0.165,0,0,-0.607021030407,0.794685767234,0,60.0333213806,60.6528930664,86.1955718994,1.8475612402
1.64622490952053E+018,11,1.64622490952053E+018,r1000913c5/base_front_laser_link,0,1.64622490952053E+018,v/m1vw10zy74w/map,-2.74467245113,-2.23032305309,0.165,0,0,-0.577881810441,0.816120464859,0,59.3214302063,60.541934967,85.9510116577,1.80302488804
1.64622490959835E+018,12,1.64622490959835E+018,r1000913c5/base_front_laser_link,0,1.64622490959835E+018,v/m1vw10zy74w/map,-2.73746745139,-2.22454260957,0.165,0,0,-0.567220947431,0.823565660282,0,60.6312179565,60.5488052368,85.7281341553,1.72644245625
1.64622490983585E+018,13,1.64622490983585E+018,r1000913c5/base_front_laser_link,0,1.64622490983585E+018,v/m1vw10zy74w/map,-2.70382844922,-2.21025943992,0.165,0,0,-0.523620534537,0.851951604148,0,56.7368659973,60.2765235901,86.116317749,1.94659852982
1.64622490999262E+018,14,1.64622490999262E+018,r1000913c5/base_front_laser_link,0,1.64622490999262E+018,v/m1vw10zy74w/map,-2.68319432837,-2.19816949312,0.165,0,0,-0.49305439689,0.869998483738,0,55.4056396484,59.9517974854,86.7269439697,2.25838112831
1.64622491022969E+018,15,1.64622491022969E+018,r1000913c5/base_front_laser_link,0,1.64622491022969E+018,v/m1vw10zy74w/map,-2.65294236233,-2.17369985363,0.165,0,0,-0.445252924618,0.89540484314,0,56.8640136719,59.7588119507,86.7018280029,2.31433939934
1.64622491030777E+018,16,1.64622491030777E+018,r1000913c5/base_front_laser_link,0,1.64622491030777E+018,v/m1vw10zy74w/map,-2.64534899686,-2.16701592652,0.165,0,0,-0.429622629306,0.903008525092,0,56.7932090759,59.58436203,86.6447296143,2.35345435143
1.64622491046549E+018,17,1.64622491046549E+018,r1000913c5/base_front_laser_link,0,1.64622491046549E+018,v/m1vw10zy74w/map,-2.6266685076,-2.14992481538,0.165,0,0,-0.396135846852,0.918191913948,0,60.5405311584,59.6374855042,86.5203323364,2.29428219795
1.64622491062291E+018,18,1.64622491062291E+018,r1000913c5/base_front_laser_link,0,1.64622491062291E+018,v/m1vw10zy74w/map,-2.61031171001,-2.13350574469,0.165,0,0,-0.363583652306,0.931561553402,0,56.2532081604,59.4593658447,86.5422286987,2.36095476151
1.64622491078041E+018,19,1.64622491078041E+018,r1000913c5/base_front_laser_link,0,1.64622491078041E+018,v/m1vw10zy74w/map,-2.59283244815,-2.11515352557,0.165,0,0,-0.32927224879,0.944235026981,0,56.8583183289,59.3293113708,86.4406433105,2.37044405937
1.64622491085959E+018,20,1.64622491085959E+018,r1000913c5/base_front_laser_link,0,1.64622491085959E+018,v/m1vw10zy74w/map,-2.58592976097,-2.10147746169,0.165,0,0,-0.312152440243,0.950032027908,0,57.696269989,59.2515487671,86.2647781372,2.33774399757
1.64622491109557E+018,21,1.64622491109557E+018,r1000913c5/base_front_laser_link,0,1.64622491109557E+018,v/m1vw10zy74w/map,-2.56571297487,-2.07217211779,0.165,0,0,-0.260820189445,0.96538739829,0,56.3956260681,59.1217346191,86.2055130005,2.36125969887
1.64622491125249E+018,22,1.64622491125249E+018,r1000913c5/base_front_laser_link,0,1.64622491125249E+018,v/m1vw10zy74w/map,-2.55381686718,-2.05010796279,0.165,0,0,-0.226149331936,0.974092644293,0,57.1050033569,59.0340499878,86.0690002441,2.34498357773
1.64622491133178E+018,23,1.64622491133178E+018,r1000913c5/base_front_laser_link,0,1.64622491133178E+018,v/m1vw10zy74w/map,-2.54867190288,-2.03916512927,0.165,0,0,-0.208519159968,0.978018282,0,54.2152175903,58.8332633972,86.3197021484,2.49547791481
1.6462249114896E+018,24,1.6462249114896E+018,r1000913c5/base_front_laser_link,0,1.6462249114896E+018,v/m1vw10zy74w/map,-2.55447035978,-2.05480978167,0.165,0,0,-0.174363242831,0.984681400022,0,52.3022575378,58.5720252991,86.8826751709,2.77021622658
1.64622491172608E+018,25,1.64622491172608E+018,r1000913c5/base_front_laser_link,0,1.64622491172608E+018,v/m1vw10zy74w/map,-2.52792492881,-1.98518258122,0.165,0,0,-0.119378808095,0.992848780116,0,46.6962547302,58.1152648926,88.844833374,3.57652282715
1.64622491180456E+018,26,1.64622491180456E+018,r1000913c5/base_front_laser_link,0,1.64622491180456E+018,v/m1vw10zy74w/map,-2.52535785882,-1.97350359123,0.165,0,0,-0.101633427939,0.99482191689,0,47.588432312,57.7253799438,89.8758468628,4.05015611649
1.64622491196166E+018,27,1.64622491196166E+018,r1000913c5/base_front_laser_link,0,1.64622491196166E+018,v/m1vw10zy74w/map,-2.52040926821,-1.94787414443,0.165,0,0,-0.0662422752109,0.997803568331,0,50.9162139893,57.4821968079,90.0149078369,4.17757129669
1.6462249121207E+018,28,1.6462249121207E+018,r1000913c5/base_front_laser_link,0,1.6462249121207E+018,v/m1vw10zy74w/map,-2.51724752658,-1.92490613876,0.165,0,0,-0.0301569234094,0.999545176553,0,51.8415260315,57.287689209,89.9894104004,4.2339053154
1.64622491227807E+018,29,1.64622491227807E+018,r1000913c5/base_front_laser_link,0,1.64622491227807E+018,v/m1vw10zy74w/map,-2.51349497153,-1.90393135501,0.165,0,0,0.00504232075898,0.99998728742,0,49.1909065247,57.0177993774,90.263092041,4.41509723663
1.64622491235578E+018,30,1.64622491235578E+018,r1000913c5/base_front_laser_link,0,1.64622491235578E+018,v/m1vw10zy74w/map,-2.51341137511,-1.89239377031,0.165,0,0,0.0226215136386,0.999744100818,0,52.8287391663,56.8826675415,90.0994949341,4.40560817719
1.64622491259254E+018,31,1.64622491259254E+018,r1000913c5/base_front_laser_link,0,1.64622491259254E+018,v/m1vw10zy74w/map,-2.51564178952,-1.85877748672,0.165,0,0,0.0755610051764,0.997141180825,0,48.5849189758,56.6233634949,90.3497695923,4.57546949387
1.64622491274973E+018,32,1.64622491274973E+018,r1000913c5/base_front_laser_link,0,1.64622491274973E+018,v/m1vw10zy74w/map,-2.53387984393,-1.84758573562,0.165,0,0,0.108841831435,0.994059080603,0,51.8898658752,56.4799232483,90.2144470215,4.57817363739
1.64622491282857E+018,33,1.64622491282857E+018,r1000913c5/base_front_laser_link,0,1.64622491282857E+018,v/m1vw10zy74w/map,-2.53776336434,-1.83701222228,0.165,0,0,0.126378503304,0.991982093539,0,52.2580299377,56.3557510376,90.0538864136,4.56604623795
1.6462249129857E+018,34,1.6462249129857E+018,r1000913c5/base_front_laser_link,0,1.6462249129857E+018,v/m1vw10zy74w/map,-2.54353017686,-1.81087864145,0.165,0,0,0.161902382711,0.986806778692,0,51.6037368774,56.2199783325,89.9286193848,4.56954813004
1.6462249130646E+018,35,1.6462249130646E+018,r1000913c5/base_front_laser_link,0,1.6462249130646E+018,v/m1vw10zy74w/map,-2.54786783208,-1.80225715695,0.165,0,0,0.179192185018,0.98381408855,0,50.174331665,56.0520439148,89.8974380493,4.61513280869
1.64622491330067E+018,36,1.64622491330067E+018,r1000913c5/base_front_laser_link,0,1.64622491330067E+018,v/m1vw10zy74w/map,-2.5588554079,-1.76887505479,0.165,0,0,0.231058394066,0.972939884336,0,54.691532135,56.0152740479,89.6835021973,4.55607557297
1.64622491345872E+018,37,1.64622491345872E+018,r1000913c5/base_front_laser_link,0,1.64622491345872E+018,v/m1vw10zy74w/map,-2.56855278011,-1.74731650932,0.165,0,0,0.265454258856,0.964123454986,0,52.8969192505,55.9332122803,89.5006103516,4.52246618271
1.64622491353867E+018,38,1.64622491353867E+018,r1000913c5/base_front_laser_link,0,1.64622491353867E+018,v/m1vw10zy74w/map,-2.57328322561,-1.73689141682,0.165,0,0,0.282510585595,0.95926418104,0,53.2737808228,55.865020752,89.3135299683,4.48283624649
1.64622491369558E+018,39,1.64622491369558E+018,r1000913c5/base_front_laser_link,0,1.64622491369558E+018,v/m1vw10zy74w/map,-2.58066143965,-1.71510800752,0.165,0,0,0.315817259721,0.948820034813,0,52.9627456665,55.79246521,89.1386260986,4.44872140884
1.64622491377371E+018,40,1.64622491377371E+018,r1000913c5/base_front_laser_link,0,1.64622491377371E+018,v/m1vw10zy74w/map,-2.58793925788,-1.70595765696,0.165,0,0,0.332329354265,0.943163400633,0,52.8986701965,55.7218818665,88.9697265625,4.41594696045
1.64622491400969E+018,41,1.64622491400969E+018,r1000913c5/base_front_laser_link,0,1.64622491400969E+018,v/m1vw10zy74w/map,-2.61170049889,-1.67821586666,0.165,0,0,0.380334132341,0.92484914866,0,55.545791626,55.7176895142,88.8032302856,4.36184644699
1.64622491487619E+018,42,1.64622491487619E+018,r1000913c5/base_front_laser_link,0,1.64622491487619E+018,v/m1vw10zy74w/map,-2.66616210562,-1.62257461682,0.165,0,0,0.475379637189,0.879780768456,0,58.2060050964,55.7755584717,88.7544021606,4.32628059387
1.64622491503401E+018,43,1.64622491503401E+018,r1000913c5/base_front_laser_link,0,1.64622491503401E+018,v/m1vw10zy74w/map,-2.66453648757,-1.60716076781,0.165,0,0,0.485275548277,0.874361276729,0,57.6832351685,55.8189163208,88.6749343872,4.28534030914
1.64622491511288E+018,44,1.64622491511288E+018,r1000913c5/base_front_laser_link,0,1.64622491511288E+018,v/m1vw10zy74w/map,-2.66386913096,-1.59865135058,0.165,0,0,0.490352665726,0.871524103634,0,58.0129508972,55.8676719666,88.6145782471,4.24897003174
1.64622491526983E+018,45,1.64622491526983E+018,r1000913c5/base_front_laser_link,0,1.64622491526983E+018,v/m1vw10zy74w/map,-2.66253447697,-1.58004095158,0.165,0,0,0.501152730733,0.865358850697,0,60.8861160278,55.9767684937,88.7752227783,4.26615142822
1.6462249153489E+018,46,1.6462249153489E+018,r1000913c5/base_front_laser_link,0,1.6462249153489E+018,v/m1vw10zy74w/map,-2.66187956618,-1.56952812053,0.165,0,0,0.507110503705,0.861881045755,0,56.7524375916,55.993270874,88.6563949585,4.22104215622
1.64622491542783E+018,47,1.64622491542783E+018,r1000913c5/base_front_laser_link,0,1.64622491542783E+018,v/m1vw10zy74w/map,-2.6612219141,-1.55768420633,0.165,0,0,0.513670312024,0.857987651744,0,56.9506645203,56.013217926,88.5477600098,4.17818164825
1.64622491558478E+018,48,1.64622491558478E+018,r1000913c5/base_front_laser_link,0,1.64622491558478E+018,v/m1vw10zy74w/map,-2.65937780874,-1.53259986393,0.165,0,0,0.526316676526,0.850288631002,0,60.0199050903,56.0949859619,88.6165771484,4.17386341095
1.6462249159001E+018,49,1.6462249159001E+018,r1000913c5/base_front_laser_link,0,1.6462249159001E+018,v/m1vw10zy74w/map,-2.64955468239,-1.47160011212,0.165,0,0,0.550764296744,0.834660822989,0,59.8157119751,56.1693992615,88.662689209,4.16443014145
1.6462249161369E+018,50,1.6462249161369E+018,r1000913c5/base_front_laser_link,0,1.6462249161369E+018,v/m1vw10zy74w/map,-2.64368178144,-1.42194891681,0.165,0,0,0.567114053187,0.82363927218,0,56.4678916931,56.1752548218,88.5436172485,4.12278747559
1.64622491653079E+018,51,1.64622491653079E+018,r1000913c5/base_front_laser_link,0,1.64622491653079E+018,v/m1vw10zy74w/map,-2.63081217129,-1.32180467712,0.165,0,0,0.59359576855,0.804763358733,0,59.1475448608,56.2324142456,88.5411834717,4.10292434692
1.64622491676703E+018,52,1.64622491676703E+018,r1000913c5/base_front_laser_link,0,1.64622491676703E+018,v/m1vw10zy74w/map,-2.62712110087,-1.25610122078,0.165,0,0,0.610931861765,0.791683181759,0,58.3082237244,56.2715797424,88.4914016724,4.07327365875
1.64622491692396E+018,53,1.64622491692396E+018,r1000913c5/base_front_laser_link,0,1.64622491692396E+018,v/m1vw10zy74w/map,-2.64659615111,-1.19853966983,0.165,0,0,0.623236698066,0.782033259001,0,59.5079727173,56.3315124512,88.5074005127,4.05862998962
1.64622491716188E+018,54,1.64622491716188E+018,r1000913c5/base_front_laser_link,0,1.64622491716188E+018,v/m1vw10zy74w/map,-2.65588082753,-1.11776475904,0.165,0,0,0.648430431944,0.761273915834,0,62.0952796936,56.4363098145,88.7221984863,4.0952963829
1.64622491723986E+018,55,1.64622491723986E+018,r1000913c5/base_front_laser_link,0,1.64622491723986E+018,v/m1vw10zy74w/map,-2.66138100312,-1.09081306446,0.165,0,0,0.659098720776,0.752056431573,0,58.7810020447,56.4781761169,88.6880950928,4.06997394562
1.64622491747592E+018,56,1.64622491747592E+018,r1000913c5/base_front_laser_link,0,1.64622491747592E+018,v/m1vw10zy74w/map,-2.68493528597,-1.00092226603,0.165,0,0,-0.696254483767,-0.717795022157,0,62.8775253296,56.5904464722,88.9551544189,4.12156963348
1.64622491771389E+018,57,1.64622491771389E+018,r1000913c5/base_front_laser_link,0,1.64622491771389E+018,v/m1vw10zy74w/map,-2.73537957006,-0.912431236605,0.165,0,0,-0.743990167124,-0.668190565051,0,60.1349945068,56.6515579224,88.9866104126,4.11168241501
1.64622491787086E+018,58,1.64622491787086E+018,r1000913c5/base_front_laser_link,0,1.64622491787086E+018,v/m1vw10zy74w/map,-2.78170863303,-0.855986452156,0.165,0,0,-0.779840162786,-0.625978690137,0,69.275680542,56.8655281067,90.0503845215,4.39495325089
1.64622491802857E+018,59,1.64622491802857E+018,r1000913c5/base_front_laser_link,0,1.64622491802857E+018,v/m1vw10zy74w/map,-2.82919245365,-0.774035480616,0.165,0,0,-0.815036183007,-0.579410062381,0,68.9641647339,57.0671730042,90.9542388916,4.62902212143
1.64622491826488E+018,60,1.64622491826488E+018,r1000913c5/base_front_laser_link,0,1.64622491826488E+018,v/m1vw10zy74w/map,-2.94535682218,-0.740967003735,0.165,0,0,-0.873421412913,-0.486965127565,0,68.6863098145,57.257648468,91.7336654663,4.82533931732
1.64622491834393E+018,61,1.64622491834393E+018,r1000913c5/base_front_laser_link,0,1.64622491834393E+018,v/m1vw10zy74w/map,-2.98730972819,-0.726731939371,0.165,0,0,-0.891934261311,-0.452165095401,0,68.2432022095,57.4348373413,92.3893737793,4.98484563828
1.64622491842188E+018,62,1.64622491842188E+018,r1000913c5/base_front_laser_link,0,1.64622491842188E+018,v/m1vw10zy74w/map,-3.02744182512,-0.70971422635,0.165,0,0,-0.907140562589,-0.420827755389,0,70.5824661255,57.6435279846,93.2872314453,5.21456766129
1.64622491857995E+018,63,1.64622491857995E+018,r1000913c5/base_front_laser_link,0,1.64622491857995E+018,v/m1vw10zy74w/map,-3.11300438446,-0.680634580741,0.165,0,0,-0.933927672948,-0.357462028336,0,67.0055770874,57.7898101807,93.7010116577,5.30373477936
1.64622491873687E+018,64,1.64622491873687E+018,r1000913c5/base_front_laser_link,0,1.64622491873687E+018,v/m1vw10zy74w/map,-3.20213995536,-0.647169513433,0.165,0,0,-0.953366692504,-0.301814429117,0,70.8129882812,57.9901657104,94.5036239624,5.50448513031
1.64622491889505E+018,65,1.64622491889505E+018,r1000913c5/base_front_laser_link,0,1.64622491889505E+018,v/m1vw10zy74w/map,-3.29301457827,-0.6259623849,0.165,0,0,-0.967967324247,-0.251076201959,0,70.9143447876,58.1859893799,95.2528076172,5.68893957138
1.64622491897298E+018,66,1.64622491897298E+018,r1000913c5/base_front_laser_link,0,1.64622491897298E+018,v/m1vw10zy74w/map,-3.33228394064,-0.643297340132,0.165,0,0,-0.973666741752,-0.227976042614,0,67.0548171997,58.318359375,95.5644836426,5.7487077713
1.64622491920897E+018,67,1.64622491920897E+018,r1000913c5/base_front_laser_link,0,1.64622491920897E+018,v/m1vw10zy74w/map,-3.47267418219,-0.643254185443,0.165,0,0,-0.986273013111,-0.165122813714,0,66.8391036987,58.4436645508,95.8390274048,5.79845571518
1.64622491936717E+018,68,1.64622491936717E+018,r1000913c5/base_front_laser_link,0,1.64622491936717E+018,v/m1vw10zy74w/map,-3.56639302871,-0.63946684898,0.165,0,0,-0.991809188958,-0.127728355104,0,73.6611251831,58.6642074585,96.7847366333,6.04017782211
1.64622491944599E+018,69,1.64622491944599E+018,r1000913c5/base_front_laser_link,0,1.64622491944599E+018,v/m1vw10zy74w/map,-3.61392586482,-0.638519612305,0.165,0,0,-0.993703709486,-0.112039893581,0,71.8691635132,58.852848053,97.4542999268,6.20048475266
1.64622491960283E+018,70,1.64622491960283E+018,r1000913c5/base_front_laser_link,0,1.64622491960283E+018,v/m1vw10zy74w/map,-3.71369114074,-0.656042027473,0.165,0,0,-0.996131874351,-0.0878708649259,0,72.4828948975,59.0448226929,98.1398544312,6.36501169205
1.64622491968109E+018,71,1.64622491968109E+018,r1000913c5/base_front_laser_link,0,1.64622491968109E+018,v/m1vw10zy74w/map,-3.76241072723,-0.656336277445,0.165,0,0,-0.997142979355,-0.0755372671185,0,72.4385070801,59.230846405,98.7733306885,6.51416158676
1.6462249198392E+018,72,1.6462249198392E+018,r1000913c5/base_front_laser_link,0,1.6462249198392E+018,v/m1vw10zy74w/map,-3.85288886625,-0.663120999922,0.165,0,0,-0.998514750677,-0.0544820399823,0,70.574005127,59.3862304688,99.1970214844,6.60359764099
1.64622492007513E+018,73,1.64622492007513E+018,r1000913c5/base_front_laser_link,0,1.64622492007513E+018,v/m1vw10zy74w/map,-3.99898455713,-0.675293778825,0.165,0,0,-0.999649687981,-0.0264669854453,0,67.9708404541,59.5022392273,99.4033508301,6.63370370865
1.64622492015398E+018,74,1.64622492015398E+018,r1000913c5/base_front_laser_link,0,1.64622492015398E+018,v/m1vw10zy74w/map,-4.05210449139,-0.678927686567,0.165,0,0,-0.999840629626,-0.0178526006151,0,71.5505523682,59.6628837585,99.8648986816,6.73400640488
1.64622492031209E+018,75,1.64622492031209E+018,r1000913c5/base_front_laser_link,0,1.64622492031209E+018,v/m1vw10zy74w/map,-4.15435704513,-0.684150804311,0.165,0,0,-0.999978672204,-0.00653109011103,0,72.0994262695,59.8265228271,100.344703674,6.8393945694
1.64622492046905E+018,76,1.64622492046905E+018,r1000913c5/base_front_laser_link,0,1.64622492046905E+018,v/m1vw10zy74w/map,-4.25548196656,-0.712339762972,0.165,0,0,-0.999997708879,-0.0021406159543,0,67.6538009644,59.9281730652,100.485832214,6.85255384445
1.64622492062603E+018,77,1.64622492062603E+018,r1000913c5/base_front_laser_link,0,1.64622492062603E+018,v/m1vw10zy74w/map,-4.3683716752,-0.714567789203,0.165,0,0,-0.999999981528,0.0001922074481,0,70.5844726562,60.0647926331,100.806816101,6.91400814056
1.64622492078314E+018,78,1.64622492078314E+018,r1000913c5/base_front_laser_link,0,1.64622492078314E+018,v/m1vw10zy74w/map,-4.48240854804,-0.725737952737,0.165,0,0,-0.999974623382,0.00712408528113,0,70.4494552612,60.1962432861,101.100822449,6.96819353104
1.64622492094205E+018,79,1.64622492094205E+018,r1000913c5/base_front_laser_link,0,1.64622492094205E+018,v/m1vw10zy74w/map,-4.60280295594,-0.700855055144,0.165,0,0,-0.999849818639,0.0173303250829,0,74.5149307251,60.3752288818,101.69506073,7.10660982132
1.64622492102021E+018,80,1.64622492102021E+018,r1000913c5/base_front_laser_link,0,1.64622492102021E+018,v/m1vw10zy74w/map,-4.65991784754,-0.712858722966,0.165,0,0,-0.999798539511,0.0200718806448,0,74.5297775269,60.5499763489,102.255149841,7.23505878448
1.64622492117744E+018,81,1.64622492117744E+018,r1000913c5/base_front_laser_link,0,1.64622492117744E+018,v/m1vw10zy74w/map,-4.78486795942,-0.713241382437,0.165,0,0,-0.999735348181,0.0230050776541,0,64.7929992676,60.6017189026,102.218254089,7.2055106163
1.64622492133505E+018,82,1.64622492133505E+018,r1000913c5/base_front_laser_link,0,1.64622492133505E+018,v/m1vw10zy74w/map,-4.90868104429,-0.719789911041,0.165,0,0,-0.999738060808,0.0228868908265,0,71.4422073364,60.7323303223,102.511184692,7.25961923599
1.64622492149213E+018,83,1.64622492149213E+018,r1000913c5/base_front_laser_link,0,1.64622492149213E+018,v/m1vw10zy74w/map,-5.04107199975,-0.722826394505,0.165,0,0,-0.999889843434,0.0148425401458,0,70.8324584961,60.8525695801,102.750831604,7.29942083359
1.64622492157113E+018,84,1.64622492157113E+018,r1000913c5/base_front_laser_link,0,1.64622492157113E+018,v/m1vw10zy74w/map,-5.09859788005,-0.74269744211,0.165,0,0,-0.99990731763,0.0136145565715,0,69.9041671753,60.9590568542,102.924949646,7.3219628334
1.64622492188727E+018,85,1.64622492188727E+018,r1000913c5/base_front_laser_link,0,1.64622492188727E+018,v/m1vw10zy74w/map,-5.37243408822,-0.751955911809,0.165,0,0,-0.999988232321,0.00485131112552,0,69.4955596924,61.0583190918,103.06854248,7.33674097061
1.6462249221232E+018,86,1.6462249221232E+018,r1000913c5/base_front_laser_link,0,1.6462249221232E+018,v/m1vw10zy74w/map,-5.56725008396,-0.755525540278,0.165,0,0,-0.999999541475,0.000957627315347,0,69.6987762451,61.1576347351,103.215286255,7.35255050659
1.6462249222805E+018,87,1.6462249222805E+018,r1000913c5/base_front_laser_link,0,1.6462249222805E+018,v/m1vw10zy74w/map,-5.71001199649,-0.741958930294,0.165,0,0,-0.999999938979,0.000349343673251,0,71.6994171143,61.2774276733,103.465553284,7.39604282379
1.64622492243733E+018,88,1.64622492243733E+018,r1000913c5/base_front_laser_link,0,1.64622492243733E+018,v/m1vw10zy74w/map,-5.85396905485,-0.740452279612,0.165,0,0,-0.999999794285,-0.000641427304606,0,71.9237594604,61.3970489502,103.717002869,7.43998479843
1.64622492267519E+018,89,1.64622492267519E+018,r1000913c5/base_front_laser_link,0,1.64622492267519E+018,v/m1vw10zy74w/map,-6.08197368907,-0.734671857071,0.165,0,0,-0.999997118797,-0.00240049955769,0,69.9333648682,61.491897583,103.849662781,7.4525885582
1.64622492283125E+018,90,1.64622492283125E+018,r1000913c5/base_front_laser_link,0,1.64622492283125E+018,v/m1vw10zy74w/map,-6.22731342004,-0.734156011658,0.165,0,0,-0.999995945279,-0.00284770514657,0,73.1159210205,61.6196327209,104.151367188,7.51057672501
1.64622492298975E+018,91,1.64622492298975E+018,r1000913c5/base_front_laser_link,0,1.64622492298975E+018,v/m1vw10zy74w/map,-6.3769450012,-0.734190039795,0.165,0,0,-0.999996154184,-0.0027733763777,0,69.2517700195,61.7025909424,104.236976624,7.51146030426
1.64622492322536E+018,92,1.64622492322536E+018,r1000913c5/base_front_laser_link,0,1.64622492322536E+018,v/m1vw10zy74w/map,-6.62005424331,-0.738750425186,0.165,0,0,-0.999999778998,0.000664833905083,0,68.5024490356,61.7757072449,104.286895752,7.50372838974
1.64622492338336E+018,93,1.64622492338336E+018,r1000913c5/base_front_laser_link,0,1.64622492338336E+018,v/m1vw10zy74w/map,-6.77542984362,-0.732377017359,0.165,0,0,-0.999999043911,0.00138281488365,0,68.4362258911,61.8465652466,104.331047058,7.49482727051
1.64622492354058E+018,94,1.64622492354058E+018,r1000913c5/base_front_laser_link,0,1.64622492354058E+018,v/m1vw10zy74w/map,-6.93821037153,-0.728609335985,0.165,0,0,-0.999997130525,0.00239560898408,0,66.6259384155,61.8968734741,104.309768677,7.47096443176
1.64622492377675E+018,95,1.64622492377675E+018,r1000913c5/base_front_laser_link,0,1.64622492377675E+018,v/m1vw10zy74w/map,-7.1785836418,-0.741863252634,0.165,0,0,-0.999999702299,0.000771622801079,0,67.2666473389,61.9528083801,104.30796814,7.45172023773
1.64622492401344E+018,96,1.64622492401344E+018,r1000913c5/base_front_laser_link,0,1.64622492401344E+018,v/m1vw10zy74w/map,-7.43127133702,-0.740599502836,0.165,0,0,-0.99999741118,-0.00227544119079,0,67.5355224609,62.0103645325,104.313705444,7.43444824219
1.64622492417043E+018,97,1.64622492417043E+018,r1000913c5/base_front_laser_link,0,1.64622492417043E+018,v/m1vw10zy74w/map,-7.60012335446,-0.735631705967,0.165,0,0,-0.999996487926,-0.00265030863085,0,63.3215065002,62.0237426758,104.215385437,7.39721298218
1.64622492432846E+018,98,1.64622492432846E+018,r1000913c5/base_front_laser_link,0,1.64622492432846E+018,v/m1vw10zy74w/map,-7.78253994062,-0.726640212388,0.165,0,0,-0.999999978094,-0.00020931303403,0,65.7312164307,62.0611915588,104.167602539,7.36880254745
1.64622492456438E+018,99,1.64622492456438E+018,r1000913c5/base_front_laser_link,0,1.64622492456438E+018,v/m1vw10zy74w/map,-8.05647946128,-0.71659442735,0.165,0,0,-0.999994325373,0.0033688606051,0,63.5972251892,62.0765533447,104.07585144,7.33310079575
1.64622492472253E+018,100,1.64622492472253E+018,r1000913c5/base_front_laser_link,0,1.64622492472253E+018,v/m1vw10zy74w/map,-8.24420329036,-0.713574913474,0.165,0,0,-0.999985510469,0.00538320082557,0,63.5341873169,62.0909843445,103.984336853,7.29778432846
1.64622492503742E+018,101,1.64622492503742E+018,r1000913c5/base_front_laser_link,0,1.64622492503742E+018,v/m1vw10zy74w/map,-8.61357340197,-0.715558498506,0.165,0,0,-0.999957586316,0.00921007975525,0,61.884803772,62.0889625549,103.873748779,7.26159572601
1.64622492511635E+018,102,1.64622492511635E+018,r1000913c5/base_front_laser_link,0,1.64622492511635E+018,v/m1vw10zy74w/map,-8.69945821492,-0.714899493727,0.165,0,0,-0.999942738492,0.0107013895058,0,64.7360153198,62.1146621704,103.806518555,7.23061752319
1.64622492527355E+018,103,1.64622492527355E+018,r1000913c5/base_front_laser_link,0,1.64622492527355E+018,v/m1vw10zy74w/map,-8.89449095097,-0.717236850608,0.165,0,0,-0.999930736429,0.0117695515835,0,60.4568328857,62.0987205505,103.69052887,7.19726800919
1.64622492535242E+018,104,1.64622492535242E+018,r1000913c5/base_front_laser_link,0,1.64622492535242E+018,v/m1vw10zy74w/map,-8.99439810269,-0.719392420938,0.165,0,0,-0.999933800484,0.0115062873724,0,61.5621986389,62.0936126709,103.581932068,7.16277360916
1.64622492558869E+018,105,1.64622492558869E+018,r1000913c5/base_front_laser_link,0,1.64622492558869E+018,v/m1vw10zy74w/map,-9.29551806412,-0.727094097155,0.165,0,0,-0.999947182776,0.0102777263682,0,59.2224693298,62.0665245056,103.468635559,7.13403606415
1.64622492574641E+018,106,1.64622492574641E+018,r1000913c5/base_front_laser_link,0,1.64622492574641E+018,v/m1vw10zy74w/map,-9.47884695361,-0.715411441067,0.165,0,0,-0.999990887254,0.0042691227086,0,58.823097229,62.0362129211,103.357887268,7.10722541809
1.64622492590357E+018,107,1.64622492590357E+018,r1000913c5/base_front_laser_link,0,1.64622492590357E+018,v/m1vw10zy74w/map,-9.63002690068,-0.726758145797,0.165,0,0,-0.999993539382,0.00359460634756,0,56.0301055908,61.9806022644,103.273117065,7.09750556946
1.64622492614041E+018,108,1.64622492614041E+018,r1000913c5/base_front_laser_link,0,1.64622492614041E+018,v/m1vw10zy74w/map,-9.79119433131,-0.714528842843,0.165,0,0,-0.999997205349,0.00236416881513,0,61.5661506653,61.9767990112,103.170845032,7.06468153
1.64622492621855E+018,109,1.64622492621855E+018,r1000913c5/base_front_laser_link,0,1.64622492621855E+018,v/m1vw10zy74w/map,-9.82644568497,-0.714588548932,0.165,0,0,-0.999997605101,0.0021885596053,0,59.6902618408,61.9560127258,103.06275177,7.03557872772
1.64622492637758E+018,110,1.64622492637758E+018,r1000913c5/base_front_laser_link,0,1.64622492637758E+018,v/m1vw10zy74w/map,-9.88757864564,-0.715489366545,0.165,0,0,-0.999983138126,0.00580719066354,0,60.6835975647,61.9445495605,102.958251953,7.0045671463
1.64622492645539E+018,111,1.64622492645539E+018,r1000913c5/base_front_laser_link,0,1.64622492645539E+018,v/m1vw10zy74w/map,-9.91738419087,-0.722872100657,0.165,0,0,-0.999963381851,0.00855774251867,0,60.2849693298,61.9297294617,102.853851318,6.97470664978
1.64622492653353E+018,112,1.64622492653353E+018,r1000913c5/base_front_laser_link,0,1.64622492653353E+018,v/m1vw10zy74w/map,-9.94485935435,-0.72410470975,0.165,0,0,-0.999953755632,0.00961699524741,0,61.6998786926,61.927696228,102.758300781,6.94353342056
1.64622492669171E+018,113,1.64622492669171E+018,r1000913c5/base_front_laser_link,0,1.64622492669171E+018,v/m1vw10zy74w/map,-10.0025891044,-0.726402211035,0.165,0,0,-0.999931217968,0.0117285690899,0,58.9159545898,61.9012794495,102.656761169,6.91849422455
1.64622492700645E+018,114,1.64622492700645E+018,r1000913c5/base_front_laser_link,0,1.64622492700645E+018,v/m1vw10zy74w/map,-10.1022796275,-0.726780850987,0.165,0,0,-0.999959797029,0.00896684589805,0,63.7401618958,61.9172668457,102.587921143,6.89021730423
1.64622492716448E+018,115,1.64622492716448E+018,r1000913c5/base_front_laser_link,0,1.64622492716448E+018,v/m1vw10zy74w/map,-10.1483945849,-0.726393048283,0.165,0,0,-0.999973640494,0.0072607380019,0,61.3874282837,61.9127006531,102.493812561,6.86037063599
1.64622492732145E+018,116,1.64622492732145E+018,r1000913c5/base_front_laser_link,0,1.64622492732145E+018,v/m1vw10zy74w/map,-10.1967795611,-0.727794593103,0.165,0,0,-0.99998201604,0.00599729907116,0,63.2030563354,61.9237289429,102.419059753,6.83177804947
1.64622492747959E+018,117,1.64622492747959E+018,r1000913c5/base_front_laser_link,0,1.64622492747959E+018,v/m1vw10zy74w/map,-10.2403142829,-0.730267484071,0.165,0,0,-0.999961632076,0.00875981596246,0,60.9024505615,61.9150733948,102.324584961,6.80316925049
1.64622492755744E+018,118,1.64622492755744E+018,r1000913c5/base_front_laser_link,0,1.64622492755744E+018,v/m1vw10zy74w/map,-10.2614330674,-0.731719482906,0.165,0,0,-0.999946630496,0.0103313193578,0,63.6329803467,61.9295120239,102.257843018,6.77611112595
1.64622492771569E+018,119,1.64622492771569E+018,r1000913c5/base_front_laser_link,0,1.64622492771569E+018,v/m1vw10zy74w/map,-10.3021621341,-0.732690831148,0.165,0,0,-0.999899281949,0.0141924612732,0,62.7527503967,61.9363708496,102.180366516,6.74799871445
1.6462249277956E+018,120,1.6462249277956E+018,r1000913c5/base_front_laser_link,0,1.6462249277956E+018,v/m1vw10zy74w/map,-10.322724898,-0.734791864961,0.165,0,0,-0.999865493798,0.0164010460368,0,64.9145812988,61.9609832764,102.136810303,6.72527503967
1.64622492787348E+018,121,1.64622492787348E+018,r1000913c5/base_front_laser_link,0,1.64622492787348E+018,v/m1vw10zy74w/map,-10.3426359496,-0.7369983052,0.165,0,0,-0.999825956502,0.018656277885,0,63.2636222839,61.971660614,102.067054749,6.69846534729
1.64622492842507E+018,122,1.64622492842507E+018,r1000913c5/base_front_laser_link,0,1.64622492842507E+018,v/m1vw10zy74w/map,-10.4737019413,-0.755899631938,0.165,0,0,-0.999422977832,0.0339663271576,0,64.0354309082,61.9884414673,102.009094238,6.67355108261
1.64622492874065E+018,123,1.64622492874065E+018,r1000913c5/base_front_laser_link,0,1.64622492874065E+018,v/m1vw10zy74w/map,-10.4844903573,-0.765175008283,0.165,0,0,-0.998990757739,0.0449162103449,0,62.6446533203,61.9937324524,101.933616638,6.64662837982
1.64622492889666E+018,124,1.64622492889666E+018,r1000913c5/base_front_laser_link,0,1.64622492889666E+018,v/m1vw10zy74w/map,-10.4808461505,-0.778770445017,0.165,0,0,-0.99784766131,0.0655747269708,0,63.2815818787,62.0040359497,101.866363525,6.62077569962
1.64622492913365E+018,125,1.64622492913365E+018,r1000913c5/base_front_laser_link,0,1.64622492913365E+018,v/m1vw10zy74w/map,-10.4790069481,-0.812407227313,0.165,0,0,-0.993377721446,0.11489431028,0,56.8889427185,61.9634399414,101.793334961,6.6099653244
1.6462249294487E+018,126,1.6462249294487E+018,r1000913c5/base_front_laser_link,0,1.6462249294487E+018,v/m1vw10zy74w/map,-10.4646408568,-0.860965906413,0.165,0,0,-0.981846982494,0.189674729384,0,53.4020996094,61.8960266113,101.778137207,6.62736940384
1.64622492968579E+018,127,1.64622492968579E+018,r1000913c5/base_front_laser_link,0,1.64622492968579E+018,v/m1vw10zy74w/map,-10.4584791646,-0.894008866901,0.165,0,0,-0.970175597221,0.242403198322,0,56.4531135559,61.8535041809,101.709701538,6.61873292923
1.6462249297637E+018,128,1.6462249297637E+018,r1000913c5/base_front_laser_link,0,1.6462249297637E+018,v/m1vw10zy74w/map,-10.4511178046,-0.900098473272,0.165,0,0,-0.965647588076,0.259855220542,0,57.1795196533,61.8172721863,101.634246826,6.60565900803
1.64622493000176E+018,129,1.64622493000176E+018,r1000913c5/base_front_laser_link,0,1.64622493000176E+018,v/m1vw10zy74w/map,-10.430312067,-0.932490644348,0.165,0,0,-0.950372092835,0.311115549531,0,58.5596199036,61.7922134399,101.550834656,6.58620595932
1.64622493015782E+018,130,1.64622493015782E+018,r1000913c5/base_front_laser_link,0,1.64622493015782E+018,v/m1vw10zy74w/map,-10.4193816276,-0.951030476246,0.165,0,0,-0.939773789511,0.341797051696,0,61.5170898438,61.7901115417,101.472724915,6.56086969376
1.64622493031571E+018,131,1.64622493031571E+018,r1000913c5/base_front_laser_link,0,1.64622493031571E+018,v/m1vw10zy74w/map,-10.4058664413,-0.965200312127,0.165,0,0,-0.927863247627,0.372920626544,0,63.1644134521,61.8005256653,101.411148071,6.53687477112
1.64622493047274E+018,132,1.64622493047274E+018,r1000913c5/base_front_laser_link,0,1.64622493047274E+018,v/m1vw10zy74w/map,-10.3933722736,-0.978432321825,0.165,0,0,-0.914597847254,0.404364659432,0,66.4109802246,61.8351898193,101.408164978,6.52432632446
1.64622493063164E+018,133,1.64622493063164E+018,r1000913c5/base_front_laser_link,0,1.64622493063164E+018,v/m1vw10zy74w/map,-10.3831731623,-0.992262651201,0.165,0,0,-0.900286223906,0.435298420679,0,63.7961845398,61.849822998,101.355705261,6.50195980072
1.6462249307098E+018,134,1.6462249307098E+018,r1000913c5/base_front_laser_link,0,1.6462249307098E+018,v/m1vw10zy74w/map,-10.3741062359,-0.998755515291,0.165,0,0,-0.892450287454,0.45114574632,0,66.4387817383,61.8838157654,101.352867126,6.48968267441
1.64622493078897E+018,135,1.64622493078897E+018,r1000913c5/base_front_laser_link,0,1.64622493078897E+018,v/m1vw10zy74w/map,-10.3643551912,-1.00567384431,0.165,0,0,-0.884251916089,0.467010223541,0,64.359703064,61.9020195007,101.309280396,6.46908664703
1.64622493086769E+018,136,1.64622493086769E+018,r1000913c5/base_front_laser_link,0,1.64622493086769E+018,v/m1vw10zy74w/map,-10.3597348557,-1.01476397659,0.165,0,0,-0.877019627539,0.480454548227,0,67.6870117188,61.9442481995,101.336791992,6.46418190002
1.64622493110369E+018,137,1.64622493110369E+018,r1000913c5/base_front_laser_link,0,1.64622493110369E+018,v/m1vw10zy74w/map,-10.3293262299,-1.02732356612,0.165,0,0,-0.850183693083,0.526486170774,0,69.4973297119,61.9989814758,101.416664124,6.47256088257
1.64622493118258E+018,138,1.64622493118258E+018,r1000913c5/base_front_laser_link,0,1.64622493118258E+018,v/m1vw10zy74w/map,-10.3169538106,-1.02825768527,0.165,0,0,-0.841668353088,0.539994799428,0,69.4460296631,62.0525550842,101.492332458,6.47992658615
1.64622493126073E+018,139,1.64622493126073E+018,r1000913c5/base_front_laser_link,0,1.64622493126073E+018,v/m1vw10zy74w/map,-10.3061818752,-1.03290620959,0.165,0,0,-0.832078705975,0.554657576404,0,72.1301574707,62.1245384216,101.662063599,6.51250934601
1.64622493141892E+018,140,1.64622493141892E+018,r1000913c5/base_front_laser_link,0,1.64622493141892E+018,v/m1vw10zy74w/map,-10.2779577421,-1.03959769044,0.165,0,0,-0.813875465558,0.581039350271,0,70.0012741089,62.1804008484,101.749473572,6.52302455902
1.6462249314969E+018,141,1.6462249314969E+018,r1000913c5/base_front_laser_link,0,1.6462249314969E+018,v/m1vw10zy74w/map,-10.2683110544,-1.03943602926,0.165,0,0,-0.802476572552,0.596683626812,0,69.7944107056,62.2340202332,101.827568054,6.53118228912
1.64622493165574E+018,142,1.64622493165574E+018,r1000913c5/base_front_laser_link,0,1.64622493165574E+018,v/m1vw10zy74w/map,-10.2486855677,-1.04424656985,0.165,0,0,-0.78552888851,0.618824987631,0,72.6826705933,62.3070907593,102.006698608,6.56653642654
1.64622493173422E+018,143,1.64622493173422E+018,r1000913c5/base_front_laser_link,0,1.64622493173422E+018,v/m1vw10zy74w/map,-10.2472274447,-1.04741188553,0.165,0,0,-0.778370667181,0.627804989206,0,70.6878509521,62.3652877808,102.107391357,6.58070087433
1.64622493189075E+018,144,1.64622493189075E+018,r1000913c5/base_front_laser_link,0,1.64622493189075E+018,v/m1vw10zy74w/map,-10.2301164131,-1.0506046851,0.165,0,0,-0.761789488477,0.647824648532,0,69.6737060547,62.4156913757,102.173202515,6.5858373642
1.64622493441089E+018,145,1.64622493441089E+018,r1000913c5/base_front_laser_link,0,1.64622493441089E+018,v/m1vw10zy74w/map,-10.181979577,-1.05093341405,0.165,0,0,-0.714485225993,0.699650528363,0,74.0991287231,62.495716095,102.397514343,6.633934021
1.64622493456816E+018,146,1.64622493456816E+018,r1000913c5/base_front_laser_link,0,1.64622493456816E+018,v/m1vw10zy74w/map,-10.1819498793,-1.05095142776,0.165,0,0,-0.714453591075,0.699682832575,0,74.0588607788,62.5743751526,102.613212585,6.67961168289
1.64622493488294E+018,147,1.64622493488294E+018,r1000913c5/base_front_laser_link,0,1.64622493488294E+018,v/m1vw10zy74w/map,-10.1712667242,-1.06658992237,0.165,0,0,-0.703057193878,0.711133308274,0,69.6564559937,62.6222267151,102.669006348,6.68225908279
1.64622493504212E+018,148,1.64622493504212E+018,r1000913c5/base_front_laser_link,0,1.64622493504212E+018,v/m1vw10zy74w/map,-10.159442392,-1.09491235728,0.165,0,0,-0.691105324545,0.722754059405,0,72.416633606,62.6879615784,102.811393738,6.70780944824
1.64622493527809E+018,149,1.64622493527809E+018,r1000913c5/base_front_laser_link,0,1.64622493527809E+018,v/m1vw10zy74w/map,-10.14771959,-1.16115087165,0.165,0,0,-0.682420140592,0.730960157406,0,68.6491546631,62.7277030945,102.836578369,6.70295715332
1.64622493543513E+018,150,1.64622493543513E+018,r1000913c5/base_front_laser_link,0,1.64622493543513E+018,v/m1vw10zy74w/map,-10.1441418025,-1.20508978043,0.165,0,0,-0.6794496237,0.733722160531,0,68.4956054688,62.7659034729,102.857040405,6.69704627991
1.64622493567096E+018,151,1.64622493567096E+018,r1000913c5/base_front_laser_link,0,1.64622493567096E+018,v/m1vw10zy74w/map,-10.1418555098,-1.27323161605,0.165,0,0,-0.682577814146,0.73081292246,0,68.8359375,62.8058357239,102.884735107,6.69296693802
1.64622493582812E+018,152,1.64622493582812E+018,r1000913c5/base_front_laser_link,0,1.64622493582812E+018,v/m1vw10zy74w/map,-10.1459332131,-1.3139848866,0.165,0,0,-0.688426540536,0.725306072142,0,70.8570632935,62.8584594727,102.966239929,6.70259428024
1.64622493598613E+018,153,1.64622493598613E+018,r1000913c5/base_front_laser_link,0,1.64622493598613E+018,v/m1vw10zy74w/map,-10.1513366609,-1.35868703401,0.165,0,0,-0.696694969194,0.717367492921,0,71.6488418579,62.9155387878,103.069847107,6.71810293198
1.64622493614325E+018,154,1.64622493614325E+018,r1000913c5/base_front_laser_link,0,1.64622493614325E+018,v/m1vw10zy74w/map,-10.1577558608,-1.40344326535,0.165,0,0,-0.704461188457,0.709742512435,0,72.5924606323,62.9779701233,103.20161438,6.74121522903
1.64622493637922E+018,155,1.64622493637922E+018,r1000913c5/base_front_laser_link,0,1.64622493637922E+018,v/m1vw10zy74w/map,-10.1686992282,-1.47387244576,0.165,0,0,-0.711460260233,0.702726332301,0,74.364151001,63.0509605408,103.393936157,6.7809920311
1.64622493653719E+018,156,1.64622493653719E+018,r1000913c5/base_front_laser_link,0,1.64622493653719E+018,v/m1vw10zy74w/map,-10.1735566179,-1.51836116277,0.165,0,0,-0.715681622628,0.698426671192,0,76.6242218018,63.1374130249,103.673843384,6.84547710419
1.64622493677394E+018,157,1.64622493677394E+018,r1000913c5/base_front_laser_link,0,1.64622493677394E+018,v/m1vw10zy74w/map,-10.1798121487,-1.58477598073,0.165,0,0,-0.71838917659,0.695641424125,0,70.9643936157,63.1869506836,103.742935181,6.85199356079
1.64622493693212E+018,158,1.64622493693212E+018,r1000913c5/base_front_laser_link,0,1.64622493693212E+018,v/m1vw10zy74w/map,-10.1833569489,-1.62960642205,0.165,0,0,-0.7204306168,0.693527019212,0,66.7590026855,63.2094154358,103.717857361,6.83614778519
1.64622493701023E+018,159,1.64622493701023E+018,r1000913c5/base_front_laser_link,0,1.64622493701023E+018,v/m1vw10zy74w/map,-10.1795797074,-1.65199737422,0.165,0,0,-0.71878182601,0.695235705784,0,65.4569320679,63.2234649658,103.674263,6.81693220139
1.64622493708996E+018,160,1.64622493708996E+018,r1000913c5/base_front_laser_link,0,1.64622493708996E+018,v/m1vw10zy74w/map,-10.180361916,-1.67469900295,0.165,0,0,-0.719076482972,0.694930940193,0,63.146270752,63.222984314,103.609779358,6.79559898376
1.64622493716814E+018,161,1.64622493716814E+018,r1000913c5/base_front_laser_link,0,1.64622493716814E+018,v/m1vw10zy74w/map,-10.1814914123,-1.69692183855,0.165,0,0,-0.719448742687,0.694545539649,0,65.9312133789,63.2397003174,103.573104858,6.77780246735
1.64622493732518E+018,162,1.64622493732518E+018,r1000913c5/base_front_laser_link,0,1.64622493732518E+018,v/m1vw10zy74w/map,-10.1835459498,-1.74146616917,0.165,0,0,-0.7199164304,0.694060756159,0,62.8139610291,63.2370910645,103.507888794,6.75693321228
1.64622494315617E+018,163,1.64622494315617E+018,r1000913c5/base_front_laser_link,0,1.64622494315617E+018,v/m1vw10zy74w/map,-10.1708086556,-2.65888207274,0.165,0,0,-0.710109926434,0.704090826797,0,73.9425811768,63.3023681641,103.665908813,6.78784751892
1.64622494323444E+018,164,1.64622494323444E+018,r1000913c5/base_front_laser_link,0,1.64622494323444E+018,v/m1vw10zy74w/map,-10.1709067279,-2.67478529443,0.165,0,0,-0.710071853473,0.704129223158,0,76.6052780151,63.3829917908,103.920715332,6.84590816498
1.64622494701389E+018,165,1.64622494701389E+018,r1000913c5/base_front_laser_link,0,1.64622494701389E+018,v/m1vw10zy74w/map,-10.1691593398,-2.82665716883,0.165,0,0,-0.708444010936,0.705767017768,0,67.955116272,63.410533905,103.913589478,6.83435058594
1.64622494709268E+018,166,1.64622494709268E+018,r1000913c5/base_front_laser_link,0,1.64622494709268E+018,v/m1vw10zy74w/map,-10.1691592701,-2.82663874909,0.165,0,0,-0.708444010937,0.705767017767,0,68.7172393799,63.4423103333,103.920600891,6.82609701157
1.64622494724978E+018,167,1.64622494724978E+018,r1000913c5/base_front_laser_link,0,1.64622494724978E+018,v/m1vw10zy74w/map,-10.1693213412,-2.82485442136,0.165,0,0,-0.708622281532,0.705588025775,0,69.6715316772,63.4793891907,103.947120667,6.82257699966
1.64622494740776E+018,168,1.64622494740776E+018,r1000913c5/base_front_laser_link,0,1.64622494740776E+018,v/m1vw10zy74w/map,-10.1693705138,-2.81278984135,0.165,0,0,-0.708728700964,0.705481132583,0,70.2266159058,63.5193138123,103.985351562,6.82201337814
1.6462249474868E+018,169,1.6462249474868E+018,r1000913c5/base_front_laser_link,0,1.6462249474868E+018,v/m1vw10zy74w/map,-10.1698764551,-2.80030361613,0.165,0,0,-0.709324441349,0.704882143982,0,68.3752059937,63.5478782654,103.983840942,6.81198883057
1.64622494756488E+018,170,1.64622494756488E+018,r1000913c5/base_front_laser_link,0,1.64622494756488E+018,v/m1vw10zy74w/map,-10.1699245287,-2.78779983052,0.165,0,0,-0.70945617484,0.704749555503,0,67.8242416382,63.5728874207,103.972259521,6.79979228973
1.64622494764386E+018,171,1.64622494764386E+018,r1000913c5/base_front_laser_link,0,1.64622494764386E+018,v/m1vw10zy74w/map,-10.1702321099,-2.77343956831,0.165,0,0,-0.709882492405,0.704320131032,0,68.2809677124,63.6002578735,103.968391418,6.7893781662
1.64622494772377E+018,172,1.64622494772377E+018,r1000913c5/base_front_laser_link,0,1.64622494772377E+018,v/m1vw10zy74w/map,-10.1714240488,-2.75684533379,0.165,0,0,-0.711293706798,0.702894915809,0,71.2906112671,63.6447105408,104.029159546,6.79481506348
1.64622494788072E+018,173,1.64622494788072E+018,r1000913c5/base_front_laser_link,0,1.64622494788072E+018,v/m1vw10zy74w/map,-10.1727448801,-2.71522895068,0.165,0,0,-0.713321766529,0.700836683826,0,70.5055084229,63.6841392517,104.069389343,6.7950835228
1.64622494803784E+018,174,1.64622494803784E+018,r1000913c5/base_front_laser_link,0,1.64622494803784E+018,v/m1vw10zy74w/map,-10.1737986966,-2.66817552216,0.165,0,0,-0.715408659858,0.698706268327,0,76.7097702026,63.7585716248,104.298675537,6.84670162201
1.64622494811772E+018,175,1.64622494811772E+018,r1000913c5/base_front_laser_link,0,1.64622494811772E+018,v/m1vw10zy74w/map,-10.1731494166,-2.64336641435,0.165,0,0,-0.715338283299,0.698778319961,0,76.8298187256,63.8328399658,104.526367188,6.89784240723
1.64622494827478E+018,176,1.64622494827478E+018,r1000913c5/base_front_laser_link,0,1.64622494827478E+018,v/m1vw10zy74w/map,-10.1721135557,-2.59653801235,0.165,0,0,-0.715391573618,0.698723762581,0,76.5902175903,63.9049186707,104.739128113,6.94473791122
1.64622494835284E+018,177,1.64622494835284E+018,r1000913c5/base_front_laser_link,0,1.64622494835284E+018,v/m1vw10zy74w/map,-10.1654170252,-2.56775200356,0.165,0,0,-0.715408556,0.698706374668,0,76.4733810425,63.9755249023,104.942146301,6.98887348175
1.64622494843234E+018,178,1.64622494843234E+018,r1000913c5/base_front_laser_link,0,1.64622494843234E+018,v/m1vw10zy74w/map,-10.1652951885,-2.54374951293,0.165,0,0,-0.715973017047,0.698127953072,0,74.6032791138,64.0348968506,105.077919006,7.01433897018
1.64622494858984E+018,179,1.64622494858984E+018,r1000913c5/base_front_laser_link,0,1.64622494858984E+018,v/m1vw10zy74w/map,-10.1649509945,-2.49930293513,0.165,0,0,-0.716833605495,0.69724427716,0,75.6352996826,64.0993423462,105.243217468,7.04795646667
1.64622494874691E+018,180,1.64622494874691E+018,r1000913c5/base_front_laser_link,0,1.64622494874691E+018,v/m1vw10zy74w/map,-10.1553017247,-2.44785865326,0.165,0,0,-0.718376068285,0.695654960821,0,75.2058105469,64.1607055664,105.390716553,7.07666826248
1.64622494890382E+018,181,1.64622494890382E+018,r1000913c5/base_front_laser_link,0,1.64622494890382E+018,v/m1vw10zy74w/map,-10.153729467,-2.4034668135,0.165,0,0,-0.719050909113,0.694957401647,0,77.0002288818,64.2312545776,105.594192505,7.12097930908
1.64622494898293E+018,182,1.64622494898293E+018,r1000913c5/base_front_laser_link,0,1.64622494898293E+018,v/m1vw10zy74w/map,-10.1529703023,-2.38084581922,0.165,0,0,-0.719063765618,0.694944099173,0,77.4727859497,64.3036117554,105.809211731,7.16853237152
1.64622494913988E+018,183,1.64622494913988E+018,r1000913c5/base_front_laser_link,0,1.64622494913988E+018,v/m1vw10zy74w/map,-10.1551157264,-2.33659041405,0.165,0,0,-0.718649166248,0.695372832264,0,78.3902816772,64.3801727295,106.052032471,7.22395324707
1.646224949219E+018,184,1.646224949219E+018,r1000913c5/base_front_laser_link,0,1.646224949219E+018,v/m1vw10zy74w/map,-10.1560843528,-2.31783116313,0.165,0,0,-0.719101579427,0.694904970817,0,80.2582778931,64.4659957886,106.360794067,7.29826450348
1.64622494929793E+018,185,1.64622494929793E+018,r1000913c5/base_front_laser_link,0,1.64622494929793E+018,v/m1vw10zy74w/map,-10.1551897383,-2.29521632555,0.165,0,0,-0.718971981248,0.695039056586,0,76.7659454346,64.5321273804,106.53465271,7.33417510986
1.64622494937592E+018,186,1.64622494937592E+018,r1000913c5/base_front_laser_link,0,1.64622494937592E+018,v/m1vw10zy74w/map,-10.1544369389,-2.27285985596,0.165,0,0,-0.718976633165,0.695034244453,0,77.7080078125,64.6025848389,106.735450745,7.37762117386
1.64622494953383E+018,187,1.64622494953383E+018,r1000913c5/base_front_laser_link,0,1.64622494953383E+018,v/m1vw10zy74w/map,-10.1500662904,-2.22151647101,0.165,0,0,-0.719149340705,0.69485554309,0,78.3447723389,64.6756820679,106.953132629,7.42581558228
1.64622494969092E+018,188,1.64622494969092E+018,r1000913c5/base_front_laser_link,0,1.64622494969092E+018,v/m1vw10zy74w/map,-10.1483997716,-2.18423808515,0.165,0,0,-0.719322903469,0.694675867254,0,74.6367034912,64.7283859253,107.052581787,7.44139814377
1.64622494976996E+018,189,1.64622494976996E+018,r1000913c5/base_front_laser_link,0,1.64622494976996E+018,v/m1vw10zy74w/map,-10.1475940162,-2.16195002621,0.165,0,0,-0.719292049649,0.694707814345,0,77.5627670288,64.7959365845,107.235527039,7.47986459732
1.64622494984931E+018,190,1.64622494984931E+018,r1000913c5/base_front_laser_link,0,1.64622494984931E+018,v/m1vw10zy74w/map,-10.1468038505,-2.13937580059,0.165,0,0,-0.719286835069,0.694713213417,0,72.7135925293,64.837387085,107.283752441,7.48212051392
1.64622494992708E+018,191,1.64622494992708E+018,r1000913c5/base_front_laser_link,0,1.64622494992708E+018,v/m1vw10zy74w/map,-10.148144023,-2.11840472578,0.165,0,0,-0.71963199698,0.694355664571,0,73.7744598389,64.883934021,107.354919434,7.49032878876
1.64622495008498E+018,192,1.64622495008498E+018,r1000913c5/base_front_laser_link,0,1.64622495008498E+018,v/m1vw10zy74w/map,-10.1450997979,-2.07831069353,0.165,0,0,-0.718892874215,0.695120878267,0,70.4168548584,64.9126052856,107.356819153,7.48140525818
1.64622495024203E+018,193,1.64622495024203E+018,r1000913c5/base_front_laser_link,0,1.64622495024203E+018,v/m1vw10zy74w/map,-10.1435529832,-2.03292757469,0.165,0,0,-0.718868709947,0.695145868044,0,71.6772079468,64.9474716187,107.380836487,7.47778654099
1.64622495032111E+018,194,1.64622495032111E+018,r1000913c5/base_front_laser_link,0,1.64622495032111E+018,v/m1vw10zy74w/map,-10.1448846468,-2.00852693443,0.165,0,0,-0.718727288041,0.69529208641,0,71.0575866699,64.978805542,107.392745972,7.47131299973
1.64622495040086E+018,195,1.64622495040086E+018,r1000913c5/base_front_laser_link,0,1.64622495040086E+018,v/m1vw10zy74w/map,-10.1449847831,-1.99992284355,0.165,0,0,-0.718774066659,0.695243727838,0,69.0254592896,64.9994506836,107.372657776,7.45773458481
1.64622495055775E+018,196,1.64622495055775E+018,r1000913c5/base_front_laser_link,0,1.64622495055775E+018,v/m1vw10zy74w/map,-10.1435139604,-1.95552877246,0.165,0,0,-0.718777519299,0.695240158327,0,70.617767334,65.0279769897,107.376319885,7.44944763184
1.64622495063641E+018,197,1.64622495063641E+018,r1000913c5/base_front_laser_link,0,1.64622495063641E+018,v/m1vw10zy74w/map,-10.1429706012,-1.9332149445,0.165,0,0,-0.718991778534,0.695018577019,0,69.3075485229,65.0495910645,107.359802246,7.43673801422
1.6462249508719E+018,198,1.6462249508719E+018,r1000913c5/base_front_laser_link,0,1.6462249508719E+018,v/m1vw10zy74w/map,-10.1460142451,-1.86791513315,0.165,0,0,-0.719857893923,0.694121468157,0,66.6651687622,65.0577087402,107.314163208,7.41881847382
1.64622495103004E+018,199,1.64622495103004E+018,r1000913c5/base_front_laser_link,0,1.64622495103004E+018,v/m1vw10zy74w/map,-10.1443823063,-1.82284094348,0.165,0,0,-0.719867487981,0.694111518236,0,66.0460586548,65.0626449585,107.264099121,7.40048503876
1.64622495118707E+018,200,1.64622495118707E+018,r1000913c5/base_front_laser_link,0,1.64622495118707E+018,v/m1vw10zy74w/map,-10.1365088483,-1.77493397845,0.165,0,0,-0.719311183502,0.694688002839,0,67.4277954102,65.0744171143,107.225952148,7.38384532928
1.64622495126593E+018,201,1.64622495126593E+018,r1000913c5/base_front_laser_link,0,1.64622495126593E+018,v/m1vw10zy74w/map,-10.1357515288,-1.75257204444,0.165,0,0,-0.719334539364,0.694663818316,0,67.7106170654,65.0874633789,107.190834045,7.36778974533
1.64622495134504E+018,202,1.64622495134504E+018,r1000913c5/base_front_laser_link,0,1.64622495134504E+018,v/m1vw10zy74w/map,-10.1349391304,-1.73009899639,0.165,0,0,-0.719304623462,0.694694795335,0,66.070930481,65.0923080444,107.141868591,7.34985399246
1.64622495142405E+018,203,1.64622495142405E+018,r1000913c5/base_front_laser_link,0,1.64622495142405E+018,v/m1vw10zy74w/map,-10.1341245506,-1.7076133538,0.165,0,0,-0.719270441546,0.694730186417,0,69.567817688,65.1142501831,107.129516602,7.33842182159
1.64622495158106E+018,204,1.64622495158106E+018,r1000913c5/base_front_laser_link,0,1.64622495158106E+018,v/m1vw10zy74w/map,-10.1343325933,-1.66884452007,0.165,0,0,-0.720709653455,0.69323704129,0,64.4768753052,65.1111373901,107.072784424,7.32054853439
1.64622495166011E+018,205,1.64622495166011E+018,r1000913c5/base_front_laser_link,0,1.64622495166011E+018,v/m1vw10zy74w/map,-10.1337990334,-1.64747986837,0.165,0,0,-0.721017897687,0.692916438841,0,73.6619415283,65.1526489258,107.13344574,7.3269329071
1.64622495189681E+018,206,1.64622495189681E+018,r1000913c5/base_front_laser_link,0,1.64622495189681E+018,v/m1vw10zy74w/map,-10.1309389721,-1.57891385898,0.165,0,0,-0.72087438074,0.693065745216,0,72.5721588135,65.1884918213,107.170379639,7.32729721069
1.64622495205399E+018,207,1.64622495205399E+018,r1000913c5/base_front_laser_link,0,1.64622495205399E+018,v/m1vw10zy74w/map,-10.1284249872,-1.5443044594,0.165,0,0,-0.720023138145,0.693950056226,0,70.8865737915,65.2158889771,107.176628113,7.32024669647
1.64622495228999E+018,208,1.64622495228999E+018,r1000913c5/base_front_laser_link,0,1.64622495228999E+018,v/m1vw10zy74w/map,-10.1258807103,-1.47704700526,0.165,0,0,-0.719949779403,0.694026163151,0,76.3427886963,65.2691268921,107.298355103,7.3430762291
1.64622495244707E+018,209,1.64622495244707E+018,r1000913c5/base_front_laser_link,0,1.64622495244707E+018,v/m1vw10zy74w/map,-10.123354592,-1.43918066521,0.165,0,0,-0.719657019774,0.694329729948,0,71.6565551758,65.2995376587,107.315750122,7.33873701096
1.64622495260451E+018,210,1.64622495260451E+018,r1000913c5/base_front_laser_link,0,1.64622495260451E+018,v/m1vw10zy74w/map,-10.1217496313,-1.3945199358,0.165,0,0,-0.719652816571,0.694334086447,0,74.3901062012,65.3426208496,107.386451721,7.34794139862
1.64622495276213E+018,211,1.64622495276213E+018,r1000913c5/base_front_laser_link,0,1.64622495276213E+018,v/m1vw10zy74w/map,-10.1195805457,-1.34788917835,0.165,0,0,-0.719708783868,0.694276073635,0,72.6176986694,65.3769378662,107.419494629,7.34751749039
1.64622495307803E+018,212,1.64622495307803E+018,r1000913c5/base_front_laser_link,0,1.64622495307803E+018,v/m1vw10zy74w/map,-10.1162756508,-1.26134989061,0.165,0,0,-0.719469407429,0.694524133328,0,74.0097961426,65.4174728394,107.479454041,7.35399532318
1.64622495315515E+018,213,1.64622495315515E+018,r1000913c5/base_front_laser_link,0,1.64622495315515E+018,v/m1vw10zy74w/map,-10.1145949104,-1.23821044476,0.165,0,0,-0.719811974225,0.6941690873,0,74.8402481079,65.4615020752,107.556304932,7.36493349075
1.64622495331322E+018,214,1.64622495331322E+018,r1000913c5/base_front_laser_link,0,1.64622495331322E+018,v/m1vw10zy74w/map,-10.1126028048,-1.19272617875,0.165,0,0,-0.719878850676,0.694099733719,0,73.204788208,65.4975204468,107.597496033,7.36665821075
1.64622495362844E+018,215,1.64622495362844E+018,r1000913c5/base_front_laser_link,0,1.64622495362844E+018,v/m1vw10zy74w/map,-10.108528481,-1.09823912885,0.165,0,0,-0.719849222478,0.694130461007,0,67.8040466309,65.5081939697,107.56174469,7.35118198395
1.64622495378619E+018,216,1.64622495378619E+018,r1000913c5/base_front_laser_link,0,1.64622495378619E+018,v/m1vw10zy74w/map,-10.1068577347,-1.05302408597,0.165,0,0,-0.719821009145,0.694159718504,0,68.3482971191,65.5212860107,107.531318665,7.33667945862
1.64622495402119E+018,217,1.64622495402119E+018,r1000913c5/base_front_laser_link,0,1.64622495402119E+018,v/m1vw10zy74w/map,-10.1009009523,-0.986038638062,0.165,0,0,-0.719463404269,0.69453035205,0,70.1526031494,65.5425262451,107.521949768,7.32647275925
1.64622495417928E+018,218,1.64622495417928E+018,r1000913c5/base_front_laser_link,0,1.64622495417928E+018,v/m1vw10zy74w/map,-10.0992459141,-0.940927247467,0.165,0,0,-0.719391182077,0.694605159173,0,67.1891021729,65.5500488281,107.481536865,7.31049633026
1.6462249543363E+018,219,1.6462249543363E+018,r1000913c5/base_front_laser_link,0,1.6462249543363E+018,v/m1vw10zy74w/map,-10.1027028829,-0.896199191233,0.165,0,0,-0.71980871109,0.69417247096,0,68.0160064697,65.5612564087,107.448303223,7.29568147659
1.64622495457229E+018,220,1.64622495457229E+018,r1000913c5/base_front_laser_link,0,1.64622495457229E+018,v/m1vw10zy74w/map,-10.1006810429,-0.838872128243,0.165,0,0,-0.719949654134,0.694026293099,0,69.0762786865,65.5771636963,107.425926208,7.2829208374
1.64622495685535E+018,221,1.64622495685535E+018,r1000913c5/base_front_laser_link,0,1.64622495685535E+018,v/m1vw10zy74w/map,-10.0997894427,-0.766287509345,0.165,0,0,-0.716907198633,0.697168608407,0,68.6624526978,65.5910568237,107.399185181,7.26937484741
1.64622495693439E+018,222,1.64622495693439E+018,r1000913c5/base_front_laser_link,0,1.64622495693439E+018,v/m1vw10zy74w/map,-10.0989139789,-0.770722409102,0.165,0,0,-0.71586779468,0.698235848794,0,69.4747314453,65.6084747314,107.381408691,7.25764465332
1.64622495717031E+018,223,1.64622495717031E+018,r1000913c5/base_front_laser_link,0,1.64622495717031E+018,v/m1vw10zy74w/map,-10.0916630289,-0.790223171333,0.165,0,0,-0.707909692229,0.706302957412,0,73.0408401489,65.6416549683,107.416740417,7.25836133957
1.64622495732838E+018,224,1.64622495732838E+018,r1000913c5/base_front_laser_link,0,1.64622495732838E+018,v/m1vw10zy74w/map,-10.0814592645,-0.807028504087,0.165,0,0,-0.697223418035,0.716853894001,0,76.6705169678,65.6906738281,107.528778076,7.27936935425
1.64622495748645E+018,225,1.64622495748645E+018,r1000913c5/base_front_laser_link,0,1.64622495748645E+018,v/m1vw10zy74w/map,-10.0677580287,-0.82566283218,0.165,0,0,-0.683299346878,0.730138344806,0,70.5376663208,65.7121200562,107.523101807,7.27032756805
1.64622495756417E+018,226,1.64622495756417E+018,r1000913c5/base_front_laser_link,0,1.64622495756417E+018,v/m1vw10zy74w/map,-10.0600066573,-0.836175480032,0.165,0,0,-0.675652289934,0.737220444038,0,72.7495651245,65.7431182861,107.550865173,7.26924753189
1.6462249577224E+018,227,1.6462249577224E+018,r1000913c5/base_front_laser_link,0,1.6462249577224E+018,v/m1vw10zy74w/map,-10.0408264276,-0.858098503594,0.165,0,0,-0.657029546522,0.753864825414,0,73.027671814,65.7750701904,107.582801819,7.26924419403
1.64622495795834E+018,228,1.64622495795834E+018,r1000913c5/base_front_laser_link,0,1.64622495795834E+018,v/m1vw10zy74w/map,-10.0040249967,-0.892630132512,0.165,0,0,-0.622382438285,0.782713293943,0,69.6040115356,65.7917938232,107.564880371,7.25769758224
1.64622495827509E+018,229,1.64622495827509E+018,r1000913c5/base_front_laser_link,0,1.64622495827509E+018,v/m1vw10zy74w/map,-9.93255773312,-0.939317598846,0.165,0,0,-0.554046962107,0.832485413554,0,66.5362472534,65.7950286865,107.521026611,7.242000103
1.64622495843131E+018,230,1.64622495843131E+018,r1000913c5/base_front_laser_link,0,1.64622495843131E+018,v/m1vw10zy74w/map,-9.89044201387,-0.955815569238,0.165,0,0,-0.511568256222,0.859242642812,0,67.9293746948,65.8042678833,107.487075806,7.22760343552
1.6462249586692E+018,231,1.6462249586692E+018,r1000913c5/base_front_laser_link,0,1.6462249586692E+018,v/m1vw10zy74w/map,-9.83887179741,-0.944671387949,0.165,0,0,-0.4497442918,0.893157361271,0,67.0129394531,65.8094787598,107.446617126,7.21237897873
1.64622495882548E+018,232,1.64622495882548E+018,r1000913c5/base_front_laser_link,0,1.64622495882548E+018,v/m1vw10zy74w/map,-9.81867265023,-0.931423368618,0.165,0,0,-0.41965976776,0.907681485612,0,68.9355392456,65.8228912354,107.422088623,7.19973182678
1.64622495906144E+018,233,1.64622495906144E+018,r1000913c5/base_front_laser_link,0,1.64622495906144E+018,v/m1vw10zy74w/map,-9.80028423048,-0.90786091551,0.165,0,0,-0.385812919563,0.922577038029,0,69.2298965454,65.8374557495,107.400604248,7.18771648407
1.64622495929765E+018,234,1.64622495929765E+018,r1000913c5/base_front_laser_link,0,1.64622495929765E+018,v/m1vw10zy74w/map,-9.77703175986,-0.878859504407,0.165,0,0,-0.341279173157,0.93996198113,0,63.8450393677,65.8289718628,107.349533081,7.17351913452
1.64622496000726E+018,235,1.64622496000726E+018,r1000913c5/base_front_laser_link,0,1.64622496000726E+018,v/m1vw10zy74w/map,-9.72419904765,-0.844631194472,0.165,0,0,-0.26142628826,0.965223443461,0,67.7897109985,65.8372802734,107.315414429,7.15937805176
1.64622496024356E+018,236,1.64622496024356E+018,r1000913c5/base_front_laser_link,0,1.64622496024356E+018,v/m1vw10zy74w/map,-9.7062764867,-0.842056546363,0.165,0,0,-0.250187120383,0.968197502989,0,68.3580932617,65.8479232788,107.286132812,7.14607000351
