%time,field.header.seq,field.header.stamp,field.header.frame_id,field.pose.header.seq,field.pose.header.stamp,field.pose.header.frame_id,field.pose.pose.position.x,field.pose.pose.position.y,field.pose.pose.position.z,field.pose.pose.orientation.x,field.pose.pose.orientation.y,field.pose.pose.orientation.z,field.pose.pose.orientation.w,field.label,field.current_error,field.mean,field.threshold,field.std_dev
1646377947823063950,0,1646377947823063950,r1000913c5/base_front_laser_link,0,1646377947823063950,v/m1vw10zy74w/map,-2.83991012276,-2.24474935106,0.165,0.0,0.0,0.698581806044,-0.715530195215,0,61.656879425,61.656879425,nan,nan
1646377947901208574,1,1646377947901208574,r1000913c5/base_front_laser_link,0,1646377947901208574,v/m1vw10zy74w/map,-2.83946950852,-2.2447939237,0.165,0.0,0.0,0.698112124335,-0.715988450924,0,59.443031311,60.5499534607,85.2462310791,1.56542599201
1646377948059081213,2,1646377948059081213,r1000913c5/base_front_laser_link,0,1646377948059081213,v/m1vw10zy74w/map,-2.83637770606,-2.24357515532,0.165,0.0,0.0,0.694764494906,-0.719237302021,0,61.9536323547,61.0178451538,85.1334762573,1.37187767029
1646377948374498052,3,1646377948374498052,r1000913c5/base_front_laser_link,0,1646377948374498052,v/m1vw10zy74w/map,-2.80707667222,-2.24203739182,0.165,0.0,0.0,0.66254272958,-0.749024119425,0,62.0575561523,61.2777748108,84.9824371338,1.23488759995
1646377948531074297,4,1646377948531074297,r1000913c5/base_front_laser_link,0,1646377948531074297,v/m1vw10zy74w/map,-2.78398920714,-2.23831084732,0.165,0.0,0.0,0.635977971709,-0.771707210994,0,65.5087432861,62.123966217,88.6443481445,2.17346072197
1646377948767057386,5,1646377948767057386,r1000913c5/base_front_laser_link,0,1646377948767057386,v/m1vw10zy74w/map,-2.74829941846,-2.2298639213,0.165,0.0,0.0,0.592741366116,-0.805392868664,0,61.3657493591,61.9975967407,87.9030761719,1.9684920311
1646377948924973002,6,1646377948924973002,r1000913c5/base_front_laser_link,0,1646377948924973002,v/m1vw10zy74w/map,-2.7262074431,-2.21977984858,0.165,0.0,0.0,0.566233311936,-0.824245009966,0,57.9379692078,61.4176521301,88.5064849854,2.36294436455
1646377949082126127,7,1646377949082126127,r1000913c5/base_front_laser_link,0,1646377949082126127,v/m1vw10zy74w/map,-2.70432673635,-2.21056680983,0.165,0.0,0.0,0.537060246904,-0.843543888126,0,53.8071212769,60.4663352966,90.8698425293,3.46783494949
1646377949161126618,8,1646377949161126618,r1000913c5/base_front_laser_link,0,1646377949161126618,v/m1vw10zy74w/map,-2.69419100219,-2.20601681571,0.165,0.0,0.0,0.522731290559,-0.852497506079,0,56.7944145203,60.0583457947,90.4596328735,3.46709609032
1646377949240033351,9,1646377949240033351,r1000913c5/base_front_laser_link,0,1646377949240033351,v/m1vw10zy74w/map,-2.69137916012,-2.20663868942,0.165,0.0,0.0,0.507570177504,-0.861610419452,0,56.7746391296,59.7299728394,90.0193099976,3.42977952957
1646377949476122985,10,1646377949476122985,r1000913c5/base_front_laser_link,0,1646377949476122985,v/m1vw10zy74w/map,-2.66197843021,-2.1872247134,0.165,0.0,0.0,0.461134735075,-0.887330128028,0,54.4977531433,59.2543182373,90.1024551392,3.61604619026
1646377949633127011,11,1646377949633127011,r1000913c5/base_front_laser_link,0,1646377949633127011,v/m1vw10zy74w/map,-2.64295351398,-2.17430075528,0.165,0.0,0.0,0.42980177759,-0.902923270262,0,54.7979621887,58.8829536438,89.9227905273,3.679946661
1646377949790024716,12,1646377949790024716,r1000913c5/base_front_laser_link,0,1646377949790024716,v/m1vw10zy74w/map,-2.62360188292,-2.16210679416,0.165,0.0,0.0,0.398053070665,-0.917362389099,0,56.1785621643,58.6749229431,89.481628418,3.60223555565
1646377950026540848,13,1646377950026540848,r1000913c5/base_front_laser_link,0,1646377950026540848,v/m1vw10zy74w/map,-2.59624764303,-2.13513616857,0.165,0.0,0.0,0.347397954004,-0.937717794197,0,51.0124893188,58.1276054382,90.1918258667,4.02140712738
1646377950105202098,14,1646377950105202098,r1000913c5/base_front_laser_link,0,1646377950105202098,v/m1vw10zy74w/map,-2.58855996731,-2.12601140728,0.165,0.0,0.0,0.330628446578,-0.943761002751,0,53.5700912476,57.8237724304,89.9733352661,4.0498547554
1646377950262297410,15,1646377950262297410,r1000913c5/base_front_laser_link,0,1646377950262297410,v/m1vw10zy74w/map,-2.57400781746,-2.10877087089,0.165,0.0,0.0,0.296842498289,-0.954926453299,0,50.4487380981,57.3628349304,90.338432312,4.3251991272
1646377950498654924,16,1646377950498654924,r1000913c5/base_front_laser_link,0,1646377950498654924,v/m1vw10zy74w/map,-2.55277794657,-2.0765259917,0.165,0.0,0.0,0.243131269308,-0.969993394763,0,50.414188385,56.9540901184,90.4968032837,4.51423883438
1646377950657427836,17,1646377950657427836,r1000913c5/base_front_laser_link,0,1646377950657427836,v/m1vw10zy74w/map,-2.54184770542,-2.05430160459,0.165,0.0,0.0,-0.207618401637,0.97820989532,0,48.5997276306,56.4899597168,90.8953170776,4.80178546906
1646377950814070231,18,1646377950814070231,r1000913c5/base_front_laser_link,0,1646377950814070231,v/m1vw10zy74w/map,-2.52894878056,-2.03630426176,0.165,0.0,0.0,-0.174481499624,0.984660452282,0,48.1487541199,56.0509490967,91.1818008423,5.0436167717
1646377950892307444,19,1646377950892307444,r1000913c5/base_front_laser_link,0,1646377950892307444,v/m1vw10zy74w/map,-2.52503911812,-2.02506825132,0.165,0.0,0.0,-0.156957805226,0.987605309513,0,46.8735618591,55.5920791626,91.5543441772,5.32075643539
1646377951206893063,20,1646377951206893063,r1000913c5/base_front_laser_link,0,1646377951206893063,v/m1vw10zy74w/map,-2.5116686786,-1.97530250354,0.165,0.0,0.0,-0.0856522538781,0.996325093233,0,44.1083908081,55.0452346802,92.3244781494,5.75974750519
1646377951285977485,21,1646377951285977485,r1000913c5/base_front_laser_link,0,1646377951285977485,v/m1vw10zy74w/map,-2.50717865572,-1.9675670544,0.165,0.0,0.0,-0.068076841775,0.997680080794,0,46.8676376343,54.6735267639,92.3288879395,5.88511943817
1646377951600333750,22,1646377951600333750,r1000913c5/base_front_laser_link,0,1646377951600333750,v/m1vw10zy74w/map,-2.50590790362,-1.91508567728,0.165,0.0,0.0,0.00278988037697,0.999996108276,0,51.0916213989,54.517791748,91.9121398926,5.79811668396
1646377951678408689,23,1646377951678408689,r1000913c5/base_front_laser_link,0,1646377951678408689,v/m1vw10zy74w/map,-2.50618432031,-1.9034910006,0.165,0.0,0.0,0.0202137347279,0.999795681591,0,51.3598976135,54.3862113953,91.5077819824,5.70718955994
1646377951914276757,24,1646377951914276757,r1000913c5/base_front_laser_link,0,1646377951914276757,v/m1vw10zy74w/map,-2.50909347323,-1.8710314202,0.165,0.0,0.0,0.0728249605155,0.997344737353,0,51.4100494385,54.2671661377,91.1230926514,5.61864280701
1646377952151129621,25,1646377952151129621,r1000913c5/base_front_laser_link,0,1646377952151129621,v/m1vw10zy74w/map,-2.51564193689,-1.83873893193,0.165,0.0,0.0,0.125819274481,0.992053179103,0,53.215801239,54.2267303467,90.7536773682,5.50898313522
1646377952229334868,26,1646377952229334868,r1000913c5/base_front_laser_link,0,1646377952229334868,v/m1vw10zy74w/map,-2.51877505086,-1.82728887561,0.165,0.0,0.0,0.143386869778,0.989666714392,0,52.7913970947,54.1735687256,90.4007492065,5.40906000137
1646377952544950423,27,1646377952544950423,r1000913c5/base_front_laser_link,0,1646377952544950423,v/m1vw10zy74w/map,-2.53244676658,-1.78177455387,0.165,0.0,0.0,0.213509910152,0.976940898042,0,48.3676834106,53.966217041,90.2267074585,5.42016363144
1646377952623239390,28,1646377952623239390,r1000913c5/base_front_laser_link,0,1646377952623239390,v/m1vw10zy74w/map,-2.54268367685,-1.7671573848,0.165,0.0,0.0,0.230657101139,0.973035097874,0,48.7626991272,53.7867851257,90.0152664185,5.40949440002
1646377952701212535,29,1646377952701212535,r1000913c5/base_front_laser_link,0,1646377952701212535,v/m1vw10zy74w/map,-2.5482484835,-1.75611568133,0.165,0.0,0.0,0.247885988131,0.968789211794,0,50.5999259949,53.680557251,89.7220306396,5.34715890884
1646377953016334535,30,1646377953016334535,r1000913c5/base_front_laser_link,0,1646377953016334535,v/m1vw10zy74w/map,-2.57322012158,-1.71673793339,0.165,0.0,0.0,0.315180138645,0.949031864693,0,48.2533988953,53.5054855347,89.5461349487,5.3468837738
1646377953173194303,31,1646377953173194303,r1000913c5/base_front_laser_link,0,1646377953173194303,v/m1vw10zy74w/map,-2.58623208963,-1.70095570101,0.165,0.0,0.0,0.34854469673,0.937292160632,0,47.606880188,53.3211555481,89.4080505371,5.36229753494
1646377953331252205,32,1646377953331252205,r1000913c5/base_front_laser_link,0,1646377953331252205,v/m1vw10zy74w/map,-2.60255031053,-1.68360261204,0.165,0.0,0.0,0.381659258047,0.924303094632,0,49.1383018494,53.1944007874,89.1779174805,5.32783746719
1646377953409255382,33,1646377953409255382,r1000913c5/base_front_laser_link,0,1646377953409255382,v/m1vw10zy74w/map,-2.61634700924,-1.67492813356,0.165,0.0,0.0,0.397001812536,0.91781782552,0,50.0316925049,53.1013793945,88.9247436523,5.2744550705
1646377954117463235,34,1646377954117463235,r1000913c5/base_front_laser_link,0,1646377954117463235,v/m1vw10zy74w/map,-2.6658757143,-1.61909878601,0.165,0.0,0.0,0.487979137978,0.872855292072,0,47.5010528564,52.9413719177,88.7868652344,5.28183174133
1646377954196392188,35,1646377954196392188,r1000913c5/base_front_laser_link,0,1646377954196392188,v/m1vw10zy74w/map,-2.66651671179,-1.61629872065,0.165,0.0,0.0,0.488204585597,0.872729214935,0,45.7643966675,52.7420120239,88.7664718628,5.34148597717
1646377954354283130,36,1646377954354283130,r1000913c5/base_front_laser_link,0,1646377954354283130,v/m1vw10zy74w/map,-2.6665294144,-1.60517789018,0.165,0.0,0.0,0.495459779303,0.868630880808,0,46.8018112183,52.5814666748,88.6511077881,5.35654830933
1646377954670551733,37,1646377954670551733,r1000913c5/base_front_laser_link,0,1646377954670551733,v/m1vw10zy74w/map,-2.66644423661,-1.56883897037,0.165,0.0,0.0,0.518062878295,0.855342536141,0,47.8087615967,52.4558677673,88.4761428833,5.34009075165
1646377954827455388,38,1646377954827455388,r1000913c5/base_front_laser_link,0,1646377954827455388,v/m1vw10zy74w/map,-2.66503587786,-1.54680528708,0.165,0.0,0.0,0.5291592645,0.848522523445,0,51.4959754944,52.4312553406,88.246055603,5.27159929276
1646377955143253574,39,1646377955143253574,r1000913c5/base_front_laser_link,0,1646377955143253574,v/m1vw10zy74w/map,-2.66170324521,-1.49376918541,0.165,0.0,0.0,0.55454115591,0.832156299262,0,50.1696891785,52.3747138977,88.0222625732,5.21584796906
1646377955301142638,40,1646377955301142638,r1000913c5/base_front_laser_link,0,1646377955301142638,v/m1vw10zy74w/map,-2.658898671,-1.46518347622,0.165,0.0,0.0,0.564573150247,0.825383037153,0,48.8109207153,52.2877922058,87.8284606934,5.18022346497
1646377955536533596,41,1646377955536533596,r1000913c5/base_front_laser_link,0,1646377955536533596,v/m1vw10zy74w/map,-2.65443444461,-1.41692840165,0.165,0.0,0.0,0.579883520288,0.814699394193,0,49.0459327698,52.2106056213,87.6337661743,5.14105415344
1646377955850598608,42,1646377955850598608,r1000913c5/base_front_laser_link,0,1646377955850598608,v/m1vw10zy74w/map,-2.64656353875,-1.34439448084,0.165,0.0,0.0,0.599096687183,0.800676688437,0,50.1763420105,52.1632995605,87.4301376343,5.08894681931
1646377955929861884,43,1646377955929861884,r1000913c5/base_front_laser_link,0,1646377955929861884,v/m1vw10zy74w/map,-2.644598816,-1.3239032652,0.165,0.0,0.0,0.60363318532,0.797262176189,0,51.4342536926,52.1467285156,87.238609314,5.03062582016
1646377956244580362,44,1646377956244580362,r1000913c5/base_front_laser_link,0,1646377956244580362,v/m1vw10zy74w/map,-2.63861676505,-1.2324067667,0.165,0.0,0.0,0.624780855804,0.78080015511,0,52.1386985779,52.1465492249,87.0659408569,4.97313117981
1646377956480961546,45,1646377956480961546,r1000913c5/base_front_laser_link,0,1646377956480961546,v/m1vw10zy74w/map,-2.64535810213,-1.15703068653,0.165,0.0,0.0,0.649090841839,0.760710903722,0,54.8312416077,52.204914093,87.005317688,4.9334692955
1646377956559418487,46,1646377956559418487,r1000913c5/base_front_laser_link,0,1646377956559418487,v/m1vw10zy74w/map,-2.65080992574,-1.13037650605,0.165,0.0,0.0,0.659590663941,0.751625010256,0,51.8796272278,52.1979942322,86.8373336792,4.87978076935
1646377956795674721,47,1646377956795674721,r1000913c5/base_front_laser_link,0,1646377956795674721,v/m1vw10zy74w/map,-2.67749166517,-1.04498788994,0.165,0.0,0.0,0.697086995043,0.716986555901,0,53.72032547,52.2297058105,86.7274703979,4.83258676529
1646377956952511712,48,1646377956952511712,r1000913c5/base_front_laser_link,0,1646377956952511712,v/m1vw10zy74w/map,-2.69441328825,-0.99187282103,0.165,0.0,0.0,0.715050091646,0.699073219654,0,51.3516349792,52.2117881775,86.5626678467,4.78362751007
1646377957268633829,49,1646377957268633829,r1000913c5/base_front_laser_link,0,1646377957268633829,v/m1vw10zy74w/map,-2.72221266697,-0.861138134065,0.165,0.0,0.0,0.730538581518,0.682871423413,0,50.2189292908,52.1719322205,86.4007644653,4.74294424057
1646377957425730172,50,1646377957425730172,r1000913c5/base_front_laser_link,0,1646377957425730172,v/m1vw10zy74w/map,-2.73712040432,-0.793843302529,0.165,0.0,0.0,0.742240681192,0.670133398052,0,51.0009346008,52.1489715576,86.2433853149,4.69813776016
1646377957661438131,51,1646377957661438131,r1000913c5/base_front_laser_link,0,1646377957661438131,v/m1vw10zy74w/map,-2.78869797783,-0.691441748512,0.165,0.0,0.0,0.774215102713,0.632922566142,0,54.8187675476,52.2003135681,86.1999893188,4.66655921936
1646377957899401060,52,1646377957899401060,r1000913c5/base_front_laser_link,0,1646377957899401060,v/m1vw10zy74w/map,-2.84288698287,-0.641345432368,0.165,0.0,0.0,0.809325579401,0.587360286815,0,58.9936561584,52.3284873962,86.472694397,4.71473646164
1646377958055460240,53,1646377958055460240,r1000913c5/base_front_laser_link,0,1646377958055460240,v/m1vw10zy74w/map,-2.86476163183,-0.648568651151,0.165,0.0,0.0,0.826827090598,0.562456186964,0,59.6143989563,52.4634132385,86.7858200073,4.77413606644
1646377958291556242,54,1646377958291556242,r1000913c5/base_front_laser_link,0,1646377958291556242,v/m1vw10zy74w/map,-2.89779596327,-0.653613892677,0.165,0.0,0.0,0.853767282495,0.520654806318,0,56.4718666077,52.5362930298,86.817817688,4.76050758362
1646377958450472564,55,1646377958450472564,r1000913c5/base_front_laser_link,0,1646377958450472564,v/m1vw10zy74w/map,-2.92109000139,-0.660006747698,0.165,0.0,0.0,0.871287193974,0.490773497264,0,56.7615203857,52.611743927,86.8638534546,4.75070333481
1646377958606548809,56,1646377958606548809,r1000913c5/base_front_laser_link,0,1646377958606548809,v/m1vw10zy74w/map,-2.94096952752,-0.672889318924,0.165,0.0,0.0,0.888115580205,0.459620186891,0,54.62317276,52.6470336914,86.7939147949,4.71562767029
1646377959708432397,57,1646377959708432397,r1000913c5/base_front_laser_link,0,1646377959708432397,v/m1vw10zy74w/map,-3.04287167085,-0.744842714271,0.165,0.0,0.0,0.95402898396,0.29971436029,0,58.4353218079,52.7468299866,86.9532394409,4.73547029495
1646377960261831756,58,1646377960261831756,r1000913c5/base_front_laser_link,0,1646377960261831756,v/m1vw10zy74w/map,-3.10287043615,-0.737155604119,0.165,0.0,0.0,0.964949434322,0.262435876361,0,59.300365448,52.8579063416,87.1720199585,4.77137184143
1646377960576605365,59,1646377960576605365,r1000913c5/base_front_laser_link,0,1646377960576605365,v/m1vw10zy74w/map,-3.15190903115,-0.732362101443,0.165,0.0,0.0,0.972142752092,0.234389567933,0,59.7099456787,52.9721069336,87.4103775024,4.81275749207
1646377960655397111,60,1646377960655397111,r1000913c5/base_front_laser_link,0,1646377960655397111,v/m1vw10zy74w/map,-3.16595093878,-0.730538716781,0.165,0.0,0.0,0.973766075143,0.227551380792,0,55.82289505,53.0188407898,87.3781051636,4.78642034531
1646377960812666989,61,1646377960812666989,r1000913c5/base_front_laser_link,0,1646377960812666989,v/m1vw10zy74w/map,-3.19737743267,-0.72488812408,0.165,0.0,0.0,0.976949722154,0.21346953034,0,60.7200241089,53.1430549622,87.6832580566,4.84673404694
1646377961048593414,62,1646377961048593414,r1000913c5/base_front_laser_link,0,1646377961048593414,v/m1vw10zy74w/map,-3.24666610274,-0.719169108993,0.165,0.0,0.0,0.981188492599,0.193052174271,0,61.5314445496,53.2762031555,88.0430450439,4.92228126526
1646377961206468283,63,1646377961206468283,r1000913c5/base_front_laser_link,0,1646377961206468283,v/m1vw10zy74w/map,-3.28278020614,-0.7134074897,0.165,0.0,0.0,0.983414547693,0.181372068923,0,60.9393844604,53.395942688,88.3243255615,4.97612667084
1646377961284733748,64,1646377961284733748,r1000913c5/base_front_laser_link,0,1646377961284733748,v/m1vw10zy74w/map,-3.30162966921,-0.710585071087,0.165,0.0,0.0,0.984480829827,0.175492152827,0,61.5711021423,53.5217132568,88.6421737671,5.04015254974
1646377961598709947,65,1646377961598709947,r1000913c5/base_front_laser_link,0,1646377961598709947,v/m1vw10zy74w/map,-3.36903231193,-0.702133807048,0.165,0.0,0.0,0.988646882479,0.150257584715,0,71.5200424194,53.7944145203,90.2043075562,5.46996355057
1646377961757536634,66,1646377961757536634,r1000913c5/base_front_laser_link,0,1646377961757536634,v/m1vw10zy74w/map,-3.41541016146,-0.698709561501,0.165,0.0,0.0,0.990758748501,0.13563591806,0,69.7105636597,54.0319709778,91.3303222656,5.76611757278
1646377962071892579,67,1646377962071892579,r1000913c5/base_front_laser_link,0,1646377962071892579,v/m1vw10zy74w/map,-3.51649354359,-0.698654210539,0.165,0.0,0.0,0.994502110988,0.104716528018,0,74.9419174194,54.3394699097,93.1180496216,6.25952577591
1646377962386842123,68,1646377962386842123,r1000913c5/base_front_laser_link,0,1646377962386842123,v/m1vw10zy74w/map,-3.62824791869,-0.700054472854,0.165,0.0,0.0,0.997072180844,0.0764661113576,0,69.5248260498,54.5595474243,93.9895935059,6.47668266296
1646377962542613067,69,1646377962542613067,r1000913c5/base_front_laser_link,0,1646377962542613067,v/m1vw10zy74w/map,-3.68700229765,-0.698277568201,0.165,0.0,0.0,0.997779349537,0.0666060780798,0,71.0611572266,54.7952842712,94.9711532593,6.72529029846
1646377962779853717,70,1646377962779853717,r1000913c5/base_front_laser_link,0,1646377962779853717,v/m1vw10zy74w/map,-3.77620179922,-0.733415672007,0.165,0.0,0.0,0.998054900894,0.062341116456,0,69.1533584595,54.9975090027,95.6707458496,6.89107942581
1646377962936852848,71,1646377962936852848,r1000913c5/base_front_laser_link,0,1646377962936852848,v/m1vw10zy74w/map,-3.84180344714,-0.726802192244,0.165,0.0,0.0,0.998188641718,0.0601617448652,0,71.2875442505,55.2237586975,96.5435638428,7.10660076141
1646377963251607483,72,1646377963251607483,r1000913c5/base_front_laser_link,0,1646377963251607483,v/m1vw10zy74w/map,-3.98284004158,-0.725807995203,0.165,0.0,0.0,0.998869249026,0.0475418063394,0,64.2139892578,55.346912384,96.7521820068,7.1350903511
1646377963409768628,73,1646377963409768628,r1000913c5/base_front_laser_link,0,1646377963409768628,v/m1vw10zy74w/map,-4.05931337321,-0.72340716897,0.165,0.0,0.0,0.999171566074,0.0406962104981,0,63.5817222595,55.4581947327,96.9094543457,7.15041971207
1646377963645654281,74,1646377963645654281,r1000913c5/base_front_laser_link,0,1646377963645654281,v/m1vw10zy74w/map,-4.17242041889,-0.725127070225,0.165,0.0,0.0,0.999517737616,0.0310530544681,0,62.40209198,55.55078125,96.9919662476,7.14706087112
1646377963881901077,75,1646377963881901077,r1000913c5/base_front_laser_link,0,1646377963881901077,v/m1vw10zy74w/map,-4.2980353592,-0.723060296996,0.165,0.0,0.0,0.999722090286,0.023574184899,0,59.3004226685,55.6001167297,96.9369277954,7.1122713089
1646377964039745042,76,1646377964039745042,r1000913c5/base_front_laser_link,0,1646377964039745042,v/m1vw10zy74w/map,-4.37918503092,-0.725661652561,0.165,0.0,0.0,0.999828003963,0.018546225784,0,62.0624580383,55.6840438843,96.9948577881,7.10360336304
1646377964355053621,77,1646377964355053621,r1000913c5/base_front_laser_link,0,1646377964355053621,v/m1vw10zy74w/map,-4.55907941906,-0.727711091798,0.165,0.0,0.0,0.999937936493,0.0111410574972,0,68.7874603271,55.8520355225,97.4868240356,7.21159601212
1646377964511901524,78,1646377964511901524,r1000913c5/base_front_laser_link,0,1646377964511901524,v/m1vw10zy74w/map,-4.64693042606,-0.730683610108,0.165,0.0,0.0,0.99996952321,0.00780721790649,0,70.2640457153,56.0344657898,98.0736618042,7.34639692307
1646377964669125711,79,1646377964669125711,r1000913c5/base_front_laser_link,0,1646377964669125711,v/m1vw10zy74w/map,-4.73796786735,-0.732700096603,0.165,0.0,0.0,0.999984452325,0.00557629885146,0,72.1994934082,56.236530304,98.7969970703,7.52015542984
1646377964827698071,80,1646377964827698071,r1000913c5/base_front_laser_link,0,1646377964827698071,v/m1vw10zy74w/map,-4.83877644814,-0.729392964963,0.165,0.0,0.0,0.999983342929,0.00577181636606,0,73.1855926514,56.4457778931,99.5657119751,7.70664548874
1646377964983774055,81,1646377964983774055,r1000913c5/base_front_laser_link,0,1646377964983774055,v/m1vw10zy74w/map,-4.93599930845,-0.732332875501,0.165,0.0,0.0,0.999988123901,0.00487360818117,0,71.692527771,56.6317138672,100.157157898,7.84181499481
1646377965219916471,82,1646377965219916471,r1000913c5/base_front_laser_link,0,1646377965219916471,v/m1vw10zy74w/map,-5.09534996292,-0.729205685606,0.165,0.0,0.0,0.99998139378,0.0061001716951,0,61.6804008484,56.6925430298,100.133125305,7.81352901459
1646377965298912635,83,1646377965298912635,r1000913c5/base_front_laser_link,0,1646377965298912635,v/m1vw10zy74w/map,-5.15036990432,-0.728720438531,0.165,0.0,0.0,0.999982894655,0.00584896551986,0,62.5582847595,56.7623710632,100.140304565,7.79264307022
1646377965376726313,84,1646377965376726313,r1000913c5/base_front_laser_link,0,1646377965376726313,v/m1vw10zy74w/map,-5.1963061017,-0.731484133401,0.165,0.0,0.0,0.99999183831,0.00404021202271,0,62.1627311707,56.8259048462,100.130607605,7.76823472977
1646377965534876028,85,1646377965534876028,r1000913c5/base_front_laser_link,0,1646377965534876028,v/m1vw10zy74w/map,-5.31075130733,-0.731908332713,0.165,0.0,0.0,0.999996673272,0.00257942725285,0,60.370426178,56.8671226501,100.062690735,7.73185682297
1646377965691896754,86,1646377965691896754,r1000913c5/base_front_laser_link,0,1646377965691896754,v/m1vw10zy74w/map,-5.42475135039,-0.73054833375,0.165,0.0,0.0,0.999999339676,0.00114919428582,0,62.8546447754,56.9359436035,100.076530457,7.71353054047
1646377965927962291,87,1646377965927962291,r1000913c5/base_front_laser_link,0,1646377965927962291,v/m1vw10zy74w/map,-5.60141276649,-0.723508403722,0.165,0.0,0.0,0.99998104027,-0.00615784868441,0,64.5147705078,57.022064209,100.156593323,7.71150922775
1646377966242975074,88,1646377966242975074,r1000913c5/base_front_laser_link,0,1646377966242975074,v/m1vw10zy74w/map,-5.84965996966,-0.727191876955,0.165,0.0,0.0,0.9999750462,-0.00706448710483,0,64.5226516724,57.1063423157,100.232376099,7.70867872238
1646377966400930267,89,1646377966400930267,r1000913c5/base_front_laser_link,0,1646377966400930267,v/m1vw10zy74w/map,-5.96779956528,-0.72891859275,0.165,0.0,0.0,0.999987158585,-0.00506780672231,0,65.3499832153,57.1979370117,100.3409729,7.71434545517
1646377966715759060,90,1646377966715759060,r1000913c5/base_front_laser_link,0,1646377966715759060,v/m1vw10zy74w/map,-6.23024678707,-0.742655228453,0.165,0.0,0.0,0.999999887962,0.000473366117672,0,59.9185562134,57.2278366089,100.257843018,7.67666816711
1646377966872739730,91,1646377966872739730,r1000913c5/base_front_laser_link,0,1646377966872739730,v/m1vw10zy74w/map,-6.36568890667,-0.735330283947,0.165,0.0,0.0,0.999999997521,7.04125709361e-05,0,61.3579521179,57.2727279663,100.212242126,7.64650583267
1646377966950886509,92,1646377966950886509,r1000913c5/base_front_laser_link,0,1646377966950886509,v/m1vw10zy74w/map,-6.43625573179,-0.734958958445,0.165,0.0,0.0,0.999999999732,-2.31368844835e-05,0,57.491317749,57.2750778198,100.089683533,7.60486888885
1646377967108846960,93,1646377967108846960,r1000913c5/base_front_laser_link,0,1646377967108846960,v/m1vw10zy74w/map,-6.57142136313,-0.73379643519,0.165,0.0,0.0,0.999999833651,-0.000576799886839,0,60.8572502136,57.3131866455,100.031860352,7.57289028168
1646377967186839456,94,1646377967186839456,r1000913c5/base_front_laser_link,0,1646377967186839456,v/m1vw10zy74w/map,-6.6424926101,-0.734017688612,0.165,0.0,0.0,0.999999709316,-0.000762475202667,0,59.9969367981,57.3414382935,99.9540328979,7.53753232956
1646377967343771551,95,1646377967343771551,r1000913c5/base_front_laser_link,0,1646377967343771551,v/m1vw10zy74w/map,-6.78840917248,-0.739934869842,0.165,0.0,0.0,0.999996002801,-0.00282743371498,0,57.7701263428,57.3459014893,99.839553833,7.49788379669
1646377967423426074,96,1646377967423426074,r1000913c5/base_front_laser_link,0,1646377967423426074,v/m1vw10zy74w/map,-6.85922637835,-0.737233947418,0.165,0.0,0.0,0.999998023252,-0.00198833882063,0,59.6504631042,57.3696594238,99.7568588257,7.46239948273
1646377967658916670,97,1646377967658916670,r1000913c5/base_front_laser_link,0,1646377967658916670,v/m1vw10zy74w/map,-7.08263521524,-0.732530448651,0.165,0.0,0.0,0.999999710755,0.000760585061022,0,63.5578765869,57.4328041077,99.7831192017,7.45010471344
1646377967738117588,98,1646377967738117588,r1000913c5/base_front_laser_link,0,1646377967738117588,v/m1vw10zy74w/map,-7.14996735112,-0.733484169587,0.165,0.0,0.0,0.99999999962,-2.75797948888e-05,0,61.6667327881,57.4755706787,99.7481765747,7.42420148849
1646377967894861033,99,1646377967894861033,r1000913c5/base_front_laser_link,0,1646377967894861033,v/m1vw10zy74w/map,-7.30505549785,-0.733724439433,0.165,0.0,0.0,0.999998812126,0.00154134601776,0,60.1315116882,57.5021324158,99.67628479,7.39138364792
1646377967973890698,100,1646377967973890698,r1000913c5/base_front_laser_link,0,1646377967973890698,v/m1vw10zy74w/map,-7.38470218065,-0.733120050895,0.165,0.0,0.0,0.999998784714,0.00155902881667,0,62.3040122986,57.5496749878,99.6591949463,7.3698387146
1646377968287907434,101,1646377968287907434,r1000913c5/base_front_laser_link,0,1646377968287907434,v/m1vw10zy74w/map,-7.70527193758,-0.734480682387,0.165,0.0,0.0,0.999999999811,-1.94254938808e-05,0,57.3213691711,57.5474357605,99.5473327637,7.33329868317
1646377968524585735,102,1646377968524585735,r1000913c5/base_front_laser_link,0,1646377968524585735,v/m1vw10zy74w/map,-7.95183783625,-0.72830680553,0.165,0.0,0.0,0.999996928637,0.00247845034846,0,62.5637550354,57.5961380005,99.5380859375,7.31398296356
1646377968682021095,103,1646377968682021095,r1000913c5/base_front_laser_link,0,1646377968682021095,v/m1vw10zy74w/map,-8.07651406445,-0.728168107169,0.165,0.0,0.0,0.999992011703,0.00399706529303,0,62.171962738,57.6401367188,99.5167617798,7.29220914841
1646377968917990855,104,1646377968917990855,r1000913c5/base_front_laser_link,0,1646377968917990855,v/m1vw10zy74w/map,-8.22869292654,-0.730440088611,0.165,0.0,0.0,0.999987588232,0.00498230687888,0,60.6883049011,57.6691665649,99.4586486816,7.26315975189
1646377969075271349,105,1646377969075271349,r1000913c5/base_front_laser_link,0,1646377969075271349,v/m1vw10zy74w/map,-8.30620079607,-0.732496342863,0.165,0.0,0.0,0.999996196612,0.00275803595147,0,62.9787750244,57.7192573547,99.4598464966,7.24686384201
1646377969310902514,106,1646377969310902514,r1000913c5/base_front_laser_link,0,1646377969310902514,v/m1vw10zy74w/map,-8.37296974938,-0.721389866473,0.165,0.0,0.0,0.999998883961,-0.00149401333876,0,58.7595710754,57.7289810181,99.3688812256,7.21330070496
1646377969469055223,107,1646377969469055223,r1000913c5/base_front_laser_link,0,1646377969469055223,v/m1vw10zy74w/map,-8.42854194357,-0.723012055971,0.165,0.0,0.0,0.99998338063,-0.00576528087741,0,56.8164749146,57.7205314636,99.2606887817,7.18005132675
1646377969704922253,108,1646377969704922253,r1000913c5/base_front_laser_link,0,1646377969704922253,v/m1vw10zy74w/map,-8.51890336247,-0.7228645471,0.165,0.0,0.0,0.999964677046,-0.00840503783373,0,60.3488998413,57.744644165,99.1981430054,7.15116596222
1646377969941223120,109,1646377969941223120,r1000913c5/base_front_laser_link,0,1646377969941223120,v/m1vw10zy74w/map,-8.59574276483,-0.726564290985,0.165,0.0,0.0,0.999925695233,-0.0121903245246,0,61.7237854004,57.7808189392,99.1659927368,7.12839031219
1646377970177870009,110,1646377970177870009,r1000913c5/base_front_laser_link,0,1646377970177870009,v/m1vw10zy74w/map,-8.6738142572,-0.742326900026,0.165,0.0,0.0,0.999719783382,-0.0236718126691,0,64.2293548584,57.8389129639,99.2057037354,7.12226295471
1646377970334977147,111,1646377970334977147,r1000913c5/base_front_laser_link,0,1646377970334977147,v/m1vw10zy74w/map,-8.71881525544,-0.754467819183,0.165,0.0,0.0,0.999286892168,-0.037758537322,0,64.541015625,57.8987541199,99.2537612915,7.1183347702
1646377970649095552,112,1646377970649095552,r1000913c5/base_front_laser_link,0,1646377970649095552,v/m1vw10zy74w/map,-8.81511558746,-0.781974212832,0.165,0.0,0.0,0.997784361407,-0.0665309561929,0,65.3019638062,57.9642677307,99.3261413574,7.12062454224
1646377970885710234,113,1646377970885710234,r1000913c5/base_front_laser_link,0,1646377970885710234,v/m1vw10zy74w/map,-8.87449269453,-0.80796031441,0.165,0.0,0.0,0.995843409779,-0.0910818489047,0,65.4361419678,58.0298118591,99.4003295898,7.12350463867
1646377971120983096,114,1646377971120983096,r1000913c5/base_front_laser_link,0,1646377971120983096,v/m1vw10zy74w/map,-8.92775012117,-0.828864850084,0.165,0.0,0.0,0.992512186925,-0.122145645868,0,66.2545700073,58.1013298035,99.5019607544,7.13354253769
1646377971279078985,115,1646377971279078985,r1000913c5/base_front_laser_link,0,1646377971279078985,v/m1vw10zy74w/map,-8.96043887761,-0.857056672382,0.165,0.0,0.0,0.988769694907,-0.149447283123,0,64.0040206909,58.152217865,99.52293396,7.12357282639
1646377971358160264,116,1646377971358160264,r1000913c5/base_front_laser_link,0,1646377971358160264,v/m1vw10zy74w/map,-8.97531642545,-0.871672612435,0.165,0.0,0.0,0.986582320055,-0.163264588182,0,66.4388885498,58.2230415344,99.6252059937,7.13405513763
1646377971515124888,117,1646377971515124888,r1000913c5/base_front_laser_link,0,1646377971515124888,v/m1vw10zy74w/map,-8.99139589009,-0.900880386793,0.165,0.0,0.0,0.980820342056,-0.19491397233,0,63.5440292358,58.2681350708,99.6292495728,7.12037086487
1646377971593029791,118,1646377971593029791,r1000913c5/base_front_laser_link,0,1646377971593029791,v/m1vw10zy74w/map,-8.99326962803,-0.912541601501,0.165,0.0,0.0,0.977864562868,-0.209238850805,0,64.3569335938,58.3193016052,99.6555175781,7.11207199097
1646377971908122400,119,1646377971908122400,r1000913c5/base_front_laser_link,0,1646377971908122400,v/m1vw10zy74w/map,-8.97496037127,-0.95137524968,0.165,0.0,0.0,0.963202597411,-0.268776405847,0,64.6500320435,58.3720588684,99.6890563965,7.10566663742
1646377972065666915,120,1646377972065666915,r1000913c5/base_front_laser_link,0,1646377972065666915,v/m1vw10zy74w/map,-8.96091921836,-0.970537310719,0.165,0.0,0.0,0.953100747253,-0.302653210103,0,68.3835449219,58.4547996521,99.8576660156,7.13428974152
1646377972381167394,121,1646377972381167394,r1000913c5/base_front_laser_link,0,1646377972381167394,v/m1vw10zy74w/map,-8.92131103399,-1.00240339629,0.165,0.0,0.0,0.930795621787,-0.365540025801,0,61.5495796204,58.4801635742,99.8109741211,7.11027050018
1646377972538132519,122,1646377972538132519,r1000913c5/base_front_laser_link,0,1646377972538132519,v/m1vw10zy74w/map,-8.91052295468,-1.01913793387,0.165,0.0,0.0,0.917386586811,-0.397997299413,0,62.7898521423,58.5152015686,99.7903747559,7.09172487259
1646377972852128473,123,1646377972852128473,r1000913c5/base_front_laser_link,0,1646377972852128473,v/m1vw10zy74w/map,-8.89607121145,-1.05757498527,0.165,0.0,0.0,0.888338525386,-0.459189137846,0,65.7427062988,58.5734901428,99.8512802124,7.09259748459
1646377973088250636,124,1646377973088250636,r1000913c5/base_front_laser_link,0,1646377973088250636,v/m1vw10zy74w/map,-8.86083156603,-1.09095196862,0.165,0.0,0.0,0.862198592055,-0.506570417472,0,64.8490524292,58.6236953735,99.8823165894,7.08620643616
1646377973325349532,125,1646377973325349532,r1000913c5/base_front_laser_link,0,1646377973325349532,v/m1vw10zy74w/map,-8.83104605671,-1.10150817737,0.165,0.0,0.0,0.835504322994,-0.54948387261,0,62.4656600952,58.6541862488,99.8524856567,7.06609869003
1646377973560300107,126,1646377973560300107,r1000913c5/base_front_laser_link,0,1646377973560300107,v/m1vw10zy74w/map,-8.79986164561,-1.11437878448,0.165,0.0,0.0,0.808498581861,-0.588498125,0,66.6087417603,58.7168197632,99.9367523193,7.07330989838
1646377973875212817,127,1646377973875212817,r1000913c5/base_front_laser_link,0,1646377973875212817,v/m1vw10zy74w/map,-8.76590646366,-1.12189688614,0.165,0.0,0.0,0.773839553325,-0.633381674593,0,65.8186798096,58.7723045349,99.9922485352,7.07331562042
1646377976474613617,128,1646377976474613617,r1000913c5/base_front_laser_link,0,1646377976474613617,v/m1vw10zy74w/map,-8.70615123204,-1.12781254967,0.165,0.0,0.0,0.709816030526,-0.704387111473,0,65.7934494019,58.8267326355,100.044830322,7.07269859314
1646377976632127776,129,1646377976632127776,r1000913c5/base_front_laser_link,0,1646377976632127776,v/m1vw10zy74w/map,-8.70614132903,-1.12802471753,0.165,0.0,0.0,0.709803840519,-0.704399395219,0,64.8219223022,58.8728485107,100.067329407,7.06482601166
1646377976790317371,130,1646377976790317371,r1000913c5/base_front_laser_link,0,1646377976790317371,v/m1vw10zy74w/map,-8.7072059644,-1.13458121634,0.165,0.0,0.0,0.710889051575,-0.703304170577,0,66.084022522,58.9278945923,100.125137329,7.06574726105
1646377977026118763,131,1646377977026118763,r1000913c5/base_front_laser_link,0,1646377977026118763,v/m1vw10zy74w/map,-8.70815806727,-1.16732472049,0.165,0.0,0.0,0.711499229586,-0.702686876424,0,64.7512207031,58.9720115662,100.142868042,7.05695295334
1646377977184223361,132,1646377977184223361,r1000913c5/base_front_laser_link,0,1646377977184223361,v/m1vw10zy74w/map,-8.70617394251,-1.20954712367,0.165,0.0,0.0,0.709039265331,-0.705169001176,0,64.2419281006,59.0116348267,100.146652222,7.04500675201
1646377977341365991,133,1646377977341365991,r1000913c5/base_front_laser_link,0,1646377977341365991,v/m1vw10zy74w/map,-8.7039564294,-1.25696155416,0.165,0.0,0.0,0.706575115298,-0.707638047621,0,66.4658050537,59.0672645569,100.211112976,7.04795074463
1646377977498245672,134,1646377977498245672,r1000913c5/base_front_laser_link,0,1646377977498245672,v/m1vw10zy74w/map,-8.7016994849,-1.30279777054,0.165,0.0,0.0,0.70440422468,-0.709799047797,0,65.7259368896,59.1165847778,100.251441956,7.0449514389
1646377977577425908,135,1646377977577425908,r1000913c5/base_front_laser_link,0,1646377977577425908,v/m1vw10zy74w/map,-8.70101357713,-1.32541373036,0.165,0.0,0.0,0.703877196234,-0.710321682495,0,61.6814804077,59.1354446411,100.202209473,7.02225542068
1646377977656238615,136,1646377977656238615,r1000913c5/base_front_laser_link,0,1646377977656238615,v/m1vw10zy74w/map,-8.70088478258,-1.34780913962,0.165,0.0,0.0,0.703957046829,-0.710242547458,0,65.3011398315,59.1804504395,100.229034424,7.01619338989
1646377977734274248,137,1646377977734274248,r1000913c5/base_front_laser_link,0,1646377977734274248,v/m1vw10zy74w/map,-8.70193568777,-1.37008192691,0.165,0.0,0.0,0.705248989845,-0.708959704301,0,67.6864852905,59.2420883179,100.325912476,7.02794027328
1646377977893391402,138,1646377977893391402,r1000913c5/base_front_laser_link,0,1646377977893391402,v/m1vw10zy74w/map,-8.65768389546,-1.37079336156,0.165,0.0,0.0,0.703483632646,-0.710711459454,0,68.6055679321,59.3094520569,100.451423645,7.04732465744
1646377978206148217,139,1646377978206148217,r1000913c5/base_front_laser_link,0,1646377978206148217,v/m1vw10zy74w/map,-8.66659525686,-1.45984431647,0.165,0.0,0.0,0.71268592512,-0.701483265756,0,66.550819397,59.3611755371,100.506820679,7.04854869843
1646377978442862210,140,1646377978442862210,r1000913c5/base_front_laser_link,0,1646377978442862210,v/m1vw10zy74w/map,-8.67046324991,-1.52644939776,0.165,0.0,0.0,0.717166633975,-0.696901728447,0,69.5489730835,59.433429718,100.660049438,7.0755405426
1646377978521527944,141,1646377978521527944,r1000913c5/base_front_laser_link,0,1646377978521527944,v/m1vw10zy74w/map,-8.6735277789,-1.54820184319,0.165,0.0,0.0,0.719623989035,-0.69436396393,0,70.6683959961,59.512550354,100.852043152,7.11316537857
1646377978600315431,142,1646377978600315431,r1000913c5/base_front_laser_link,0,1646377978600315431,v/m1vw10zy74w/map,-8.6763451635,-1.57007116381,0.165,0.0,0.0,0.721676374472,-0.692230605022,0,75.5252609253,59.6245269775,101.264877319,7.21344995499
1646377978757454944,143,1646377978757454944,r1000913c5/base_front_laser_link,0,1646377978757454944,v/m1vw10zy74w/map,-8.69616606675,-1.64442504154,0.165,0.0,0.0,0.719954840415,-0.694020913059,0,73.8017807007,59.7229804993,101.576858521,7.28462648392
1646377978836330019,144,1646377978836330019,r1000913c5/base_front_laser_link,0,1646377978836330019,v/m1vw10zy74w/map,-8.69803417597,-1.6666527476,0.165,0.0,0.0,0.720747984703,-0.69319718879,0,72.8136749268,59.8132591248,101.833976746,7.34023857117
1646377978993204999,145,1646377978993204999,r1000913c5/base_front_laser_link,0,1646377978993204999,v/m1vw10zy74w/map,-8.69999810409,-1.71151004391,0.165,0.0,0.0,0.720952419297,-0.692984566285,0,69.1857223511,59.877456665,101.945137024,7.35589504242
1646377979151394524,146,1646377979151394524,r1000913c5/base_front_laser_link,0,1646377979151394524,v/m1vw10zy74w/map,-8.70173136628,-1.75653163102,0.165,0.0,0.0,0.720903374561,-0.693035586782,0,70.5104217529,59.9497871399,102.098587036,7.38293266296
1646377979308341100,147,1646377979308341100,r1000913c5/base_front_laser_link,0,1646377979308341100,v/m1vw10zy74w/map,-8.67074310581,-1.77364466682,0.165,0.0,0.0,0.716863815583,-0.697213216963,0,68.9456329346,60.0105705261,102.195098877,7.39484167099
1646377984977772220,148,1646377984977772220,r1000913c5/base_front_laser_link,0,1646377984977772220,v/m1vw10zy74w/map,-8.66308319795,-2.63606666005,0.165,0.0,0.0,0.705774708505,-0.708436349176,0,58.1295013428,59.9979476929,102.112228394,7.37142801285
1646377988677039868,149,1646377988677039868,r1000913c5/base_front_laser_link,0,1646377988677039868,v/m1vw10zy74w/map,-8.66648303656,-2.80834180441,0.165,0.0,0.0,0.70745173035,-0.706761663664,0,59.1124076843,59.9920425415,102.033058167,7.34700584412
1646377988757010472,150,1646377988757010472,r1000913c5/base_front_laser_link,0,1646377988757010472,v/m1vw10zy74w/map,-8.6664842129,-2.80831089919,0.165,0.0,0.0,0.707453003821,-0.706760388947,0,59.9407272339,59.9917030334,101.959129333,7.32247591019
1646377989071076255,151,1646377989071076255,r1000913c5/base_front_laser_link,0,1646377989071076255,v/m1vw10zy74w/map,-8.6665905871,-2.79031663095,0.165,0.0,0.0,0.70758883077,-0.706624402755,0,59.796207428,59.9904174805,101.885032654,7.29820632935
1646377989307651070,152,1646377989307651070,r1000913c5/base_front_laser_link,0,1646377989307651070,v/m1vw10zy74w/map,-8.6699591873,-2.75280056203,0.165,0.0,0.0,0.711324030445,-0.702864228505,0,61.1968040466,59.9983024597,101.822738647,7.2748131752
1646377989385719337,153,1646377989385719337,r1000913c5/base_front_laser_link,0,1646377989385719337,v/m1vw10zy74w/map,-8.67086301631,-2.73310883436,0.165,0.0,0.0,0.712513721097,-0.701658176927,0,60.0723724365,59.9987831116,101.751792908,7.25100278854
1646377989463835301,154,1646377989463835301,r1000913c5/base_front_laser_link,0,1646377989463835301,v/m1vw10zy74w/map,-8.67170654527,-2.71264681895,0.165,0.0,0.0,0.713735776655,-0.700415049183,0,59.7081832886,59.9969062805,101.679290771,7.22745990753
1646377989543038373,155,1646377989543038373,r1000913c5/base_front_laser_link,0,1646377989543038373,v/m1vw10zy74w/map,-8.67229178558,-2.69024083845,0.165,0.0,0.0,0.714795952395,-0.699333072605,0,61.4587593079,60.0062789917,101.621452332,7.20505857468
1646377989621938725,156,1646377989621938725,r1000913c5/base_front_laser_link,0,1646377989621938725,v/m1vw10zy74w/map,-8.67307271546,-2.66756570762,0.165,0.0,0.0,0.716156295589,-0.697939940316,0,61.6215782166,60.0165672302,101.565818787,7.18308496475
1646377989700011667,157,1646377989700011667,r1000913c5/base_front_laser_link,0,1646377989700011667,v/m1vw10zy74w/map,-8.67383456427,-2.64414503446,0.165,0.0,0.0,0.717603423158,-0.69645195604,0,61.8471412659,60.0281524658,101.513114929,7.16165351868
1646377989779045787,158,1646377989779045787,r1000913c5/base_front_laser_link,0,1646377989779045787,v/m1vw10zy74w/map,-8.67408976426,-2.6200569719,0.165,0.0,0.0,0.718648078747,-0.695373956166,0,62.5641288757,60.0441017151,101.469459534,7.14178609848
1646377989858072583,159,1646377989858072583,r1000913c5/base_front_laser_link,0,1646377989858072583,v/m1vw10zy74w/map,-8.6736874593,-2.59568228452,0.165,0.0,0.0,0.719072217636,-0.694935353701,0,62.1003227234,60.0569534302,101.420394897,7.12114810944
1646377989936031708,160,1646377989936031708,r1000913c5/base_front_laser_link,0,1646377989936031708,v/m1vw10zy74w/map,-8.67290296354,-2.5720468884,0.165,0.0,0.0,0.71909432302,-0.694912479814,0,62.3270874023,60.0710525513,101.374397278,7.10111379623
1646377990094047654,161,1646377990094047654,r1000913c5/base_front_laser_link,0,1646377990094047654,v/m1vw10zy74w/map,-8.6768142329,-2.52453968127,0.165,0.0,0.0,0.721067296107,-0.692865033383,0,59.4864845276,60.0674476624,101.304969788,7.07917499542
1646377990251069992,162,1646377990251069992,r1000913c5/base_front_laser_link,0,1646377990251069992,v/m1vw10zy74w/map,-8.67959370057,-2.48214034078,0.165,0.0,0.0,0.721581503413,-0.692329498095,0,60.1972999573,60.0682411194,101.240142822,7.05729961395
1646377990330054242,163,1646377990330054242,r1000913c5/base_front_laser_link,0,1646377990330054242,v/m1vw10zy74w/map,-8.67830861998,-2.45945479116,0.165,0.0,0.0,0.721210194316,-0.692716287967,0,60.029209137,60.0680046082,101.174858093,7.03561878204
1646377990409118804,164,1646377990409118804,r1000913c5/base_front_laser_link,0,1646377990409118804,v/m1vw10zy74w/map,-8.67730194061,-2.43695124939,0.165,0.0,0.0,0.721103628623,-0.69282722001,0,68.7245025635,60.1204681396,101.259773254,7.04643535614
1646377990487128947,165,1646377990487128947,r1000913c5/base_front_laser_link,0,1646377990487128947,v/m1vw10zy74w/map,-8.67636657582,-2.41443492444,0.165,0.0,0.0,0.721067594919,-0.692864722408,0,68.3721084595,60.1701774597,101.332725525,7.05418348312
1646377990644973577,166,1646377990644973577,r1000913c5/base_front_laser_link,0,1646377990644973577,v/m1vw10zy74w/map,-8.68181493372,-2.38753284228,0.165,0.0,0.0,0.721984660521,-0.691909061923,0,66.9598464966,60.2108345032,101.368339539,7.0525021553
1646377990724039260,167,1646377990724039260,r1000913c5/base_front_laser_link,0,1646377990724039260,v/m1vw10zy74w/map,-8.68083010638,-2.36521194338,0.165,0.0,0.0,0.721947407671,-0.69194793197,0,65.8840103149,60.2446022034,101.379493713,7.04496479034
1646377990801806454,168,1646377990801806454,r1000913c5/base_front_laser_link,0,1646377990801806454,v/m1vw10zy74w/map,-8.67985244505,-2.34273421245,0.165,0.0,0.0,0.721922271645,-0.691974156817,0,65.0019760132,60.2727508545,101.37322998,7.03349304199
1646377990881934365,169,1646377990881934365,r1000913c5/base_front_laser_link,0,1646377990881934365,v/m1vw10zy74w/map,-8.67908543295,-2.3198280033,0.165,0.0,0.0,0.722137606995,-0.691749431921,0,64.0040893555,60.2947006226,101.35017395,7.01848983765
1646377991038215263,170,1646377991038215263,r1000913c5/base_front_laser_link,0,1646377991038215263,v/m1vw10zy74w/map,-8.6799216082,-2.26944621518,0.165,0.0,0.0,0.722072968631,-0.691816903503,0,63.1629142761,60.3114738464,101.315238953,7.00125360489
1646377991197015106,171,1646377991197015106,r1000913c5/base_front_laser_link,0,1646377991197015106,v/m1vw10zy74w/map,-8.67797216607,-2.22382649485,0.165,0.0,0.0,0.722077627218,-0.691812041144,0,55.1120529175,60.2812461853,101.257247925,6.99200057983
1646377991353829877,172,1646377991353829877,r1000913c5/base_front_laser_link,0,1646377991353829877,v/m1vw10zy74w/map,-8.67606939266,-2.17938799801,0.165,0.0,0.0,0.722078013905,-0.69181163754,0,60.4289855957,60.2821006775,101.197059631,6.97165441513
1646377991669092836,173,1646377991669092836,r1000913c5/base_front_laser_link,0,1646377991669092836,v/m1vw10zy74w/map,-8.6781118084,-2.10344331421,0.165,0.0,0.0,0.723353872506,-0.690477497918,0,72.0342407227,60.3496398926,101.374649048,7.00833559036
1646377991826770522,174,1646377991826770522,r1000913c5/base_front_laser_link,0,1646377991826770522,v/m1vw10zy74w/map,-8.67874114067,-2.05710513338,0.165,0.0,0.0,0.723843670745,-0.689964013788,0,71.2950057983,60.4121856689,101.523124695,7.03697872162
1646377991904060180,175,1646377991904060180,r1000913c5/base_front_laser_link,0,1646377991904060180,v/m1vw10zy74w/map,-8.67259279433,-2.03789648259,0.165,0.0,0.0,0.723912235061,-0.689892075566,0,71.8861160278,60.4773788452,101.687210083,7.06994485855
1646377992140783155,176,1646377992140783155,r1000913c5/base_front_laser_link,0,1646377992140783155,v/m1vw10zy74w/map,-8.66928447671,-1.96930418031,0.165,0.0,0.0,0.72390021158,-0.689904691732,0,77.4885559082,60.5734863281,102.068031311,7.16484689713
1646377992298099283,177,1646377992298099283,r1000913c5/base_front_laser_link,0,1646377992298099283,v/m1vw10zy74w/map,-8.66855163855,-1.93648491596,0.165,0.0,0.0,0.723948491196,-0.689854029557,0,73.7407531738,60.6474609375,102.284729004,7.21242237091
1646377992534980429,178,1646377992534980429,r1000913c5/base_front_laser_link,0,1646377992534980429,v/m1vw10zy74w/map,-8.66570374443,-1.87216079654,0.165,0.0,0.0,0.724185683132,-0.689605029235,0,72.0693435669,60.7112693787,102.43914032,7.24262475967
1646377992770364701,179,1646377992770364701,r1000913c5/base_front_laser_link,0,1646377992770364701,v/m1vw10zy74w/map,-8.66715210222,-1.80274373142,0.165,0.0,0.0,0.723443390024,-0.690383705942,0,71.8355178833,60.7730712891,102.582481384,7.26980495453
1646377992927177140,180,1646377992927177140,r1000913c5/base_front_laser_link,0,1646377992927177140,v/m1vw10zy74w/map,-8.66507684761,-1.75804936687,0.165,0.0,0.0,0.723460573316,-0.690365699363,0,74.2350616455,60.8474464417,102.802383423,7.31831216812
1646377993085035015,181,1646377993085035015,r1000913c5/base_front_laser_link,0,1646377993085035015,v/m1vw10zy74w/map,-8.66297973185,-1.71309575796,0.165,0.0,0.0,0.723470001961,-0.690355818591,0,72.1076278687,60.9093170166,102.946243286,7.34564161301
1646377993321059098,182,1646377993321059098,r1000913c5/base_front_laser_link,0,1646377993321059098,v/m1vw10zy74w/map,-8.660478628,-1.66038255291,0.165,0.0,0.0,0.723145893712,-0.690695313729,0,72.9090270996,60.9748878479,103.111724854,7.37894487381
1646377993478079483,183,1646377993478079483,r1000913c5/base_front_laser_link,0,1646377993478079483,v/m1vw10zy74w/map,-8.65842380513,-1.61608009311,0.165,0.0,0.0,0.723123787301,-0.690718458013,0,73.1996459961,61.0413284302,103.282539368,7.41373682022
1646377993714082480,184,1646377993714082480,r1000913c5/base_front_laser_link,0,1646377993714082480,v/m1vw10zy74w/map,-8.65787291872,-1.54077044714,0.165,0.0,0.0,0.723931773815,-0.68987157273,0,71.309425354,61.0968284607,103.392845154,7.43200445175
1646377993872029847,185,1646377993872029847,r1000913c5/base_front_laser_link,0,1646377993872029847,v/m1vw10zy74w/map,-8.65564802135,-1.49565731972,0.165,0.0,0.0,0.723876760442,-0.689929297603,0,70.0574798584,61.1450042725,103.46787262,7.44095468521
1646377994029090803,186,1646377994029090803,r1000913c5/base_front_laser_link,0,1646377994029090803,v/m1vw10zy74w/map,-8.655273867,-1.45864914748,0.165,0.0,0.0,0.725370361028,-0.688358801311,0,70.4187240601,61.1945991516,103.550140381,7.45184755325
1646377994187268987,187,1646377994187268987,r1000913c5/base_front_laser_link,0,1646377994187268987,v/m1vw10zy74w/map,-8.6533659071,-1.41632426268,0.165,0.0,0.0,0.725505962572,-0.688215880573,0,69.0157623291,61.2361984253,103.597465515,7.45375442505
1646377994423878408,188,1646377994423878408,r1000913c5/base_front_laser_link,0,1646377994423878408,v/m1vw10zy74w/map,-8.64851360268,-1.34505741359,0.165,0.0,0.0,0.723854878624,-0.689952255372,0,68.4672241211,61.2744598389,103.63192749,7.45248889923
1646377994581170743,189,1646377994581170743,r1000913c5/base_front_laser_link,0,1646377994581170743,v/m1vw10zy74w/map,-8.6440086263,-1.29761105709,0.165,0.0,0.0,0.723788061026,-0.690022349433,0,65.3240280151,61.2957725525,103.611427307,7.4385509491
1646377994739163736,190,1646377994739163736,r1000913c5/base_front_laser_link,0,1646377994739163736,v/m1vw10zy74w/map,-8.64186243926,-1.2521049885,0.165,0.0,0.0,0.723820345519,-0.689988483536,0,65.7453155518,61.3190689087,103.596862793,7.42593240738
1646377994974135720,191,1646377994974135720,r1000913c5/base_front_laser_link,0,1646377994974135720,v/m1vw10zy74w/map,-8.64545127867,-1.20563770076,0.165,0.0,0.0,0.725052747398,-0.688693337771,0,61.3409042358,61.3191833496,103.538581848,7.40646743774
1646377995131140975,192,1646377995131140975,r1000913c5/base_front_laser_link,0,1646377995131140975,v/m1vw10zy74w/map,-8.64319511646,-1.16081815838,0.165,0.0,0.0,0.725109708064,-0.688633364913,0,63.6850166321,61.3314399719,103.498794556,7.38911724091
1646377995211241949,193,1646377995211241949,r1000913c5/base_front_laser_link,0,1646377995211241949,v/m1vw10zy74w/map,-8.64200967582,-1.13803967631,0.165,0.0,0.0,0.725099804658,-0.688643792744,0,63.5565071106,61.3429107666,103.457954407,7.37168073654
1646377995367356669,194,1646377995367356669,r1000913c5/base_front_laser_link,0,1646377995367356669,v/m1vw10zy74w/map,-8.63942440696,-1.0848520084,0.165,0.0,0.0,0.724045283778,-0.689752438951,0,65.1128692627,61.3622436523,103.435081482,7.35761165619
1646377995525385147,195,1646377995525385147,r1000913c5/base_front_laser_link,0,1646377995525385147,v/m1vw10zy74w/map,-8.63723950009,-1.03978954453,0.165,0.0,0.0,0.72404880772,-0.689748739788,0,60.2113647461,61.3563728333,103.373916626,7.33918237686
1646377995603066021,196,1646377995603066021,r1000913c5/base_front_laser_link,0,1646377995603066021,v/m1vw10zy74w/map,-8.63614066228,-1.01746863233,0.165,0.0,0.0,0.724032675251,-0.689765674102,0,64.1599197388,61.3706016541,103.340080261,7.32316064835
1646377995682049256,197,1646377995682049256,r1000913c5/base_front_laser_link,0,1646377995682049256,v/m1vw10zy74w/map,-8.63502851694,-0.994761488579,0.165,0.0,0.0,0.724021096077,-0.689777828315,0,59.1181373596,61.3592262268,103.278137207,7.30630397797
1646377995918505209,198,1646377995918505209,r1000913c5/base_front_laser_link,0,1646377995918505209,v/m1vw10zy74w/map,-8.62740473103,-0.933772606246,0.165,0.0,0.0,0.724620272546,-0.689148358929,0,61.2814216614,61.358833313,103.222335815,7.28783226013
1646377996076297734,199,1646377996076297734,r1000913c5/base_front_laser_link,0,1646377996076297734,v/m1vw10zy74w/map,-8.6251637496,-0.889628213522,0.165,0.0,0.0,0.724594085243,-0.6891758931,0,60.8930892944,61.3565063477,103.165222168,7.26957273483
1646377996155185601,200,1646377996155185601,r1000913c5/base_front_laser_link,0,1646377996155185601,v/m1vw10zy74w/map,-8.62381483021,-0.857268708071,0.165,0.0,0.0,0.722533336476,-0.69133608157,0,59.9376716614,61.3494491577,103.105644226,7.25206661224
1646377998988438811,201,1646377998988438811,r1000913c5/base_front_laser_link,0,1646377998988438811,v/m1vw10zy74w/map,-8.61510736856,-0.74487726673,0.165,0.0,0.0,0.718785179232,-0.69523223898,0,60.7800559998,61.3466300964,103.048973083,7.23411512375
1646377999381386395,202,1646377999381386395,r1000913c5/base_front_laser_link,0,1646377999381386395,v/m1vw10zy74w/map,-8.60087569493,-0.788816848984,0.165,0.0,0.0,0.703061991414,-0.71112856519,0,59.9240875244,61.3396224976,102.990257263,7.21687746048
1646377999618371437,203,1646377999618371437,r1000913c5/base_front_laser_link,0,1646377999618371437,v/m1vw10zy74w/map,-8.57755162944,-0.823486597569,0.165,0.0,0.0,0.679391175903,-0.733776280691,0,56.9883003235,61.3182907104,102.934860229,7.20552349091
1646377999776331637,204,1646377999776331637,r1000913c5/base_front_laser_link,0,1646377999776331637,v/m1vw10zy74w/map,-8.5572373686,-0.848645818608,0.165,0.0,0.0,0.659715463232,-0.751515473941,0,60.043346405,61.3120727539,102.877250671,7.18839263916
1646377999855373647,205,1646377999855373647,r1000913c5/base_front_laser_link,0,1646377999855373647,v/m1vw10zy74w/map,-8.54499066161,-0.861488323633,0.165,0.0,0.0,0.648050885161,-0.761597039281,0,56.5942611694,61.2891693115,102.824272156,7.17836809158
1646377999933429761,206,1646377999933429761,r1000913c5/base_front_laser_link,0,1646377999933429761,v/m1vw10zy74w/map,-8.53057569327,-0.876126784737,0.165,0.0,0.0,0.634579454192,-0.772857630044,0,59.5033988953,61.280544281,102.766540527,7.16199922562
1646378000170426871,207,1646378000170426871,r1000913c5/base_front_laser_link,0,1646378000170426871,v/m1vw10zy74w/map,-8.47474509175,-0.915041172114,0.165,0.0,0.0,0.583686316182,-0.811979238837,0,56.7783355713,61.2588996887,102.713386536,7.1514954567
1646378000248405070,208,1646378000248405070,r1000913c5/base_front_laser_link,0,1646378000248405070,v/m1vw10zy74w/map,-8.45216547229,-0.926434078647,0.165,0.0,0.0,0.562296320413,-0.82693581858,0,54.4489173889,61.2263145447,102.675765991,7.14981794357
1646378000405403020,209,1646378000405403020,r1000913c5/base_front_laser_link,0,1646378000405403020,v/m1vw10zy74w/map,-8.4012976947,-0.945987019313,0.165,0.0,0.0,0.513589898772,-0.858035789393,0,57.0241622925,61.2063026428,102.622055054,7.1385846138
1646378000485080519,210,1646378000485080519,r1000913c5/base_front_laser_link,0,1646378000485080519,v/m1vw10zy74w/map,-8.37593783261,-0.940214578764,0.165,0.0,0.0,0.487084692278,-0.873354740382,0,55.191192627,61.1777954102,102.578590393,7.13359689713
1646378000720267939,211,1646378000720267939,r1000913c5/base_front_laser_link,0,1646378000720267939,v/m1vw10zy74w/map,-8.28102852553,-0.942875218912,0.165,0.0,0.0,0.393284156888,-0.919416973925,0,62.5961380005,61.1844863892,102.536506653,7.11733913422
1646378000799383083,212,1646378000799383083,r1000913c5/base_front_laser_link,0,1646378000799383083,v/m1vw10zy74w/map,-8.24901678965,-0.939983279668,0.165,0.0,0.0,0.361156470803,-0.932505229796,0,57.4127082825,61.1667785645,102.48248291,7.10523462296
1646378001036369947,213,1646378001036369947,r1000913c5/base_front_laser_link,0,1646378001036369947,v/m1vw10zy74w/map,-8.15121132512,-0.929350832985,0.165,0.0,0.0,0.264522969696,-0.96437938515,0,53.137714386,61.1292610168,102.458518982,7.10975313187
1646378001114537379,214,1646378001114537379,r1000913c5/base_front_laser_link,0,1646378001114537379,v/m1vw10zy74w/map,-8.11529227453,-0.948827870233,0.165,0.0,0.0,0.232227794948,-0.972661426836,0,55.9622955322,61.1052284241,102.410835266,7.10186958313
1646378001193516423,215,1646378001193516423,r1000913c5/base_front_laser_link,0,1646378001193516423,v/m1vw10zy74w/map,-8.08207084183,-0.944789847409,0.165,0.0,0.0,-0.202532575127,0.979275526097,0,54.8505630493,61.0762710571,102.370582581,7.09810400009
1646378001272471729,216,1646378001272471729,r1000913c5/base_front_laser_link,0,1646378001272471729,v/m1vw10zy74w/map,-8.04633840972,-0.915280065556,0.165,0.0,0.0,-0.177219430049,0.984171363947,0,54.7489204407,61.0471115112,102.331115723,7.09466838837
1646378001429459635,217,1646378001429459635,r1000913c5/base_front_laser_link,0,1646378001429459635,v/m1vw10zy74w/map,-7.98195538894,-0.890934952209,0.165,0.0,0.0,-0.131487437372,0.991317836929,0,55.5769844055,61.0220184326,102.285995483,7.08799171448
1646378001508404575,218,1646378001508404575,r1000913c5/base_front_laser_link,0,1646378001508404575,v/m1vw10zy74w/map,-7.95007573753,-0.883272818727,0.165,0.0,0.0,-0.109844735807,0.993948758244,0,57.7512702942,61.0070838928,102.232589722,7.07516908646
1646378001586354305,219,1646378001586354305,r1000913c5/base_front_laser_link,0,1646378001586354305,v/m1vw10zy74w/map,-7.9118878435,-0.877099023994,0.165,0.0,0.0,-0.0897033648062,0.995968526783,0,58.2108764648,60.9943733215,102.178916931,7.06151390076
1646378001665633682,220,1646378001665633682,r1000913c5/base_front_laser_link,0,1646378001665633682,v/m1vw10zy74w/map,-7.87887671285,-0.869238016507,0.165,0.0,0.0,-0.0706348454014,0.997502239905,0,54.7245140076,60.966003418,102.140182495,7.05805921555
1646378001822632774,221,1646378001822632774,r1000913c5/base_front_laser_link,0,1646378001822632774,v/m1vw10zy74w/map,-7.81146070141,-0.855520232432,0.165,0.0,0.0,-0.0388572749234,0.999244770907,0,59.6628570557,60.9601364136,102.087982178,7.0426158905
1646378001980436231,222,1646378001980436231,r1000913c5/base_front_laser_link,0,1646378001980436231,v/m1vw10zy74w/map,-7.74624579474,-0.834667170054,0.165,0.0,0.0,-0.0125341486297,0.999921444474,0,58.766998291,60.9502983093,102.035110474,7.02827072144
1646378002216567076,223,1646378002216567076,r1000913c5/base_front_laser_link,0,1646378002216567076,v/m1vw10zy74w/map,-7.64311174469,-0.808321945685,0.165,0.0,0.0,0.0174369209673,0.999847965336,0,52.3815460205,60.9120483398,102.01953125,7.03582715988
1646378002374515298,224,1646378002374515298,r1000913c5/base_front_laser_link,0,1646378002374515298,v/m1vw10zy74w/map,-7.57015316425,-0.794476644864,0.165,0.0,0.0,0.0313719888058,0.999507778018,0,51.9389915466,60.8721656799,102.008804321,7.045545578
1646378002688000332,225,1646378002688000332,r1000913c5/base_front_laser_link,0,1646378002688000332,v/m1vw10zy74w/map,-7.41856285224,-0.77107703976,0.165,0.0,0.0,0.0462222502371,0.998931180604,0,55.1521492004,60.8468551636,101.967338562,7.04016113281
1646378002845472825,226,1646378002845472825,r1000913c5/base_front_laser_link,0,1646378002845472825,v/m1vw10zy74w/map,-7.34120251999,-0.762446321465,0.165,0.0,0.0,0.0465584535761,0.998915567203,0,54.438911438,60.8186264038,101.930923462,7.03743171692
1646378003081574365,227,1646378003081574365,r1000913c5/base_front_laser_link,0,1646378003081574365,v/m1vw10zy74w/map,-7.21318041634,-0.754069776455,0.165,0.0,0.0,0.0418935907534,0.999122078154,0,56.9035720825,60.8014564514,101.88155365,7.02669906616
1646378003395590704,228,1646378003395590704,r1000913c5/base_front_laser_link,0,1646378003395590704,v/m1vw10zy74w/map,-7.03824449902,-0.739656579484,0.165,0.0,0.0,0.034077437679,0.999419195454,0,52.9527778625,60.7671813965,101.858474731,7.03043031693
1646378003631610961,229,1646378003631610961,r1000913c5/base_front_laser_link,0,1646378003631610961,v/m1vw10zy74w/map,-6.89575128325,-0.734549778032,0.165,0.0,0.0,0.0279002902526,0.999610711129,0,50.4352531433,60.7222595215,101.866462708,7.04806613922
1646378003867656547,230,1646378003867656547,r1000913c5/base_front_laser_link,0,1646378003867656547,v/m1vw10zy74w/map,-6.74722654841,-0.728906317961,0.165,0.0,0.0,0.0197522342774,0.99980490559,0,48.3774452209,60.6688194275,101.907249451,7.07947540283
1646378004025802806,231,1646378004025802806,r1000913c5/base_front_laser_link,0,1646378004025802806,v/m1vw10zy74w/map,-6.64455900274,-0.719068667974,0.165,0.0,0.0,0.0159990803359,0.999872006523,0,48.9962730408,60.6185073853,101.935249329,7.10558128357
1646378004340474802,232,1646378004340474802,r1000913c5/base_front_laser_link,0,1646378004340474802,v/m1vw10zy74w/map,-6.427880164,-0.717809092824,0.165,0.0,0.0,0.00664294801879,0.999977935377,0,51.3129768372,60.5785713196,101.92780304,7.11641073227
1646378004577903155,233,1646378004577903155,r1000913c5/base_front_laser_link,0,1646378004577903155,v/m1vw10zy74w/map,-6.30804486208,-0.734759714239,0.165,0.0,0.0,0.000428498384482,0.999999908195,0,48.1774635315,60.5255737305,101.967315674,7.14724826813
1646378004733633165,234,1646378004733633165,r1000913c5/base_front_laser_link,0,1646378004733633165,v/m1vw10zy74w/map,-6.14852530305,-0.718112334538,0.165,0.0,0.0,-0.000103081733743,0.999999994687,0,52.3221168518,60.4906654358,101.94669342,7.15200853348
1646378004812631103,235,1646378004812631103,r1000913c5/base_front_laser_link,0,1646378004812631103,v/m1vw10zy74w/map,-6.08868632965,-0.719154242117,0.165,0.0,0.0,-0.00146514276404,0.999998926678,0,51.1888237,60.4512519836,101.938491821,7.16241502762
1646378005127780071,236,1646378005127780071,r1000913c5/base_front_laser_link,0,1646378005127780071,v/m1vw10zy74w/map,-5.89563083576,-0.706603081062,0.165,0.0,0.0,-0.00747242579569,0.999972081037,0,51.8716888428,60.4150505066,101.921806335,7.16891908646
1646378005206494448,237,1646378005206494448,r1000913c5/base_front_laser_link,0,1646378005206494448,v/m1vw10zy74w/map,-5.83172810997,-0.706534775479,0.165,0.0,0.0,-0.00880181916248,0.999961263239,0,55.5031471252,60.3944129944,101.876991272,7.16086053848
1646378005520699369,238,1646378005520699369,r1000913c5/base_front_laser_link,0,1646378005520699369,v/m1vw10zy74w/map,-5.58470269482,-0.718080198059,0.165,0.0,0.0,-0.0165979520068,0.999862244506,0,56.070526123,60.3763198853,101.83013916,7.15127229691
