%time,field.header.seq,field.header.stamp,field.header.frame_id,field.pose.header.seq,field.pose.header.stamp,field.pose.header.frame_id,field.pose.pose.position.x,field.pose.pose.position.y,field.pose.pose.position.z,field.pose.pose.orientation.x,field.pose.pose.orientation.y,field.pose.pose.orientation.z,field.pose.pose.orientation.w,field.label,field.current_error,field.mean,field.threshold,field.std_dev
1646222516998815899,0,1646222516998815899,r1000913c5/base_front_laser_link,0,1646222516998815899,v/m1vw10zy74w/map,-2.88447626717,-2.57314083953,0.165,0.0,0.0,-0.701225289402,0.71293975447,0,62.2770423889,62.2770423889,nan,nan
1646222517235066555,1,1646222517235066555,r1000913c5/base_front_laser_link,0,1646222517235066555,v/m1vw10zy74w/map,-2.88700726144,-2.50551243878,0.165,0.0,0.0,-0.702906980651,0.711281784212,0,59.4574317932,60.8672370911,86.8485412598,1.99376726151
1646222517313994009,2,1646222517313994009,r1000913c5/base_front_laser_link,0,1646222517313994009,v/m1vw10zy74w/map,-2.88730823096,-2.48322795408,0.165,0.0,0.0,-0.702947774483,0.711241468384,0,59.8974342346,60.5439682007,85.0947418213,1.51692461967
1646222517392993970,3,1646222517392993970,r1000913c5/base_front_laser_link,0,1646222517392993970,v/m1vw10zy74w/map,-2.88758388259,-2.46092558437,0.165,0.0,0.0,-0.702962837994,0.711226580212,0,61.2699661255,60.7254676819,84.5974502563,1.29066157341
1646222517471004835,4,1646222517471004835,r1000913c5/base_front_laser_link,0,1646222517471004835,v/m1vw10zy74w/map,-2.87507549226,-2.42966779287,0.165,0.0,0.0,-0.701131314767,0.713032172804,0,60.5779495239,60.6959648132,84.0550384521,1.11969089508
1646222517627813366,5,1646222517627813366,r1000913c5/base_front_laser_link,0,1646222517627813366,v/m1vw10zy74w/map,-2.87549440893,-2.38375817916,0.165,0.0,0.0,-0.700997420852,0.713163807241,0,58.8367233276,60.386089325,84.1559524536,1.25662100315
1646222519284139765,6,1646222519284139765,r1000913c5/base_front_laser_link,0,1646222519284139765,v/m1vw10zy74w/map,-2.87324695089,-2.29673992883,0.165,0.0,0.0,-0.696261679526,0.717788042269,0,60.2344245911,60.3644256592,83.8101196289,1.14856410027
1646222519520083694,7,1646222519520083694,r1000913c5/base_front_laser_link,0,1646222519520083694,v/m1vw10zy74w/map,-2.86614296775,-2.29638927954,0.165,0.0,0.0,-0.68860207274,0.725139424813,0,61.650718689,60.5252113342,83.9948043823,1.1565297842
1646222519757109922,8,1646222519757109922,r1000913c5/base_front_laser_link,0,1646222519757109922,v/m1vw10zy74w/map,-2.84221180072,-2.29357408923,0.165,0.0,0.0,-0.662085328964,0.749428460342,0,58.450088501,60.2946434021,84.1468429565,1.28406608105
1646222519914239843,9,1646222519914239843,r1000913c5/base_front_laser_link,0,1646222519914239843,v/m1vw10zy74w/map,-2.82022558041,-2.28984243659,0.165,0.0,0.0,-0.63676345068,0.771059211655,0,58.2017669678,60.0853538513,84.2245254517,1.37972307205
1646222520150260795,10,1646222520150260795,r1000913c5/base_front_laser_link,0,1646222520150260795,v/m1vw10zy74w/map,-2.78368516897,-2.28112012168,0.165,0.0,0.0,-0.592490304825,0.8055775808,0,60.7417297363,60.1450233459,84.1164169312,1.32379698753
1646222520308210359,11,1646222520308210359,r1000913c5/base_front_laser_link,0,1646222520308210359,v/m1vw10zy74w/map,-2.76138867322,-2.27531750937,0.165,0.0,0.0,-0.564303194827,0.825567625521,0,56.6283798218,59.8519706726,84.7113189697,1.61978161335
1646222520622491244,12,1646222520622491244,r1000913c5/base_front_laser_link,0,1646222520622491244,v/m1vw10zy74w/map,-2.7171600696,-2.25509106004,0.165,0.0,0.0,-0.506139188215,0.862451808597,0,57.3827934265,59.6620330811,84.7479324341,1.69529891014
1646222520779365602,13,1646222520779365602,r1000913c5/base_front_laser_link,0,1646222520779365602,v/m1vw10zy74w/map,-2.6967345562,-2.24292272385,0.165,0.0,0.0,-0.475197264808,0.879879286902,0,58.1105117798,59.5512123108,84.5934448242,1.68074464798
1646222520858247067,14,1646222520858247067,r1000913c5/base_front_laser_link,0,1646222520858247067,v/m1vw10zy74w/map,-2.6884944934,-2.2439221329,0.165,0.0,0.0,-0.458706588942,0.888587792658,0,55.6219787598,59.2892608643,85.0226211548,1.91112053394
1646222521015337112,15,1646222521015337112,r1000913c5/base_front_laser_link,0,1646222521015337112,v/m1vw10zy74w/map,-2.66906706369,-2.22794095975,0.165,0.0,0.0,-0.426609945538,0.904435710467,0,58.4375801086,59.2360343933,84.8116989136,1.85855448246
1646222521173113359,16,1646222521173113359,r1000913c5/base_front_laser_link,0,1646222521173113359,v/m1vw10zy74w/map,-2.65025899618,-2.21116821245,0.165,0.0,0.0,-0.392804849585,0.91962185171,0,58.928817749,59.2179603577,84.6212005615,1.80107951164
1646222521330243796,17,1646222521330243796,r1000913c5/base_front_laser_link,0,1646222521330243796,v/m1vw10zy74w/map,-2.63378791275,-2.19608409664,0.165,0.0,0.0,-0.359897428102,0.932991876302,0,58.6208610535,59.1847877502,84.4436798096,1.75296247005
1646222521487319710,18,1646222521487319710,r1000913c5/base_front_laser_link,0,1646222521487319710,v/m1vw10zy74w/map,-2.61847021211,-2.17809916108,0.165,0.0,0.0,-0.32657741318,0.945170457219,0,55.6333274841,58.9978713989,84.6630249023,1.88838493824
1646222521645312748,19,1646222521645312748,r1000913c5/base_front_laser_link,0,1646222521645312748,v/m1vw10zy74w/map,-2.60468442136,-2.15597657245,0.165,0.0,0.0,-0.291725826542,0.956501982292,0,59.3281364441,59.0143852234,84.5328903198,1.83950197697
1646222521881565417,20,1646222521881565417,r1000913c5/base_front_laser_link,0,1646222521881565417,v/m1vw10zy74w/map,-2.58678824118,-2.12652302133,0.165,0.0,0.0,-0.2400509702,0.970760285398,0,55.2467002869,58.8349685669,84.7523117065,1.97244846821
1646222522038514794,21,1646222522038514794,r1000913c5/base_front_laser_link,0,1646222522038514794,v/m1vw10zy74w/map,-2.57629704111,-2.10717703525,0.165,0.0,0.0,-0.205505521619,0.978655956189,0,55.4536018372,58.6812705994,84.8477096558,2.05548048019
1646222522196339877,22,1646222522196339877,r1000913c5/base_front_laser_link,0,1646222522196339877,v/m1vw10zy74w/map,-2.56876486875,-2.07964107106,0.165,0.0,0.0,-0.170005990041,0.985443028972,0,55.2519874573,58.5321731567,84.9273529053,2.13172650337
1646222522433610607,23,1646222522433610607,r1000913c5/base_front_laser_link,0,1646222522433610607,v/m1vw10zy74w/map,-2.55850041728,-2.04739946789,0.165,0.0,0.0,-0.116703307935,0.993166822803,0,45.9536247253,58.00806427,87.9303894043,3.30744242668
1646222522590401030,24,1646222522590401030,r1000913c5/base_front_laser_link,0,1646222522590401030,v/m1vw10zy74w/map,-2.55396398844,-2.02447360958,0.165,0.0,0.0,-0.0817420234033,0.996653521345,0,49.1076087952,57.6520462036,88.7366714478,3.69487524033
1646222522827288378,25,1646222522827288378,r1000913c5/base_front_laser_link,0,1646222522827288378,v/m1vw10zy74w/map,-2.54896055811,-1.98458840151,0.165,0.0,0.0,-0.0283681183059,0.999597543946,0,51.8228416443,57.4278488159,88.8171539307,3.7964360714
1646222522985657888,26,1646222522985657888,r1000913c5/base_front_laser_link,0,1646222522985657888,v/m1vw10zy74w/map,-2.54902326411,-1.96028736732,0.165,0.0,0.0,0.00736371725434,0.999972887467,0,50.6742591858,57.1777153015,89.0069580078,3.94307994843
1646222523142406257,27,1646222523142406257,r1000913c5/base_front_laser_link,0,1646222523142406257,v/m1vw10zy74w/map,-2.54984115241,-1.93668103164,0.165,0.0,0.0,0.0426656554895,0.99908940633,0,48.5407714844,56.8692512512,89.4678955078,4.19954776764
1646222523379375083,28,1646222523379375083,r1000913c5/base_front_laser_link,0,1646222523379375083,v/m1vw10zy74w/map,-2.55538142063,-1.90342450023,0.165,0.0,0.0,0.0954991152013,0.995429514831,0,52.22473526,56.7090950012,89.3483886719,4.21309661865
1646222523537756289,29,1646222523537756289,r1000913c5/base_front_laser_link,0,1646222523537756289,v/m1vw10zy74w/map,-2.56323725814,-1.87680054818,0.165,0.0,0.0,0.13037484984,0.991464774225,0,51.5138702393,56.5359230042,89.2771987915,4.24709177017
1646222523773471956,30,1646222523773471956,r1000913c5/base_front_laser_link,0,1646222523773471956,v/m1vw10zy74w/map,-2.57290528408,-1.84054603515,0.165,0.0,0.0,0.182900105026,0.98313150269,0,51.526763916,56.3743362427,89.1889190674,4.27152633667
1646222523931382365,31,1646222523931382365,r1000913c5/base_front_laser_link,0,1646222523931382365,v/m1vw10zy74w/map,-2.58104116088,-1.82013326556,0.165,0.0,0.0,0.217016073,0.976168030648,0,54.0196418762,56.3007507324,88.9686508179,4.22263288498
1646222524089510009,32,1646222524089510009,r1000913c5/base_front_laser_link,0,1646222524089510009,v/m1vw10zy74w/map,-2.59190173424,-1.79356935091,0.165,0.0,0.0,0.252838990072,0.967508369524,0,52.6239051819,56.1893310547,88.8047103882,4.20512723923
1646222524168522158,33,1646222524168522158,r1000913c5/base_front_laser_link,0,1646222524168522158,v/m1vw10zy74w/map,-2.59794105294,-1.78339442613,0.165,0.0,0.0,0.269891466062,0.962890750058,0,52.2991676331,56.0749168396,88.6578826904,4.19432258606
1646222524247549739,34,1646222524247549739,r1000913c5/base_front_laser_link,0,1646222524247549739,v/m1vw10zy74w/map,-2.6042785766,-1.77343590001,0.165,0.0,0.0,0.286823170247,0.957983543183,0,51.526889801,55.9449729919,88.5542221069,4.20308303833
1646222524483621692,35,1646222524483621692,r1000913c5/base_front_laser_link,0,1646222524483621692,v/m1vw10zy74w/map,-2.6197242579,-1.74810986984,0.165,0.0,0.0,0.335604639069,0.942002933241,0,50.9734840393,55.8068771362,88.4808425903,4.2246556282
1646222524799399242,36,1646222524799399242,r1000913c5/base_front_laser_link,0,1646222524799399242,v/m1vw10zy74w/map,-2.65022751759,-1.71318892958,0.165,0.0,0.0,0.402069237371,0.915609266205,0,55.5317459106,55.7994384766,88.296875,4.16581201553
1646222525035525588,37,1646222525035525588,r1000913c5/base_front_laser_link,0,1646222525035525588,v/m1vw10zy74w/map,-2.67775775982,-1.68654547852,0.165,0.0,0.0,0.450615410726,0.89271818152,0,52.2116241455,55.7050247192,88.1554641724,4.15014600754
1646222526139402519,38,1646222526139402519,r1000913c5/base_front_laser_link,0,1646222526139402519,v/m1vw10zy74w/map,-2.7200983765,-1.54158697357,0.165,0.0,0.0,0.56099084315,0.827822006171,0,58.3757743835,55.7735023499,88.1258392334,4.11744451523
1646222526377225622,39,1646222526377225622,r1000913c5/base_front_laser_link,0,1646222526377225622,v/m1vw10zy74w/map,-2.72335590296,-1.51517682209,0.165,0.0,0.0,0.576205301952,0.817304992033,0,60.0027961731,55.8792381287,88.236114502,4.11895895004
1646222526455787205,40,1646222526455787205,r1000913c5/base_front_laser_link,0,1646222526455787205,v/m1vw10zy74w/map,-2.72444294418,-1.50535907649,0.165,0.0,0.0,0.581416008936,0.813606430993,0,57.8471450806,55.9272346497,88.1634597778,4.07874155045
1646222526614579560,41,1646222526614579560,r1000913c5/base_front_laser_link,0,1646222526614579560,v/m1vw10zy74w/map,-2.72653378999,-1.48295796313,0.165,0.0,0.0,0.592271873091,0.805738188462,0,59.3855400085,56.0095748901,88.2012176514,4.06388139725
1646222526928420344,42,1646222526928420344,r1000913c5/base_front_laser_link,0,1646222526928420344,v/m1vw10zy74w/map,-2.72967186686,-1.43742413957,0.165,0.0,0.0,0.611858026653,0.790967606935,0,61.698261261,56.1418685913,88.4654464722,4.107858181
1646222527244430892,43,1646222527244430892,r1000913c5/base_front_laser_link,0,1646222527244430892,v/m1vw10zy74w/map,-2.73233903859,-1.37487682945,0.165,0.0,0.0,0.631521211333,0.775358600673,0,65.4531402588,56.3534889221,89.2404098511,4.29563951492
1646222527401836378,44,1646222527401836378,r1000913c5/base_front_laser_link,0,1646222527401836378,v/m1vw10zy74w/map,-2.73186278646,-1.33650059321,0.165,0.0,0.0,0.640115755772,0.768278477645,0,66.3190078735,56.5749473572,90.0716323853,4.49889612198
1646222527796569003,45,1646222527796569003,r1000913c5/base_front_laser_link,0,1646222527796569003,v/m1vw10zy74w/map,-2.73350590708,-1.23655397412,0.165,0.0,0.0,0.660039374269,0.751231006026,0,65.9003295898,56.777671814,90.7464599609,4.65626239777
1646222527875503814,46,1646222527875503814,r1000913c5/base_front_laser_link,0,1646222527875503814,v/m1vw10zy74w/map,-2.73476987788,-1.21439711266,0.165,0.0,0.0,0.664505819994,0.74728308906,0,65.1670761108,56.9561691284,91.2517089844,4.76518106461
1646222528190645089,47,1646222528190645089,r1000913c5/base_front_laser_link,0,1646222528190645089,v/m1vw10zy74w/map,-2.74669903032,-1.11737166918,0.165,0.0,0.0,0.689427217616,0.724354962439,0,66.3091506958,57.1510238647,91.8621292114,4.90370178223
1646222528348496933,48,1646222528348496933,r1000913c5/base_front_laser_link,0,1646222528348496933,v/m1vw10zy74w/map,-2.76240639854,-1.060355595,0.165,0.0,0.0,0.705804943084,0.708406226905,0,64.016204834,57.2911300659,92.1425476074,4.95047235489
1646222528743385856,49,1646222528743385856,r1000913c5/base_front_laser_link,0,1646222528743385856,v/m1vw10zy74w/map,-2.82816730516,-0.921794291306,0.165,0.0,0.0,-0.761458818119,-0.648213289211,0,64.7183914185,57.4396743774,92.4727325439,5.01101922989
1646222528899611190,50,1646222528899611190,r1000913c5/base_front_laser_link,0,1646222528899611190,v/m1vw10zy74w/map,-2.86833895715,-0.867665273814,0.165,0.0,0.0,-0.788540608284,-0.614982690071,0,64.674079895,57.5815238953,92.7706298828,5.06303453445
1646222529213704146,51,1646222529213704146,r1000913c5/base_front_laser_link,0,1646222529213704146,v/m1vw10zy74w/map,-2.96220538033,-0.758964077382,0.165,0.0,0.0,-0.836467557718,-0.548016445816,0,70.4093475342,57.828212738,93.7864532471,5.31941413879
1646222529371843213,52,1646222529371843213,r1000913c5/base_front_laser_link,0,1646222529371843213,v/m1vw10zy74w/map,-3.05460594849,-0.774459197519,0.165,0.0,0.0,-0.852477887308,-0.522763284528,0,69.1725311279,58.0422592163,94.5232086182,5.49364995956
1646222529528606998,53,1646222529528606998,r1000913c5/base_front_laser_link,0,1646222529528606998,v/m1vw10zy74w/map,-3.10448634447,-0.718069079049,0.165,0.0,0.0,-0.864811453433,-0.502096753636,0,64.1036224365,58.1545066833,94.6657180786,5.50373744965
1646222529686724458,54,1646222529686724458,r1000913c5/base_front_laser_link,0,1646222529686724458,v/m1vw10zy74w/map,-3.16208876367,-0.667775219444,0.165,0.0,0.0,-0.881202627403,-0.472738753921,0,69.8781204224,58.3676605225,95.3988800049,5.67707204819
1646222529765875353,55,1646222529765875353,r1000913c5/base_front_laser_link,0,1646222529765875353,v/m1vw10zy74w/map,-3.20291198409,-0.647105494431,0.165,0.0,0.0,-0.892484717321,-0.451077631177,0,70.9872817993,58.5930137634,96.2107009888,5.87256288528
1646222529844595781,56,1646222529844595781,r1000913c5/base_front_laser_link,0,1646222529844595781,v/m1vw10zy74w/map,-3.24014386957,-0.625401375705,0.165,0.0,0.0,-0.90303164008,-0.429574041365,0,70.0515213013,58.7940406799,96.837638855,6.01453399658
1646222530002641334,57,1646222530002641334,r1000913c5/base_front_laser_link,0,1646222530002641334,v/m1vw10zy74w/map,-3.32249168301,-0.588621533761,0.165,0.0,0.0,-0.924569698683,-0.381012955524,0,73.7662124634,59.0521812439,97.8841781616,6.27733278275
1646222530081557784,58,1646222530081557784,r1000913c5/base_front_laser_link,0,1646222530081557784,v/m1vw10zy74w/map,-3.36426906874,-0.571743529228,0.165,0.0,0.0,-0.93444515674,-0.356107075252,0,73.3843154907,59.2950973511,98.7851791382,6.49669456482
1646222530238813272,59,1646222530238813272,r1000913c5/base_front_laser_link,0,1646222530238813272,v/m1vw10zy74w/map,-3.45730633057,-0.550655851849,0.165,0.0,0.0,-0.954778141145,-0.297319190756,0,73.7028198242,59.5352249146,99.6489639282,6.70457839966
1646222530317908880,60,1646222530317908880,r1000913c5/base_front_laser_link,0,1646222530317908880,v/m1vw10zy74w/map,-3.5072426637,-0.545275902928,0.165,0.0,0.0,-0.964486040472,-0.264133825425,0,70.7244110107,59.7186546326,100.121879578,6.80107402802
1646222530633737350,61,1646222530633737350,r1000913c5/base_front_laser_link,0,1646222530633737350,v/m1vw10zy74w/map,-3.70957277738,-0.550891030462,0.165,0.0,0.0,-0.991400346264,-0.130863873656,0,72.3154373169,59.9218292236,100.718490601,6.93221998215
1646222530948045909,62,1646222530948045909,r1000913c5/base_front_laser_link,0,1646222530948045909,v/m1vw10zy74w/map,-3.9069412711,-0.58798566953,0.165,0.0,0.0,-0.99940509862,-0.0344883872124,0,72.6222686768,60.12342453,101.302856445,7.05980968475
1646222531183967297,63,1646222531183967297,r1000913c5/base_front_laser_link,0,1646222531183967297,v/m1vw10zy74w/map,-4.06770781374,-0.611520092898,0.165,0.0,0.0,-0.999879627558,0.0155154888838,0,70.9782333374,60.2930297852,101.694374084,7.13378143311
1646222531577500003,64,1646222531577500003,r1000913c5/base_front_laser_link,0,1646222531577500003,v/m1vw10zy74w/map,-4.32084802805,-0.659032530605,0.165,0.0,0.0,-0.998749561062,0.0499931423166,0,69.3392105103,60.4322013855,101.930847168,7.16621541977
1646222531735729085,65,1646222531735729085,r1000913c5/base_front_laser_link,0,1646222531735729085,v/m1vw10zy74w/map,-4.42349229639,-0.673887791938,0.165,0.0,0.0,-0.998836807944,0.0482185762484,0,70.3668060303,60.5827255249,102.228507996,7.215259552
1646222532207958178,66,1646222532207958178,r1000913c5/base_front_laser_link,0,1646222532207958178,v/m1vw10zy74w/map,-4.76223442527,-0.718401559729,0.165,0.0,0.0,-0.999119443319,0.0419563818965,0,67.3018264771,60.6830101013,102.304878235,7.20728826523
1646222532443985306,67,1646222532443985306,r1000913c5/base_front_laser_link,0,1646222532443985306,v/m1vw10zy74w/map,-4.94116783043,-0.734003338805,0.165,0.0,0.0,-0.999261001681,0.0384376185333,0,67.3966293335,60.7817420959,102.380187988,7.19948196411
1646222532601961916,68,1646222532601961916,r1000913c5/base_front_laser_link,0,1646222532601961916,v/m1vw10zy74w/map,-5.07164039232,-0.745014428052,0.165,0.0,0.0,-0.999466284769,0.0326671946974,0,67.1298446655,60.8737411499,102.435028076,7.18709468842
1646222532839379414,69,1646222532839379414,r1000913c5/base_front_laser_link,0,1646222532839379414,v/m1vw10zy74w/map,-5.22779356642,-0.665616415269,0.165,0.0,0.0,-0.999413262003,0.0342510106797,0,66.2903213501,60.9511222839,102.443534851,7.16413640976
1646222532996699679,70,1646222532996699679,r1000913c5/base_front_laser_link,0,1646222532996699679,v/m1vw10zy74w/map,-5.36791909888,-0.688842978092,0.165,0.0,0.0,-0.999102925818,0.0423478880351,0,66.8171234131,61.0337409973,102.4740448,7.14676761627
1646222533154057234,71,1646222533154057234,r1000913c5/base_front_laser_link,0,1646222533154057234,v/m1vw10zy74w/map,-5.50598170225,-0.714476765538,0.165,0.0,0.0,-0.998887797445,0.0471504837164,0,67.4834899902,61.1233215332,102.533882141,7.13685321808
1646222533311032406,72,1646222533311032406,r1000913c5/base_front_laser_link,0,1646222533311032406,v/m1vw10zy74w/map,-5.64677317164,-0.72405841854,0.165,0.0,0.0,-0.999022133401,0.0442128598461,0,73.4549102783,61.2922477722,102.990020752,7.23259067535
1646222533547753698,73,1646222533547753698,r1000913c5/base_front_laser_link,0,1646222533547753698,v/m1vw10zy74w/map,-5.86702051678,-0.729396963314,0.165,0.0,0.0,-0.999476097163,0.0323655866592,0,70.3401184082,61.414516449,103.192955017,7.25948047638
1646222533704849401,74,1646222533704849401,r1000913c5/base_front_laser_link,0,1646222533704849401,v/m1vw10zy74w/map,-6.00529246334,-0.734603142868,0.165,0.0,0.0,-0.999705295796,0.0242759460575,0,71.3734588623,61.5473022461,103.451477051,7.30139064789
1646222533940901062,75,1646222533940901062,r1000913c5/base_front_laser_link,0,1646222533940901062,v/m1vw10zy74w/map,-6.23161771438,-0.739833097587,0.165,0.0,0.0,-0.999872158863,0.0159895569394,0,68.8622360229,61.6435508728,103.546333313,7.30092859268
1646222534098925114,76,1646222534098925114,r1000913c5/base_front_laser_link,0,1646222534098925114,v/m1vw10zy74w/map,-6.38089451262,-0.735878565636,0.165,0.0,0.0,-0.999940939676,0.0108681718971,0,70.8562240601,61.7631950378,103.748191833,7.32833147049
1646222534335987492,77,1646222534335987492,r1000913c5/base_front_laser_link,0,1646222534335987492,v/m1vw10zy74w/map,-6.6161698694,-0.743138439818,0.165,0.0,0.0,-0.999953929309,0.00959891974243,0,68.481803894,61.8493309021,103.810005188,7.3202252388
1646222534492913343,78,1646222534492913343,r1000913c5/base_front_laser_link,0,1646222534492913343,v/m1vw10zy74w/map,-6.7807352311,-0.742363525911,0.165,0.0,0.0,-0.999966944676,0.00813077832698,0,70.1601638794,61.9545326233,103.953559875,7.3330078125
1646222534651049854,79,1646222534651049854,r1000913c5/base_front_laser_link,0,1646222534651049854,v/m1vw10zy74w/map,-6.93399343172,-0.741872857412,0.165,0.0,0.0,-0.999979479852,0.00640623716836,0,64.8718338013,61.9909973145,103.87223053,7.29374504089
1646222534808920895,80,1646222534808920895,r1000913c5/base_front_laser_link,0,1646222534808920895,v/m1vw10zy74w/map,-7.10439848488,-0.744472241888,0.165,0.0,0.0,-0.999992377299,0.00390452870317,0,68.8671569824,62.0758895874,103.940406799,7.28817224503
1646222535046928990,81,1646222535046928990,r1000913c5/base_front_laser_link,0,1646222535046928990,v/m1vw10zy74w/map,-7.3675549543,-0.740095266956,0.165,0.0,0.0,-0.999999760171,-0.000692574028996,0,66.9067459106,62.134803772,103.922790527,7.26266384125
1646222535203129725,82,1646222535203129725,r1000913c5/base_front_laser_link,0,1646222535203129725,v/m1vw10zy74w/map,-7.53587736081,-0.736996256237,0.165,0.0,0.0,-0.999998949867,-0.0014492290068,0,64.4241943359,62.1623840332,103.830230713,7.22261619568
1646222535439946285,83,1646222535439946285,r1000913c5/base_front_laser_link,0,1646222535439946285,v/m1vw10zy74w/map,-7.79160105766,-0.734980083359,0.165,0.0,0.0,-0.999998441485,-0.00176551052065,0,61.0231590271,62.1488227844,103.688972473,7.18005084991
1646222535598095789,84,1646222535598095789,r1000913c5/base_front_laser_link,0,1646222535598095789,v/m1vw10zy74w/map,-7.97165026247,-0.733922085348,0.165,0.0,0.0,-0.999992997691,-0.00374226790614,0,65.8497467041,62.192363739,103.637756348,7.14846420288
1646222535756100409,85,1646222535756100409,r1000913c5/base_front_laser_link,0,1646222535756100409,v/m1vw10zy74w/map,-8.1483588398,-0.72821534869,0.165,0.0,0.0,-0.999991354035,-0.00415834768222,0,69.64503479,62.2790222168,103.733779907,7.15158700943
1646222535913082055,86,1646222535913082055,r1000913c5/base_front_laser_link,0,1646222535913082055,v/m1vw10zy74w/map,-8.32371875152,-0.727311248412,0.165,0.0,0.0,-0.999996207357,-0.00275413706837,0,70.2462615967,62.3706016541,103.853637695,7.16101312637
1646222536150118125,87,1646222536150118125,r1000913c5/base_front_laser_link,0,1646222536150118125,v/m1vw10zy74w/map,-8.60753487309,-0.731263147423,0.165,0.0,0.0,-0.999999996783,8.02128685813e-05,0,66.3844070435,62.4162101746,103.813964844,7.132584095
1646222536229175034,88,1646222536229175034,r1000913c5/base_front_laser_link,0,1646222536229175034,v/m1vw10zy74w/map,-8.70408605344,-0.731905354181,0.165,0.0,0.0,-0.999999842472,0.000561297716168,0,60.5490875244,62.3952331543,103.679344177,7.09470319748
1646222536387197550,89,1646222536387197550,r1000913c5/base_front_laser_link,0,1646222536387197550,v/m1vw10zy74w/map,-8.89113588232,-0.735235116217,0.165,0.0,0.0,-0.999999831967,-0.000579711383997,0,61.2509040833,62.3825187683,103.549812317,7.05576372147
1646222536623561217,90,1646222536623561217,r1000913c5/base_front_laser_link,0,1646222536623561217,v/m1vw10zy74w/map,-9.18392821807,-0.730196309899,0.165,0.0,0.0,-0.999995557258,-0.00298084959787,0,61.4838600159,62.3726425171,103.423904419,7.0170879364
1646222536781797361,91,1646222536781797361,r1000913c5/base_front_laser_link,0,1646222536781797361,v/m1vw10zy74w/map,-9.38149786033,-0.724552995647,0.165,0.0,0.0,-0.999995083438,-0.00313577748346,0,60.8608474731,62.3562088013,103.296829224,6.98020601273
1646222537019200480,92,1646222537019200480,r1000913c5/base_front_laser_link,0,1646222537019200480,v/m1vw10zy74w/map,-9.68222885429,-0.714617212319,0.165,0.0,0.0,-0.999999569982,-0.000927380793021,0,57.7200279236,62.3063583374,103.182739258,6.95879268646
1646222537175554819,93,1646222537175554819,r1000913c5/base_front_laser_link,0,1646222537175554819,v/m1vw10zy74w/map,-9.90951551827,-0.715278007281,0.165,0.0,0.0,-0.999999813495,0.000610744899319,0,61.3204612732,62.2958717346,103.061943054,6.92202568054
1646222537412377844,94,1646222537412377844,r1000913c5/base_front_laser_link,0,1646222537412377844,v/m1vw10zy74w/map,-10.2234336128,-0.705819343612,0.165,0.0,0.0,-0.999990417624,-0.00437774609659,0,60.5603370667,62.2776031494,102.939834595,6.88740968704
1646222537649195834,95,1646222537649195834,r1000913c5/base_front_laser_link,0,1646222537649195834,v/m1vw10zy74w/map,-10.5576888047,-0.728129428817,0.165,0.0,0.0,-0.99999525794,-0.00307962617907,0,60.2967910767,62.2569694519,102.819107056,6.85404682159
1646222537885242742,96,1646222537885242742,r1000913c5/base_front_laser_link,0,1646222537885242742,v/m1vw10zy74w/map,-10.9030006462,-0.713487130612,0.165,0.0,0.0,-0.999977064075,-0.00677283720333,0,58.2646636963,62.2158088684,102.706695557,6.83029413223
1646222538122243779,97,1646222538122243779,r1000913c5/base_front_laser_link,0,1646222538122243779,v/m1vw10zy74w/map,-11.2299269167,-0.711276620318,0.165,0.0,0.0,-0.999964012854,-0.00848369007603,0,58.7253379822,62.1801948547,102.592605591,6.80413675308
1646222538280325924,98,1646222538280325924,r1000913c5/base_front_laser_link,0,1646222538280325924,v/m1vw10zy74w/map,-11.4567291399,-0.705118506426,0.165,0.0,0.0,-0.999950239724,-0.00997587473006,0,55.2966957092,62.1106643677,102.524436951,6.80459260941
1646222538437068344,99,1646222538437068344,r1000913c5/base_front_laser_link,0,1646222538437068344,v/m1vw10zy74w/map,-11.6684658083,-0.693479351341,0.165,0.0,0.0,-0.999961028272,-0.00882847306134,0,60.9316749573,62.0988731384,102.412368774,6.77116537094
1646222538674312290,100,1646222538674312290,r1000913c5/base_front_laser_link,0,1646222538674312290,v/m1vw10zy74w/map,-12.0554913046,-0.676686326752,0.165,0.0,0.0,-0.999947117252,-0.0102840993798,0,58.076335907,62.059047699,102.306358337,6.74910354614
1646222538832580965,101,1646222538832580965,r1000913c5/base_front_laser_link,0,1646222538832580965,v/m1vw10zy74w/map,-12.3008979717,-0.681200690535,0.165,0.0,0.0,-0.999972255417,-0.00744905331521,0,59.6747169495,62.0356712341,102.19493866,6.71975708008
1646222538911265452,102,1646222538911265452,r1000913c5/base_front_laser_link,0,1646222538911265452,v/m1vw10zy74w/map,-12.4226341918,-0.677816613579,0.165,0.0,0.0,-0.999977641056,-0.00668710608245,0,59.5025253296,62.0110778809,102.085258484,6.69139289856
1646222539069378279,103,1646222539069378279,r1000913c5/base_front_laser_link,0,1646222539069378279,v/m1vw10zy74w/map,-12.6715574932,-0.666918043672,0.165,0.0,0.0,-0.999965334064,-0.00832650410306,0,56.3564224243,61.956703186,102.002334595,6.68187761307
1646222539226903736,104,1646222539226903736,r1000913c5/base_front_laser_link,0,1646222539226903736,v/m1vw10zy74w/map,-12.9078410067,-0.653231043907,0.165,0.0,0.0,-0.999936716906,-0.0112499859567,0,54.603603363,61.8866767883,101.951522827,6.68828201294
1646222539305340809,105,1646222539305340809,r1000913c5/base_front_laser_link,0,1646222539305340809,v/m1vw10zy74w/map,-13.0237386911,-0.65680974726,0.165,0.0,0.0,-0.999947352967,-0.0102611546631,0,52.8374710083,61.8013038635,101.943710327,6.71413564682
1646222539463160320,106,1646222539463160320,r1000913c5/base_front_laser_link,0,1646222539463160320,v/m1vw10zy74w/map,-13.2841984233,-0.64943027834,0.165,0.0,0.0,-0.99996323037,-0.00857542467125,0,55.1659927368,61.7392921448,101.878616333,6.71310710907
1646222539621217863,107,1646222539621217863,r1000913c5/base_front_laser_link,0,1646222539621217863,v/m1vw10zy74w/map,-13.5411675429,-0.640669275608,0.165,0.0,0.0,-0.999961590616,-0.00876454753681,0,53.7367362976,61.6651954651,101.84286499,6.72589063644
1646222539857532991,108,1646222539857532991,r1000913c5/base_front_laser_link,0,1646222539857532991,v/m1vw10zy74w/map,-13.8950179352,-0.640729336311,0.165,0.0,0.0,-0.999969603593,-0.00779691548109,0,61.5673065186,61.6642990112,101.74835968,6.69468641281
1646222540015378066,109,1646222540015378066,r1000913c5/base_front_laser_link,0,1646222540015378066,v/m1vw10zy74w/map,-14.0663951923,-0.65627885654,0.165,0.0,0.0,-0.999971277925,-0.00757913751594,0,61.948589325,61.6668815613,101.6587677,6.66396141052
1646222540252404919,110,1646222540252404919,r1000913c5/base_front_laser_link,0,1646222540252404919,v/m1vw10zy74w/map,-14.3035927642,-0.660000876446,0.165,0.0,0.0,-0.999983691431,-0.00571111821761,0,60.4391288757,61.6558227539,101.559692383,6.63462495804
1646222540409630115,111,1646222540409630115,r1000913c5/base_front_laser_link,0,1646222540409630115,v/m1vw10zy74w/map,-14.4223894995,-0.663377673144,0.165,0.0,0.0,-0.999991321483,-0.00416616841369,0,61.0683250427,61.6505737305,101.465286255,6.60490465164
1646222540568409452,112,1646222540568409452,r1000913c5/base_front_laser_link,0,1646222540568409452,v/m1vw10zy74w/map,-14.4959127014,-0.661400879295,0.165,0.0,0.0,-0.999990330375,-0.00439763082073,0,60.2729721069,61.6383857727,101.368270874,6.57662963867
1646222540725463087,113,1646222540725463087,r1000913c5/base_front_laser_link,0,1646222540725463087,v/m1vw10zy74w/map,-14.5466777342,-0.667937428682,0.165,0.0,0.0,-0.999999950032,0.000316126158628,0,59.0382614136,61.6155776978,101.27155304,6.55199193954
1646222540962059606,114,1646222540962059606,r1000913c5/base_front_laser_link,0,1646222540962059606,v/m1vw10zy74w/map,-14.6166612765,-0.669947002899,0.165,0.0,0.0,-0.999889316414,0.0148780012164,0,59.0871086121,61.5935897827,101.175941467,6.5274515152
1646222541198635753,115,1646222541198635753,r1000913c5/base_front_laser_link,0,1646222541198635753,v/m1vw10zy74w/map,-14.6792617564,-0.682871464203,0.165,0.0,0.0,-0.99943211661,0.0336963542231,0,59.7915039062,61.5780525208,101.081542969,6.50116300583
1646222541357448710,116,1646222541357448710,r1000913c5/base_front_laser_link,0,1646222541357448710,v/m1vw10zy74w/map,-14.7188996921,-0.699242159045,0.165,0.0,0.0,-0.99859304622,0.0530276158434,0,58.1113700867,61.5484237671,100.991455078,6.4810090065
1646222541514825196,117,1646222541514825196,r1000913c5/base_front_laser_link,0,1646222541514825196,v/m1vw10zy74w/map,-14.7556517579,-0.720174048758,0.165,0.0,0.0,-0.997031667825,0.0769925538897,0,60.6852645874,61.5411109924,100.902336121,6.45374250412
1646222541593597211,118,1646222541593597211,r1000913c5/base_front_laser_link,0,1646222541593597211,v/m1vw10zy74w/map,-14.787494886,-0.725111227508,0.165,0.0,0.0,-0.996025669414,0.0890666372366,0,62.9928512573,61.5533103943,100.836456299,6.42771577835
1646222541751286798,119,1646222541751286798,r1000913c5/base_front_laser_link,0,1646222541751286798,v/m1vw10zy74w/map,-14.8136058573,-0.75349511234,0.165,0.0,0.0,-0.99230107068,0.123849041688,0,67.8698577881,61.6059455872,100.885665894,6.42657184601
1646222541908482770,120,1646222541908482770,r1000913c5/base_front_laser_link,0,1646222541908482770,v/m1vw10zy74w/map,-14.8165263991,-0.777107908529,0.165,0.0,0.0,-0.987827562489,0.155552906715,0,65.5721435547,61.6387252808,100.868385315,6.40988779068
1646222542065400049,121,1646222542065400049,r1000913c5/base_front_laser_link,0,1646222542065400049,v/m1vw10zy74w/map,-14.816948941,-0.793749942975,0.165,0.0,0.0,-0.982708866042,0.185157458942,0,70.3931045532,61.710483551,101.007568359,6.43236303329
1646222542222602169,122,1646222542222602169,r1000913c5/base_front_laser_link,0,1646222542222602169,v/m1vw10zy74w/map,-14.8069181878,-0.813721383987,0.165,0.0,0.0,-0.976032554098,0.21762456971,0,69.5603256226,61.7743034363,101.109092712,6.4449300766
1646222542301400451,123,1646222542301400451,r1000913c5/base_front_laser_link,0,1646222542301400451,v/m1vw10zy74w/map,-14.8048851512,-0.821909155382,0.165,0.0,0.0,-0.97236095242,0.23348271501,0,67.151260376,61.8176651001,101.128112793,6.436814785
1646222542617508146,124,1646222542617508146,r1000913c5/base_front_laser_link,0,1646222542617508146,v/m1vw10zy74w/map,-14.787735329,-0.864858375018,0.165,0.0,0.0,-0.953073697204,0.302738381608,0,71.5775299072,61.8957443237,101.305648804,6.46996831894
1646222542773509955,125,1646222542773509955,r1000913c5/base_front_laser_link,0,1646222542773509955,v/m1vw10zy74w/map,-14.7739951576,-0.88312954147,0.165,0.0,0.0,-0.941918787316,0.335840733237,0,73.8701934814,61.9907798767,101.585990906,6.53173780441
1646222543010617838,126,1646222543010617838,r1000913c5/base_front_laser_link,0,1646222543010617838,v/m1vw10zy74w/map,-14.7611230363,-0.907990127514,0.165,0.0,0.0,-0.923005859941,0.384785891782,0,67.4987030029,62.0341491699,101.606445312,6.52409982681
1646222543325648404,127,1646222543325648404,r1000913c5/base_front_laser_link,0,1646222543325648404,v/m1vw10zy74w/map,-14.7303521368,-0.93950074935,0.165,0.0,0.0,-0.89380764993,0.448450537883,0,70.2907714844,62.098651886,101.716293335,6.53921413422
1646222543483496583,128,1646222543483496583,r1000913c5/base_front_laser_link,0,1646222543483496583,v/m1vw10zy74w/map,-14.7147251553,-0.95657327889,0.165,0.0,0.0,-0.876652671968,0.481123781091,0,61.5051765442,62.0940513611,101.635543823,6.5138297081
1646222543720081643,129,1646222543720081643,r1000913c5/base_front_laser_link,0,1646222543720081643,v/m1vw10zy74w/map,-14.6854232387,-0.977434953303,0.165,0.0,0.0,-0.852309306941,0.523038091636,0,64.2256469727,62.1104507446,101.584129333,6.49122619629
1646222543956434644,130,1646222543956434644,r1000913c5/base_front_laser_link,0,1646222543956434644,v/m1vw10zy74w/map,-14.6525875072,-0.988235177027,0.165,0.0,0.0,-0.824524460173,0.565826311314,0,63.5899963379,62.1217460632,101.524253845,6.46750354767
1646222544193645993,131,1646222544193645993,r1000913c5/base_front_laser_link,0,1646222544193645993,v/m1vw10zy74w/map,-14.6229652646,-0.998374916117,0.165,0.0,0.0,-0.796905033186,0.604104600283,0,62.1462173462,62.1219291687,101.450241089,6.44277143478
1646222544271680781,132,1646222544271680781,r1000913c5/base_front_laser_link,0,1646222544271680781,v/m1vw10zy74w/map,-14.617659013,-1.00095157822,0.165,0.0,0.0,-0.789749519038,0.613429455748,0,61.4297065735,62.1167259216,101.372528076,6.41860151291
1646222544429647270,133,1646222544429647270,r1000913c5/base_front_laser_link,0,1646222544429647270,v/m1vw10zy74w/map,-14.6000395274,-1.00491476153,0.165,0.0,0.0,-0.772917071459,0.634507053268,0,62.0166282654,62.115978241,101.29927063,6.39443159103
1646222544587591552,134,1646222544587591552,r1000913c5/base_front_laser_link,0,1646222544587591552,v/m1vw10zy74w/map,-14.5804371063,-1.00620050215,0.165,0.0,0.0,-0.756165351842,0.654380593136,0,63.1248550415,62.1234512329,101.236808777,6.37111902237
1646222546873688439,135,1646222546873688439,r1000913c5/base_front_laser_link,0,1646222546873688439,v/m1vw10zy74w/map,-14.545266372,-1.01147490258,0.165,0.0,0.0,-0.718016721724,0.696025852483,0,57.3190383911,62.0881233215,101.170623779,6.36083364487
1646222547031789649,136,1646222547031789649,r1000913c5/base_front_laser_link,0,1646222547031789649,v/m1vw10zy74w/map,-14.5452584251,-1.01150230334,0.165,0.0,0.0,-0.718006990885,0.696035890627,0,55.8662872314,62.0427093506,101.121688843,6.35965919495
1646222547189854643,137,1646222547189854643,r1000913c5/base_front_laser_link,0,1646222547189854643,v/m1vw10zy74w/map,-14.5451526942,-1.01624181138,0.165,0.0,0.0,-0.717763416571,0.696287065679,0,55.8732719421,61.9980049133,101.072402954,6.3581328392
1646222547267841297,138,1646222547267841297,r1000913c5/base_front_laser_link,0,1646222547267841297,v/m1vw10zy74w/map,-14.5456361033,-1.02117886857,0.165,0.0,0.0,-0.718118651319,0.695920687024,0,56.3717880249,61.9575271606,101.016532898,6.35300254822
1646222547346725621,139,1646222547346725621,r1000913c5/base_front_laser_link,0,1646222547346725621,v/m1vw10zy74w/map,-14.5454048218,-1.02989767322,0.165,0.0,0.0,-0.71762048638,0.696434374172,0,59.847442627,61.9424552917,100.940315247,6.33262062073
1646222547425774100,140,1646222547425774100,r1000913c5/base_front_laser_link,0,1646222547425774100,v/m1vw10zy74w/map,-14.5448058245,-1.04398037811,0.165,0.0,0.0,-0.716601057246,0.697483279193,0,63.2481422424,61.951713562,100.884483337,6.31092166901
1646222547504732833,141,1646222547504732833,r1000913c5/base_front_laser_link,0,1646222547504732833,v/m1vw10zy74w/map,-14.5444976019,-1.06201721391,0.165,0.0,0.0,-0.71580868435,0.698296446654,0,58.6699523926,61.928604126,100.812194824,6.29452991486
1646222547662676687,142,1646222547662676687,r1000913c5/base_front_laser_link,0,1646222547662676687,v/m1vw10zy74w/map,-14.5460452797,-1.10720772043,0.165,0.0,0.0,-0.716290709042,0.697801992073,0,62.8907241821,61.935333252,100.753860474,6.27284288406
1646222547820778740,143,1646222547820778740,r1000913c5/base_front_laser_link,0,1646222547820778740,v/m1vw10zy74w/map,-14.54904294,-1.15423393027,0.165,0.0,0.0,-0.718041476362,0.696000314816,0,62.1492424011,61.9368171692,100.689506531,6.25089693069
1646222547978890662,144,1646222547978890662,r1000913c5/base_front_laser_link,0,1646222547978890662,v/m1vw10zy74w/map,-14.5524837335,-1.200065834,0.165,0.0,0.0,-0.720010662627,0.693963000241,0,63.4800224304,61.9474601746,100.638877869,6.23047304153
1646222548057727093,145,1646222548057727093,r1000913c5/base_front_laser_link,0,1646222548057727093,v/m1vw10zy74w/map,-14.5544605452,-1.22245287646,0.165,0.0,0.0,-0.721169904687,0.692758232412,0,57.8289108276,61.9192504883,100.574150085,6.21830034256
1646222548214844205,146,1646222548214844205,r1000913c5/base_front_laser_link,0,1646222548214844205,v/m1vw10zy74w/map,-14.5532513855,-1.2830677747,0.165,0.0,0.0,-0.720409891983,0.693548547351,0,60.8000030518,61.9116363525,100.504608154,6.1976556778
1646222548372852163,147,1646222548372852163,r1000913c5/base_front_laser_link,0,1646222548372852163,v/m1vw10zy74w/map,-14.5570662054,-1.32975230212,0.165,0.0,0.0,-0.722728054036,0.691132519789,0,60.2203674316,61.9002113342,100.434516907,6.17810344696
1646222548530904897,148,1646222548530904897,r1000913c5/base_front_laser_link,0,1646222548530904897,v/m1vw10zy74w/map,-14.5609733699,-1.37465381312,0.165,0.0,0.0,-0.724568015958,0.689203301103,0,60.4333648682,61.8903656006,100.365470886,6.15836858749
1646222548609062978,149,1646222548609062978,r1000913c5/base_front_laser_link,0,1646222548609062978,v/m1vw10zy74w/map,-14.5573029066,-1.39654290938,0.165,0.0,0.0,-0.723113316238,0.690729420164,0,62.415435791,61.8938674927,100.307319641,6.13781785965
1646222548924806571,150,1646222548924806571,r1000913c5/base_front_laser_link,0,1646222548924806571,v/m1vw10zy74w/map,-14.5599190726,-1.48572073339,0.165,0.0,0.0,-0.721653922131,0.69225401167,0,65.310295105,61.9164924622,100.287406921,6.12363910675
1646222549003653147,151,1646222549003653147,r1000913c5/base_front_laser_link,0,1646222549003653147,v/m1vw10zy74w/map,-14.5581169949,-1.50714866341,0.165,0.0,0.0,-0.718385850845,0.695644858606,0,64.2445831299,61.9318084717,100.250556946,6.10624885559
1646222549240062629,152,1646222549240062629,r1000913c5/base_front_laser_link,0,1646222549240062629,v/m1vw10zy74w/map,-14.5553290956,-1.57417468737,0.165,0.0,0.0,-0.71371961585,0.70043151696,0,63.0258102417,61.9389572144,100.199272156,6.08677196503
1646222549318863252,153,1646222549318863252,r1000913c5/base_front_laser_link,0,1646222549318863252,v/m1vw10zy74w/map,-14.5548399446,-1.59646118003,0.165,0.0,0.0,-0.71279961765,0.701367738834,0,66.2263336182,61.966796875,100.19683075,6.07667732239
1646222549397880916,154,1646222549397880916,r1000913c5/base_front_laser_link,0,1646222549397880916,v/m1vw10zy74w/map,-14.5682581278,-1.60705780108,0.165,0.0,0.0,-0.7115212969,0.702664531663,0,64.6328811646,61.983997345,100.166099548,6.06069993973
1646222549475810219,155,1646222549475810219,r1000913c5/base_front_laser_link,0,1646222549475810219,v/m1vw10zy74w/map,-14.5713385387,-1.62732011054,0.165,0.0,0.0,-0.711416555431,0.702770577542,0,62.9403495789,61.9901275635,100.114936829,6.04160308838
1646222549554737316,156,1646222549554737316,r1000913c5/base_front_laser_link,0,1646222549554737316,v/m1vw10zy74w/map,-14.5715810372,-1.64976127923,0.165,0.0,0.0,-0.71138398671,0.702803545418,0,65.4050140381,62.0118789673,100.096992493,6.02837133408
1646222554672206787,157,1646222554672206787,r1000913c5/base_front_laser_link,0,1646222554672206787,v/m1vw10zy74w/map,-14.5649280827,-2.44277933976,0.165,0.0,0.0,-0.711876566358,0.7023046022,0,53.9435768127,61.9608154297,100.090797424,6.04332685471
1646222555380712666,158,1646222555380712666,r1000913c5/base_front_laser_link,0,1646222555380712666,v/m1vw10zy74w/map,-14.558180877,-2.58028848522,0.165,0.0,0.0,-0.706833995626,0.707379461553,0,59.159362793,61.943195343,100.027999878,6.02826738358
1646222555537986400,159,1646222555537986400,r1000913c5/base_front_laser_link,0,1646222555537986400,v/m1vw10zy74w/map,-14.5579814469,-2.61242026836,0.165,0.0,0.0,-0.706652888621,0.707560382585,0,58.1739997864,61.9196395874,99.9696273804,6.01666402817
1646222559007322118,160,1646222559007322118,r1000913c5/base_front_laser_link,0,1646222559007322118,v/m1vw10zy74w/map,-14.555426846,-2.76628641532,0.165,0.0,0.0,-0.707172189832,0.70704136649,0,56.3057403564,61.8847694397,99.927154541,6.014128685
1646222559086460170,161,1646222559086460170,r1000913c5/base_front_laser_link,0,1646222559086460170,v/m1vw10zy74w/map,-14.5554255381,-2.76627863693,0.165,0.0,0.0,-0.707170810248,0.707042746326,0,56.3235969543,61.850440979,99.8844070435,6.01132202148
1646222559322234536,162,1646222559322234536,r1000913c5/base_front_laser_link,0,1646222559322234536,v/m1vw10zy74w/map,-14.5555338572,-2.76331322664,0.165,0.0,0.0,-0.707285931596,0.706927585377,0,56.1628112793,61.8155479431,99.8433761597,6.0092754364
1646222559480397661,163,1646222559480397661,r1000913c5/base_front_laser_link,0,1646222559480397661,v/m1vw10zy74w/map,-14.5560005461,-2.75105805367,0.165,0.0,0.0,-0.707791518407,0.706421380248,0,57.6654205322,61.7902412415,99.7889633179,5.99957275391
1646222559559458021,164,1646222559559458021,r1000913c5/base_front_laser_link,0,1646222559559458021,v/m1vw10zy74w/map,-14.5564495312,-2.73990823182,0.165,0.0,0.0,-0.708289910967,0.705921668475,0,54.8096313477,61.7479362488,99.7656097412,6.00589036942
1646222559717512443,165,1646222559717512443,r1000913c5/base_front_laser_link,0,1646222559717512443,v/m1vw10zy74w/map,-14.5567710869,-2.71292238502,0.165,0.0,0.0,-0.708735945527,0.705473854595,0,57.8760719299,61.724609375,99.7102127075,5.99519968033
1646222559796384298,166,1646222559796384298,r1000913c5/base_front_laser_link,0,1646222559796384298,v/m1vw10zy74w/map,-14.5565156214,-2.69360120901,0.165,0.0,0.0,-0.708555411488,0.705655177017,0,59.7569274902,61.7128295898,99.6499862671,5.97905349731
1646222559875384996,167,1646222559875384996,r1000913c5/base_front_laser_link,0,1646222559875384996,v/m1vw10zy74w/map,-14.5560843542,-2.67164073296,0.165,0.0,0.0,-0.708183073108,0.706028848534,0,57.3655967712,61.6869506836,99.5986099243,5.97055339813
1646222560190252725,168,1646222560190252725,r1000913c5/base_front_laser_link,0,1646222560190252725,v/m1vw10zy74w/map,-14.5571466437,-2.57633077313,0.165,0.0,0.0,-0.709703473967,0.704500517415,0,61.3254394531,61.6848144531,99.5432815552,5.9528222084
1646222560269600146,169,1646222560269600146,r1000913c5/base_front_laser_link,0,1646222560269600146,v/m1vw10zy74w/map,-14.5579570691,-2.55330299882,0.165,0.0,0.0,-0.710768157388,0.703426347561,0,59.993686676,61.6748657227,99.484664917,5.93660116196
1646222560427667354,170,1646222560427667354,r1000913c5/base_front_laser_link,0,1646222560427667354,v/m1vw10zy74w/map,-14.5586710048,-2.50750938715,0.165,0.0,0.0,-0.71211356918,0.702064288075,0,59.6005439758,61.6627349854,99.4264526367,5.92123985291
1646222560506716544,171,1646222560506716544,r1000913c5/base_front_laser_link,0,1646222560506716544,v/m1vw10zy74w/map,-14.5589101296,-2.48485262735,0.165,0.0,0.0,-0.712717695719,0.70145098632,0,58.4906959534,61.6442909241,99.3708496094,5.90885305405
1646222560585566635,172,1646222560585566635,r1000913c5/base_front_laser_link,0,1646222560585566635,v/m1vw10zy74w/map,-14.5588396287,-2.4623932508,0.165,0.0,0.0,-0.713030384641,0.701133133277,0,59.6615028381,61.6328315735,99.3135681152,5.89357948303
1646222560664892064,173,1646222560664892064,r1000913c5/base_front_laser_link,0,1646222560664892064,v/m1vw10zy74w/map,-14.5584107835,-2.44005445013,0.165,0.0,0.0,-0.712975499615,0.701188945255,0,57.9909896851,61.6119003296,99.2609100342,5.88300323486
1646222560744740565,174,1646222560744740565,r1000913c5/base_front_laser_link,0,1646222560744740565,v/m1vw10zy74w/map,-14.5724970559,-2.40601350871,0.165,0.0,0.0,-0.712731168083,0.701437297299,0,60.2469406128,61.6040992737,99.2050476074,5.86698102951
1646222560822430148,175,1646222560822430148,r1000913c5/base_front_laser_link,0,1646222560822430148,v/m1vw10zy74w/map,-14.5723149745,-2.38377277399,0.165,0.0,0.0,-0.712436450399,0.70173663446,0,62.2823104858,61.6079559326,99.1592102051,5.85041761398
1646222560901018114,176,1646222560901018114,r1000913c5/base_front_laser_link,0,1646222560901018114,v/m1vw10zy74w/map,-14.5717292462,-2.36156022785,0.165,0.0,0.0,-0.712167472498,0.702009608991,0,59.1187095642,61.5938911438,99.1042098999,5.83677339554
1646222560979465864,177,1646222560979465864,r1000913c5/base_front_laser_link,0,1646222560979465864,v/m1vw10zy74w/map,-14.571291266,-2.33896873052,0.165,0.0,0.0,-0.712045368573,0.702133458179,0,59.883605957,61.5842819214,99.0493011475,5.82167339325
1646222561137562828,178,1646222561137562828,r1000913c5/base_front_laser_link,0,1646222561137562828,v/m1vw10zy74w/map,-14.5663863297,-2.30925943812,0.165,0.0,0.0,-0.712794243107,0.701373200938,0,58.3543510437,61.5662384033,98.9971847534,5.8103146553
1646222561216445544,179,1646222561216445544,r1000913c5/base_front_laser_link,0,1646222561216445544,v/m1vw10zy74w/map,-14.5661200489,-2.28849993157,0.165,0.0,0.0,-0.712759075999,0.701408938909,0,60.3029441833,61.5592193604,98.9437026978,5.79482698441
1646222561374458621,180,1646222561374458621,r1000913c5/base_front_laser_link,0,1646222561374458621,v/m1vw10zy74w/map,-14.5654181061,-2.24386792232,0.165,0.0,0.0,-0.712774533928,0.701393230495,0,56.4403991699,61.5309410095,98.9046020508,5.79122018814
1646222561453412930,181,1646222561453412930,r1000913c5/base_front_laser_link,0,1646222561453412930,v/m1vw10zy74w/map,-14.5650269521,-2.22116767026,0.165,0.0,0.0,-0.712746934709,0.701421276455,0,58.1955223083,61.5126113892,98.8540802002,5.78048992157
1646222561610244887,182,1646222561610244887,r1000913c5/base_front_laser_link,0,1646222561610244887,v/m1vw10zy74w/map,-14.5637518647,-2.18814198241,0.165,0.0,0.0,-0.71338824417,0.700769015497,0,59.5717353821,61.5020065308,98.8011245728,5.76637268066
1646222561689594385,183,1646222561689594385,r1000913c5/base_front_laser_link,0,1646222561689594385,v/m1vw10zy74w/map,-14.5633904342,-2.16555372748,0.165,0.0,0.0,-0.71343306459,0.700723385046,0,60.2430496216,61.4951629639,98.7491989136,5.75134515762
1646222561848650818,184,1646222561848650818,r1000913c5/base_front_laser_link,0,1646222561848650818,v/m1vw10zy74w/map,-14.5625274935,-2.11977346602,0.165,0.0,0.0,-0.713387472454,0.700769801108,0,57.6659049988,61.4744644165,98.7022705078,5.74260044098
1646222561926606940,185,1646222561926606940,r1000913c5/base_front_laser_link,0,1646222561926606940,v/m1vw10zy74w/map,-14.5628525618,-2.10185189639,0.165,0.0,0.0,-0.713097529676,0.701064842343,0,58.4658546448,61.4582901001,98.6522064209,5.73130559921
1646222562006219558,186,1646222562006219558,r1000913c5/base_front_laser_link,0,1646222562006219558,v/m1vw10zy74w/map,-14.5625184368,-2.08039236287,0.165,0.0,0.0,-0.713079181383,0.701083505068,0,58.8014717102,61.4440841675,98.6016235352,5.71917915344
1646222562162556959,187,1646222562162556959,r1000913c5/base_front_laser_link,0,1646222562162556959,v/m1vw10zy74w/map,-14.561763116,-2.0357140029,0.165,0.0,0.0,-0.713082158282,0.701080477221,0,58.2831344604,61.4272689819,98.5528411865,5.70852375031
1646222562320548560,188,1646222562320548560,r1000913c5/base_front_laser_link,0,1646222562320548560,v/m1vw10zy74w/map,-14.5595473528,-1.99942219689,0.165,0.0,0.0,-0.713949858591,0.700196829054,0,58.5900001526,61.4122581482,98.5034408569,5.69706058502
1646222562479329442,189,1646222562479329442,r1000913c5/base_front_laser_link,0,1646222562479329442,v/m1vw10zy74w/map,-14.5587815722,-1.95620114975,0.165,0.0,0.0,-0.714324949841,0.699814165357,0,58.4565048218,61.3967018127,98.4547424316,5.68601417542
1646222562558149121,190,1646222562558149121,r1000913c5/base_front_laser_link,0,1646222562558149121,v/m1vw10zy74w/map,-14.5584274549,-1.93367134063,0.165,0.0,0.0,-0.714441264156,0.699695419501,0,58.2669830322,61.3803138733,98.4069671631,5.67555093765
1646222562637470431,191,1646222562637470431,r1000913c5/base_front_laser_link,0,1646222562637470431,v/m1vw10zy74w/map,-14.5580040642,-1.91121526271,0.165,0.0,0.0,-0.714489437086,0.699646227955,0,57.3742294312,61.3594512939,98.363609314,5.6680521965
1646222562794444034,192,1646222562794444034,r1000913c5/base_front_laser_link,0,1646222562794444034,v/m1vw10zy74w/map,-14.5569168838,-1.86199123799,0.165,0.0,0.0,-0.715761585403,0.698344723515,0,61.9585647583,61.3625526428,98.3228683472,5.65343666077
1646222562873470814,193,1646222562873470814,r1000913c5/base_front_laser_link,0,1646222562873470814,v/m1vw10zy74w/map,-14.5563665725,-1.83933530756,0.165,0.0,0.0,-0.715770094887,0.698336001697,0,62.928352356,61.3706245422,98.2902984619,5.63989210129
1646222562952648810,194,1646222562952648810,r1000913c5/base_front_laser_link,0,1646222562952648810,v/m1vw10zy74w/map,-14.5557828931,-1.81639363247,0.165,0.0,0.0,-0.715751003197,0.698355569479,0,65.4020690918,61.3913002014,98.2895202637,5.63274049759
1646222563030603898,195,1646222563030603898,r1000913c5/base_front_laser_link,0,1646222563030603898,v/m1vw10zy74w/map,-14.5551724619,-1.79408346648,0.165,0.0,0.0,-0.715684362752,0.698423863361,0,66.5420150757,61.4175796509,98.3085174561,5.63031244278
1646222563189676775,196,1646222563189676775,r1000913c5/base_front_laser_link,0,1646222563189676775,v/m1vw10zy74w/map,-14.5565243148,-1.74206804182,0.165,0.0,0.0,-0.715951576623,0.698149940866,0,62.7009658813,61.4240951538,98.2741165161,5.61667537689
1646222563267560713,197,1646222563267560713,r1000913c5/base_front_laser_link,0,1646222563267560713,v/m1vw10zy74w/map,-14.5558109219,-1.72013057902,0.165,0.0,0.0,-0.715777153144,0.698328767156,0,64.1214447021,61.4377174377,98.2547531128,5.60567998886
1646222563424876232,198,1646222563424876232,r1000913c5/base_front_laser_link,0,1646222563424876232,v/m1vw10zy74w/map,-14.5546843541,-1.6754361008,0.165,0.0,0.0,-0.715751630147,0.698354926912,0,59.8441619873,61.4297065735,98.207649231,5.59264755249
1646222563503747294,199,1646222563503747294,r1000913c5/base_front_laser_link,0,1646222563503747294,v/m1vw10zy74w/map,-14.5553056436,-1.65669087176,0.165,0.0,0.0,-0.715129929096,0.69899154824,0,60.5098114014,61.4251098633,98.1619796753,5.57895708084
1646222563582775173,200,1646222563582775173,r1000913c5/base_front_laser_link,0,1646222563582775173,v/m1vw10zy74w/map,-14.5538190193,-1.62882747946,0.165,0.0,0.0,-0.714997844746,0.699126656628,0,59.4722824097,61.4153938293,98.115486145,5.56669664383
1646222563662540127,201,1646222563662540127,r1000913c5/base_front_laser_link,0,1646222563662540127,v/m1vw10zy74w/map,-14.5532434006,-1.60584923554,0.165,0.0,0.0,-0.71493421154,0.699191728476,0,61.3481407166,61.4150619507,98.0735626221,5.55283403397
1646222563898701559,202,1646222563898701559,r1000913c5/base_front_laser_link,0,1646222563898701559,v/m1vw10zy74w/map,-14.5520578962,-1.53364477588,0.165,0.0,0.0,-0.713705294172,0.700446110041,0,61.1302528381,61.4136581421,98.0309829712,5.53910827637
1646222564134739332,203,1646222564134739332,r1000913c5/base_front_laser_link,0,1646222564134739332,v/m1vw10zy74w/map,-14.5508583091,-1.46602065461,0.165,0.0,0.0,-0.713676864208,0.700475076997,0,57.7481269836,61.395690918,97.989906311,5.53140497208
1646222564213743738,204,1646222564213743738,r1000913c5/base_front_laser_link,0,1646222564213743738,v/m1vw10zy74w/map,-14.550498637,-1.44362118041,0.165,0.0,0.0,-0.71373908937,0.70041167345,0,58.9487113953,61.3837509155,97.9451828003,5.52047729492
1646222564371661027,205,1646222564371661027,r1000913c5/base_front_laser_link,0,1646222564371661027,v/m1vw10zy74w/map,-14.555478137,-1.39366741139,0.165,0.0,0.0,-0.712199343868,0.701977274984,0,63.1646690369,61.3923988342,97.9175796509,5.5083937645
1646222564528793490,206,1646222564528793490,r1000913c5/base_front_laser_link,0,1646222564528793490,v/m1vw10zy74w/map,-14.5548337908,-1.34894014038,0.165,0.0,0.0,-0.712193774818,0.701982925085,0,60.9850082397,61.3904304504,97.8756713867,5.49508047104
1646222564607576026,207,1646222564607576026,r1000913c5/base_front_laser_link,0,1646222564607576026,v/m1vw10zy74w/map,-14.5544612957,-1.32625931861,0.165,0.0,0.0,-0.712144730692,0.702032679117,0,59.4723167419,61.3812065125,97.8314208984,5.48340463638
1646222564686754672,208,1646222564686754672,r1000913c5/base_front_laser_link,0,1646222564686754672,v/m1vw10zy74w/map,-14.5528749342,-1.30254593129,0.165,0.0,0.0,-0.71209368021,0.702084461162,0,58.2780303955,61.3663597107,97.7896118164,5.47441720963
1646222564844720017,209,1646222564844720017,r1000913c5/base_front_laser_link,0,1646222564844720017,v/m1vw10zy74w/map,-14.5525842842,-1.26501968467,0.165,0.0,0.0,-0.712195612885,0.701981060277,0,59.192073822,61.3560066223,97.7461013794,5.46336555481
1646222565002788831,210,1646222565002788831,r1000913c5/base_front_laser_link,0,1646222565002788831,v/m1vw10zy74w/map,-14.5521254185,-1.21981564694,0.165,0.0,0.0,-0.7124161761,0.701757217299,0,61.891040802,61.358543396,97.7099380493,5.45046663284
1646222565081711581,211,1646222565081711581,r1000913c5/base_front_laser_link,0,1646222565081711581,v/m1vw10zy74w/map,-14.551549934,-1.19127298661,0.165,0.0,0.0,-0.712615463312,0.701554845646,0,62.1891555786,61.3624610901,97.6759643555,5.43783473969
1646222565239800442,212,1646222565239800442,r1000913c5/base_front_laser_link,0,1646222565239800442,v/m1vw10zy74w/map,-14.5517321696,-1.15540689361,0.165,0.0,0.0,-0.712072638375,0.702105802339,0,60.4292068481,61.3580780029,97.6341934204,5.42537117004
1646222565397303955,213,1646222565397303955,r1000913c5/base_front_laser_link,0,1646222565397303955,v/m1vw10zy74w/map,-14.5510716866,-1.11012396609,0.165,0.0,0.0,-0.712048476701,0.70213030616,0,60.8723831177,61.3558082581,97.5939788818,5.41272258759
1646222565555136014,214,1646222565555136014,r1000913c5/base_front_laser_link,0,1646222565555136014,v/m1vw10zy74w/map,-14.5489836095,-1.07499091048,0.165,0.0,0.0,-0.712261450494,0.701914258396,0,60.5788116455,61.3521957397,97.5531616211,5.40032100677
1646222565713683281,215,1646222565713683281,r1000913c5/base_front_laser_link,0,1646222565713683281,v/m1vw10zy74w/map,-14.5483650182,-1.0300041026,0.165,0.0,0.0,-0.712305255994,0.701869804368,0,61.1856002808,61.3514251709,97.5147018433,5.38775920868
1646222565869795350,216,1646222565869795350,r1000913c5/base_front_laser_link,0,1646222565869795350,v/m1vw10zy74w/map,-14.5478806433,-0.984307868244,0.165,0.0,0.0,-0.712693859969,0.701475204096,0,60.8555259705,61.3491401672,97.4752731323,5.3753786087
1646222566027608482,217,1646222566027608482,r1000913c5/base_front_laser_link,0,1646222566027608482,v/m1vw10zy74w/map,-14.5467438495,-0.961887903749,0.165,0.0,0.0,-0.715760904387,0.698345421516,0,62.3040351868,61.3535194397,97.4436264038,5.3633685112
1646222566106771148,218,1646222566106771148,r1000913c5/base_front_laser_link,0,1646222566106771148,v/m1vw10zy74w/map,-14.5462341937,-0.939352752521,0.165,0.0,0.0,-0.715810368994,0.698294719757,0,57.4011306763,61.3354721069,97.4086151123,5.35771417618
1646222566185922105,219,1646222566185922105,r1000913c5/base_front_laser_link,0,1646222566185922105,v/m1vw10zy74w/map,-14.5456744499,-0.916898478637,0.165,0.0,0.0,-0.715806756784,0.698298422555,0,59.9278068542,61.3290748596,97.3680038452,5.3463101387
1646222566264987729,220,1646222566264987729,r1000913c5/base_front_laser_link,0,1646222566264987729,v/m1vw10zy74w/map,-14.5446023996,-0.888985361142,0.165,0.0,0.0,-0.712983921042,0.701180382167,0,62.3280487061,61.3335952759,97.3373031616,5.33456897736
1646222566421817502,221,1646222566421817502,r1000913c5/base_front_laser_link,0,1646222566421817502,v/m1vw10zy74w/map,-14.5420639283,-0.84716417703,0.165,0.0,0.0,-0.71317204264,0.700989042422,0,63.5342941284,61.3435058594,97.3171157837,5.32453536987
1646222566579826813,222,1646222566579826813,r1000913c5/base_front_laser_link,0,1646222566579826813,v/m1vw10zy74w/map,-14.5412881761,-0.802088202318,0.165,0.0,0.0,-0.713171463503,0.700989631625,0,62.8382148743,61.3502082825,97.2906265259,5.31347227097
1646222566658901844,223,1646222566658901844,r1000913c5/base_front_laser_link,0,1646222566658901844,v/m1vw10zy74w/map,-14.5410108392,-0.779304010975,0.165,0.0,0.0,-0.713294292798,0.700864645893,0,61.1076316833,61.3491249084,97.2538375854,5.30156993866
1646222568789002697,224,1646222568789002697,r1000913c5/base_front_laser_link,0,1646222568789002697,v/m1vw10zy74w/map,-14.5374272751,-0.671496756915,0.165,0.0,0.0,-0.716272910057,0.697820262187,0,61.9996795654,61.352016449,97.2217178345,5.28990077972
1646222569181877629,225,1646222569181877629,r1000913c5/base_front_laser_link,0,1646222569181877629,v/m1vw10zy74w/map,-14.5288009188,-0.692112750968,0.165,0.0,0.0,-0.706882882764,0.707330608736,0,60.5255126953,61.348361969,97.1836166382,5.27841854095
1646222569418986628,226,1646222569418986628,r1000913c5/base_front_laser_link,0,1646222569418986628,v/m1vw10zy74w/map,-14.5135713436,-0.715095164045,0.165,0.0,0.0,-0.691083147669,0.722775264524,0,63.5007171631,61.3578414917,97.1638336182,5.26866483688
1646222569498043214,227,1646222569498043214,r1000913c5/base_front_laser_link,0,1646222569498043214,v/m1vw10zy74w/map,-14.5072458083,-0.723753095158,0.165,0.0,0.0,-0.684695467507,0.72882927821,0,61.8175086975,61.3598594666,97.1312637329,5.25713539124
1646222569577097204,228,1646222569577097204,r1000913c5/base_front_laser_link,0,1646222569577097204,v/m1vw10zy74w/map,-14.499706232,-0.732862195863,0.165,0.0,0.0,-0.677161496067,0.735834429913,0,63.4981651306,61.3691978455,97.1116867065,5.24749660492
1646222569654982405,229,1646222569654982405,r1000913c5/base_front_laser_link,0,1646222569654982405,v/m1vw10zy74w/map,-14.4905541275,-0.743370739771,0.165,0.0,0.0,-0.668106599854,0.744065569175,0,59.2947273254,61.3601760864,97.0736160278,5.23781299591
1646222569812922074,230,1646222569812922074,r1000913c5/base_front_laser_link,0,1646222569812922074,v/m1vw10zy74w/map,-14.4656258404,-0.765277553836,0.165,0.0,0.0,-0.643492862117,0.765452112418,0,63.4600486755,61.36926651,97.0539855957,5.22824001312
1646222569969944429,231,1646222569969944429,r1000913c5/base_front_laser_link,0,1646222569969944429,v/m1vw10zy74w/map,-14.4331810963,-0.783839218037,0.165,0.0,0.0,-0.611054237371,0.791588730965,0,66.7321472168,61.3923835754,97.0787200928,5.22877883911
1646222570049040730,232,1646222570049040730,r1000913c5/base_front_laser_link,0,1646222570049040730,v/m1vw10zy74w/map,-14.4156615161,-0.789207737944,0.165,0.0,0.0,-0.592644969699,0.805463804209,0,67.6924667358,61.4194221497,97.1208114624,5.23379707336
1646222570128011669,233,1646222570128011669,r1000913c5/base_front_laser_link,0,1646222570128011669,v/m1vw10zy74w/map,-14.3956164118,-0.799571538072,0.165,0.0,0.0,-0.574913362801,0.818214290558,0,65.1511383057,61.4353675842,97.1201171875,5.22824811935
1646222570285108492,234,1646222570285108492,r1000913c5/base_front_laser_link,0,1646222570285108492,v/m1vw10zy74w/map,-14.3496213028,-0.814389733962,0.165,0.0,0.0,-0.528986640073,0.848630151847,0,67.2215270996,61.4599914551,97.15209198,5.2307009697
1646222570363810548,235,1646222570363810548,r1000913c5/base_front_laser_link,0,1646222570363810548,v/m1vw10zy74w/map,-14.3213502861,-0.821094793511,0.165,0.0,0.0,-0.504114321834,0.86363693212,0,67.3937225342,61.4851341248,97.186630249,5.23383188248
1646222570521556700,236,1646222570521556700,r1000913c5/base_front_laser_link,0,1646222570521556700,v/m1vw10zy74w/map,-14.2656766467,-0.828328014294,0.165,0.0,0.0,-0.447811617904,0.894127929812,0,70.5539321899,61.523399353,97.2909469604,5.25584840775
1646222570601011509,237,1646222570601011509,r1000913c5/base_front_laser_link,0,1646222570601011509,v/m1vw10zy74w/map,-14.2360999654,-0.825086600048,0.165,0.0,0.0,-0.418926189772,0.90802029026,0,68.1654968262,61.5513076782,97.3384780884,5.26239013672
