%time,field.header.seq,field.header.stamp,field.header.frame_id,field.pose.header.seq,field.pose.header.stamp,field.pose.header.frame_id,field.pose.pose.position.x,field.pose.pose.position.y,field.pose.pose.position.z,field.pose.pose.orientation.x,field.pose.pose.orientation.y,field.pose.pose.orientation.z,field.pose.pose.orientation.w,field.label,field.current_error,field.mean,field.threshold,field.std_dev
1646363525644302517,0,1646363525644302517,r1000913c5/base_front_laser_link,0,1646363525644302517,v/m1vw10zy74w/map,-2.75394584256,-2.3366743902,0.165,0.0,0.0,-0.610835736075,0.791757351424,0,66.4058914185,66.4058914185,nan,nan
1646363525879479032,1,1646363525879479032,r1000913c5/base_front_laser_link,0,1646363525879479032,v/m1vw10zy74w/map,-2.71948833434,-2.32321867385,0.165,0.0,0.0,-0.57230520399,0.820040702335,0,60.1700553894,63.2879714966,96.5161743164,4.40939950943
1646363526037338082,2,1646363526037338082,r1000913c5/base_front_laser_link,0,1646363526037338082,v/m1vw10zy74w/map,-2.69530349192,-2.31169150783,0.165,0.0,0.0,-0.542375452397,0.840136220287,0,58.6478652954,61.741268158,94.0735168457,4.11074972153
1646363526273386877,3,1646363526273386877,r1000913c5/base_front_laser_link,0,1646363526273386877,v/m1vw10zy74w/map,-2.66382026564,-2.29369229287,0.165,0.0,0.0,-0.498415965025,0.866938017282,0,58.0889205933,60.8281822205,92.2913360596,3.82104992867
1646363526352094587,4,1646363526352094587,r1000913c5/base_front_laser_link,0,1646363526352094587,v/m1vw10zy74w/map,-2.6537096115,-2.28757731993,0.165,0.0,0.0,-0.483041361777,0.875597534723,0,58.0660820007,60.2757606506,90.8722457886,3.53216052055
1646363526509133674,5,1646363526509133674,r1000913c5/base_front_laser_link,0,1646363526509133674,v/m1vw10zy74w/map,-2.63537508977,-2.27837607927,0.165,0.0,0.0,-0.451393767039,0.892324866334,0,57.6462860107,59.8375167847,89.8474884033,3.33665776253
1646363526668306405,6,1646363526668306405,r1000913c5/base_front_laser_link,0,1646363526668306405,v/m1vw10zy74w/map,-2.61418395719,-2.25554710066,0.165,0.0,0.0,-0.417379637442,0.908732214818,0,59.7668380737,59.827419281,88.9655838013,3.04605507851
1646363526824559783,7,1646363526824559783,r1000913c5/base_front_laser_link,0,1646363526824559783,v/m1vw10zy74w/map,-2.59660347662,-2.23899087095,0.165,0.0,0.0,-0.384794034637,0.923002465277,0,54.6560668945,59.1809997559,89.2637786865,3.36092543602
1646363526982324054,8,1646363526982324054,r1000913c5/base_front_laser_link,0,1646363526982324054,v/m1vw10zy74w/map,-2.57802572459,-2.21744546896,0.165,0.0,0.0,-0.34982114891,0.936816504858,0,50.2617874146,58.1899757385,91.1709976196,4.32700777054
1646363527060318538,9,1646363527060318538,r1000913c5/base_front_laser_link,0,1646363527060318538,v/m1vw10zy74w/map,-2.57069422151,-2.20851043609,0.165,0.0,0.0,-0.333607067682,0.942712217165,0,50.1462898254,57.3856086731,91.8083267212,4.80757236481
1646363527297524545,10,1646363527297524545,r1000913c5/base_front_laser_link,0,1646363527297524545,v/m1vw10zy74w/map,-2.55947986393,-2.19188989489,0.165,0.0,0.0,-0.280474344016,0.959861522486,0,53.8844795227,57.0673217773,91.1116256714,4.68143463135
1646363527454570012,11,1646363527454570012,r1000913c5/base_front_laser_link,0,1646363527454570012,v/m1vw10zy74w/map,-2.53319769025,-2.14161391303,0.165,0.0,0.0,-0.245749015529,0.969333493369,0,50.946937561,56.5572891235,90.9588775635,4.80052852631
1646363527611390871,12,1646363527611390871,r1000913c5/base_front_laser_link,0,1646363527611390871,v/m1vw10zy74w/map,-2.52012593566,-2.11492906737,0.165,0.0,0.0,-0.211061573735,0.977472767954,0,52.2569084167,56.2264938354,90.4716644287,4.74839067459
1646363527927480293,13,1646363527927480293,r1000913c5/base_front_laser_link,0,1646363527927480293,v/m1vw10zy74w/map,-2.50493144064,-2.0684740789,0.165,0.0,0.0,-0.139402105029,0.990235857316,0,46.5233383179,55.5334091187,91.2763824463,5.24765634537
1646363528084448097,14,1646363528084448097,r1000913c5/base_front_laser_link,0,1646363528084448097,v/m1vw10zy74w/map,-2.49811438868,-2.04949639481,0.165,0.0,0.0,-0.104614812277,0.994512815932,0,47.6226272583,55.006023407,91.367149353,5.45370817184
1646363528241575678,15,1646363528241575678,r1000913c5/base_front_laser_link,0,1646363528241575678,v/m1vw10zy74w/map,-2.49222716225,-2.02540722725,0.165,0.0,0.0,-0.0702966867139,0.997526127897,0,51.7732658386,54.8039779663,90.7951965332,5.33040761948
1646363528399530022,16,1646363528399530022,r1000913c5/base_front_laser_link,0,1646363528399530022,v/m1vw10zy74w/map,-2.48648207528,-2.00055194536,0.165,0.0,0.0,-0.0344890808998,0.999405074681,0,56.0245056152,54.8757743835,90.3846511841,5.16962718964
1646363528556474681,17,1646363528556474681,r1000913c5/base_front_laser_link,0,1646363528556474681,v/m1vw10zy74w/map,-2.48685719467,-1.96623300341,0.165,0.0,0.0,0.001271521245,0.999999191617,0,51.0843276978,54.6651382446,89.9479522705,5.09427118301
1646363528635534378,18,1646363528635534378,r1000913c5/base_front_laser_link,0,1646363528635534378,v/m1vw10zy74w/map,-2.48792777517,-1.95158607227,0.165,0.0,0.0,0.018972982493,0.999819996767,0,53.3084411621,54.5937309265,89.4752807617,4.96051597595
1646363528792385586,19,1646363528792385586,r1000913c5/base_front_laser_link,0,1646363528792385586,v/m1vw10zy74w/map,-2.48612800004,-1.92486696466,0.165,0.0,0.0,0.0539074713588,0.998545935114,0,53.6254615784,54.5453186035,89.0445098877,4.83306360245
1646363528950479842,20,1646363528950479842,r1000913c5/base_front_laser_link,0,1646363528950479842,v/m1vw10zy74w/map,-2.51568204973,-1.92464820817,0.165,0.0,0.0,0.0875975632832,0.996155945074,0,55.7033309937,54.6004600525,88.7528457642,4.71746063232
1646363529028390003,21,1646363529028390003,r1000913c5/base_front_laser_link,0,1646363529028390003,v/m1vw10zy74w/map,-2.5178713393,-1.91313400917,0.165,0.0,0.0,0.105023906351,0.994469697424,0,54.2795524597,54.5858764648,88.3987121582,4.60427856445
1646363529107518698,22,1646363529107518698,r1000913c5/base_front_laser_link,0,1646363529107518698,v/m1vw10zy74w/map,-2.518596713,-1.89936401453,0.165,0.0,0.0,0.122552286254,0.992462058284,0,53.7540588379,54.5497093201,88.0549926758,4.50176143646
1646363529343348503,23,1646363529343348503,r1000913c5/base_front_laser_link,0,1646363529343348503,v/m1vw10zy74w/map,-2.52477968431,-1.85845880692,0.165,0.0,0.0,0.175086608014,0.984553035491,0,52.0732803345,54.4465255737,87.7417221069,4.43173360825
1646363529659095602,24,1646363529659095602,r1000913c5/base_front_laser_link,0,1646363529659095602,v/m1vw10zy74w/map,-2.54101859544,-1.80944032939,0.165,0.0,0.0,0.244454920391,0.969660658115,0,53.0800971985,54.3918685913,87.4329376221,4.34702205658
1646363529816711755,25,1646363529816711755,r1000913c5/base_front_laser_link,0,1646363529816711755,v/m1vw10zy74w/map,-2.55299608789,-1.78902985408,0.165,0.0,0.0,0.278571383518,0.960415526887,0,51.3751716614,54.2758407593,87.1761016846,4.30008792877
1646363530131527129,26,1646363530131527129,r1000913c5/base_front_laser_link,0,1646363530131527129,v/m1vw10zy74w/map,-2.57215719482,-1.72494216102,0.165,0.0,0.0,0.345480754925,0.938425835096,0,50.436630249,54.1336479187,86.9761276245,4.28082704544
1646363530210620164,27,1646363530210620164,r1000913c5/base_front_laser_link,0,1646363530210620164,v/m1vw10zy74w/map,-2.58228745665,-1.7136015472,0.165,0.0,0.0,0.361501679704,0.932371457935,0,51.4904747009,54.0392494202,86.7304458618,4.23039865494
1646363531155517453,28,1646363531155517453,r1000913c5/base_front_laser_link,0,1646363531155517453,v/m1vw10zy74w/map,-2.63122231815,-1.64684625044,0.165,0.0,0.0,0.469134219554,0.883126878791,0,53.8237495422,54.0318183899,86.4949035645,4.15436172485
1646363531471091166,29,1646363531471091166,r1000913c5/base_front_laser_link,0,1646363531471091166,v/m1vw10zy74w/map,-2.63296751884,-1.61548403969,0.165,0.0,0.0,0.489275542493,0.872129258492,0,52.0960693359,53.9672927856,86.2594223022,4.09737682343
1646363531706873795,30,1646363531706873795,r1000913c5/base_front_laser_link,0,1646363531706873795,v/m1vw10zy74w/map,-2.63014907247,-1.58433358428,0.165,0.0,0.0,0.506482143296,0.862250449998,0,53.9463577271,53.9666175842,86.0521469116,4.02851009369
1646363531864688706,31,1646363531864688706,r1000913c5/base_front_laser_link,0,1646363531864688706,v/m1vw10zy74w/map,-2.62711808632,-1.55972732281,0.165,0.0,0.0,0.518098068237,0.855321221349,0,52.2054786682,53.9115829468,85.8372192383,3.97521162033
1646363532180676971,32,1646363532180676971,r1000913c5/base_front_laser_link,0,1646363532180676971,v/m1vw10zy74w/map,-2.61693093207,-1.50141773013,0.165,0.0,0.0,0.541280506538,0.840842085793,0,54.8140716553,53.9389305115,85.6862030029,3.91575884819
1646363532338227953,33,1646363532338227953,r1000913c5/base_front_laser_link,0,1646363532338227953,v/m1vw10zy74w/map,-2.62137391292,-1.49240158801,0.165,0.0,0.0,0.552238624519,0.833686092957,0,56.3429222107,54.0096359253,85.6434860229,3.87795066833
1646363532574866018,34,1646363532574866018,r1000913c5/base_front_laser_link,0,1646363532574866018,v/m1vw10zy74w/map,-2.61416508452,-1.43924288083,0.165,0.0,0.0,0.568450737871,0.822717301759,0,53.4888839722,53.994758606,85.4592895508,3.82151031494
1646363532730703485,35,1646363532730703485,r1000913c5/base_front_laser_link,0,1646363532730703485,v/m1vw10zy74w/map,-2.60999577629,-1.39981651154,0.165,0.0,0.0,0.580146490609,0.814512154258,0,52.4181976318,53.9509620667,85.2779922485,3.77567577362
1646363532888534161,36,1646363532888534161,r1000913c5/base_front_laser_link,0,1646363532888534161,v/m1vw10zy74w/map,-2.60662675396,-1.35182503259,0.165,0.0,0.0,0.594003435438,0.804462502972,0,52.3123626709,53.9066772461,85.1044769287,3.7326002121
1646363533124943758,37,1646363533124943758,r1000913c5/base_front_laser_link,0,1646363533124943758,v/m1vw10zy74w/map,-2.60669164481,-1.28264855756,0.165,0.0,0.0,0.616286809364,0.787521789288,0,52.4377937317,53.8680229187,84.9365692139,3.68951678276
1646363533439795361,38,1646363533439795361,r1000913c5/base_front_laser_link,0,1646363533439795361,v/m1vw10zy74w/map,-2.61602810389,-1.18177475761,0.165,0.0,0.0,0.645255964598,0.763966452242,0,55.7789840698,53.9170227051,84.8774719238,3.65348386765
1646363533675697191,39,1646363533675697191,r1000913c5/base_front_laser_link,0,1646363533675697191,v/m1vw10zy74w/map,-2.63160992516,-1.09722148054,0.165,0.0,0.0,0.675140187233,0.737689451993,0,53.0139846802,53.894443512,84.7219390869,3.60916566849
1646363533834170081,40,1646363533834170081,r1000913c5/base_front_laser_link,0,1646363533834170081,v/m1vw10zy74w/map,-2.64521368126,-1.0388711949,0.165,0.0,0.0,0.693956156745,0.720017258484,0,52.382774353,53.8575744629,84.572303772,3.57157683372
1646363533990501077,41,1646363533990501077,r1000913c5/base_front_laser_link,0,1646363533990501077,v/m1vw10zy74w/map,-2.65574249973,-0.979080825194,0.165,0.0,0.0,0.706581723938,0.707631448846,0,57.0999641418,53.9347763062,84.6239318848,3.56305289268
1646363534227904523,42,1646363534227904523,r1000913c5/base_front_laser_link,0,1646363534227904523,v/m1vw10zy74w/map,-2.68272753171,-0.886930646966,0.165,0.0,0.0,0.73096498758,0.682414966815,0,56.5706176758,53.9960746765,84.6258392334,3.54325413704
1646363534464737904,43,1646363534464737904,r1000913c5/base_front_laser_link,0,1646363534464737904,v/m1vw10zy74w/map,-2.73088182611,-0.79051915653,0.165,0.0,0.0,0.767593043693,0.640937531491,0,56.0235137939,54.0421524048,84.5875244141,3.5151245594
1646363534620566294,44,1646363534620566294,r1000913c5/base_front_laser_link,0,1646363534620566294,v/m1vw10zy74w/map,-2.77048246591,-0.725512678699,0.165,0.0,0.0,0.795122980223,0.606448222292,0,61.4414749146,54.2065811157,85.1440200806,3.64581227303
1646363534779861134,45,1646363534779861134,r1000913c5/base_front_laser_link,0,1646363534779861134,v/m1vw10zy74w/map,-2.82408412077,-0.67127827416,0.165,0.0,0.0,0.825293170931,0.564704508584,0,64.2112960815,54.4240760803,86.1096572876,3.89519381523
1646363534857808594,46,1646363534857808594,r1000913c5/base_front_laser_link,0,1646363534857808594,v/m1vw10zy74w/map,-2.85393589707,-0.622821962966,0.165,0.0,0.0,0.837917375775,0.545797097257,0,60.1077613831,54.5450057983,86.3674468994,3.94081497192
1646363535014825680,47,1646363535014825680,r1000913c5/base_front_laser_link,0,1646363535014825680,v/m1vw10zy74w/map,-2.90133564507,-0.602195976876,0.165,0.0,0.0,0.863928083555,0.503615196798,0,59.6613845825,54.6515960693,86.5555725098,3.96799182892
1646363535093772551,48,1646363535093772551,r1000913c5/base_front_laser_link,0,1646363535093772551,v/m1vw10zy74w/map,-2.91611138702,-0.610620703461,0.165,0.0,0.0,-0.873521338927,-0.48678585686,0,58.4748344421,54.7296218872,86.6223602295,3.96424627304
1646363535329762837,49,1646363535329762837,r1000913c5/base_front_laser_link,0,1646363535329762837,v/m1vw10zy74w/map,-2.9518140985,-0.636898498114,0.165,0.0,0.0,-0.898304542989,-0.43937335837,0,59.6965675354,54.8289604187,86.7868652344,3.98596787453
1646363535723428277,50,1646363535723428277,r1000913c5/base_front_laser_link,0,1646363535723428277,v/m1vw10zy74w/map,-2.99937076098,-0.681262109476,0.165,0.0,0.0,-0.934159808558,-0.356854945425,0,59.2354812622,54.9153633118,86.8969421387,3.99385976791
1646363536589942411,51,1646363536589942411,r1000913c5/base_front_laser_link,0,1646363536589942411,v/m1vw10zy74w/map,-3.05691759979,-0.734159691604,0.165,0.0,0.0,-0.96707220877,-0.254502147387,0,60.6313934326,55.0252876282,87.1248016357,4.03317213058
1646363536826569805,52,1646363536826569805,r1000913c5/base_front_laser_link,0,1646363536826569805,v/m1vw10zy74w/map,-3.07808496718,-0.734227862437,0.165,0.0,0.0,-0.970819299843,-0.239812191208,0,62.4193534851,55.1647987366,87.5287322998,4.12131214142
1646363537061919846,53,1646363537061919846,r1000913c5/base_front_laser_link,0,1646363537061919846,v/m1vw10zy74w/map,-3.10605963314,-0.73380811102,0.165,0.0,0.0,-0.975029507762,-0.222075345305,0,62.7297897339,55.304889679,87.935043335,4.2100520134
1646363537220912920,54,1646363537220912920,r1000913c5/base_front_laser_link,0,1646363537220912920,v/m1vw10zy74w/map,-3.12838533133,-0.733628439202,0.165,0.0,0.0,-0.978001238969,-0.208599080953,0,59.601146698,55.3830032349,88.0157852173,4.21092653275
1646363537377606084,55,1646363537377606084,r1000913c5/base_front_laser_link,0,1646363537377606084,v/m1vw10zy74w/map,-3.15612514771,-0.735485168408,0.165,0.0,0.0,-0.98089516427,-0.19453708313,0,63.4773178101,55.527545929,88.4587173462,4.31039047241
1646363537612854729,56,1646363537612854729,r1000913c5/base_front_laser_link,0,1646363537612854729,v/m1vw10zy74w/map,-3.19765749912,-0.730937698224,0.165,0.0,0.0,-0.983961965468,-0.178378391382,0,62.604511261,55.6517028809,88.7718048096,4.37336778641
1646363537771817369,57,1646363537771817369,r1000913c5/base_front_laser_link,0,1646363537771817369,v/m1vw10zy74w/map,-3.22915485742,-0.727810145024,0.165,0.0,0.0,-0.985972769676,-0.166906253499,0,65.4132080078,55.8200035095,89.3810882568,4.52036237717
1646363538007898850,58,1646363538007898850,r1000913c5/base_front_laser_link,0,1646363538007898850,v/m1vw10zy74w/map,-3.2798986751,-0.718412259654,0.165,0.0,0.0,-0.98871851078,-0.149785534818,0,66.5407943726,56.0017127991,90.0823669434,4.69355201721
1646363538163976865,59,1646363538163976865,r1000913c5/base_front_laser_link,0,1646363538163976865,v/m1vw10zy74w/map,-3.31723024997,-0.713440353212,0.165,0.0,0.0,-0.990069911806,-0.140575850472,0,69.629119873,56.2288360596,91.1539916992,4.97505331039
1646363538322098181,60,1646363538322098181,r1000913c5/base_front_laser_link,0,1646363538322098181,v/m1vw10zy74w/map,-3.35838262209,-0.709221742958,0.165,0.0,0.0,-0.991487716257,-0.130200263102,0,74.4776763916,56.5279960632,92.904258728,5.45875310898
1646363538635770996,61,1646363538635770996,r1000913c5/base_front_laser_link,0,1646363538635770996,v/m1vw10zy74w/map,-3.44799180687,-0.703485875678,0.165,0.0,0.0,-0.994255826759,-0.107029673247,0,70.273765564,56.7497024536,93.814666748,5.6883225441
1646363538794039609,62,1646363538794039609,r1000913c5/base_front_laser_link,0,1646363538794039609,v/m1vw10zy74w/map,-3.49483923877,-0.704605509429,0.165,0.0,0.0,-0.995654266535,-0.0931266961276,0,69.0521697998,56.9449806213,94.4988327026,5.85128307343
1646363539030004825,63,1646363539030004825,r1000913c5/base_front_laser_link,0,1646363539030004825,v/m1vw10zy74w/map,-3.57388711435,-0.703686678011,0.165,0.0,0.0,-0.997204291809,-0.0747234929462,0,67.4796447754,57.1095848083,94.9660415649,5.95215177536
1646363539266452250,64,1646363539266452250,r1000913c5/base_front_laser_link,0,1646363539266452250,v/m1vw10zy74w/map,-3.65349408409,-0.703555453144,0.165,0.0,0.0,-0.998268552893,-0.0588208832451,0,69.6728820801,57.3028640747,95.6256713867,6.10760211945
1646363539422847025,65,1646363539422847025,r1000913c5/base_front_laser_link,0,1646363539422847025,v/m1vw10zy74w/map,-3.71362200776,-0.703803655071,0.165,0.0,0.0,-0.998811576004,-0.048738441102,0,69.7150115967,57.4909286499,96.2410888672,6.2500538826
1646363539659186292,66,1646363539659186292,r1000913c5/base_front_laser_link,0,1646363539659186292,v/m1vw10zy74w/map,-3.81670486533,-0.700604344213,0.165,0.0,0.0,-0.999438372469,-0.0335102915032,0,74.6346969604,57.7468070984,97.3866119385,6.54660272598
1646363539817038664,67,1646363539817038664,r1000913c5/base_front_laser_link,0,1646363539817038664,v/m1vw10zy74w/map,-3.88475754817,-0.702468878519,0.165,0.0,0.0,-0.99971406578,-0.0239120614196,0,72.2508239746,57.9600982666,98.1543502808,6.7314157486
1646363540052905599,68,1646363540052905599,r1000913c5/base_front_laser_link,0,1646363540052905599,v/m1vw10zy74w/map,-3.98034515239,-0.708089619626,0.165,0.0,0.0,-0.999926396491,-0.0121326666527,0,66.55519104,58.0846672058,98.3688049316,6.76138067245
1646363540209883505,69,1646363540209883505,r1000913c5/base_front_laser_link,0,1646363540209883505,v/m1vw10zy74w/map,-4.05342605772,-0.710968202507,0.165,0.0,0.0,-0.999981098851,-0.00614832826498,0,68.2807617188,58.2303237915,98.696144104,6.82193994522
1646363540368097973,70,1646363540368097973,r1000913c5/base_front_laser_link,0,1646363540368097973,v/m1vw10zy74w/map,-4.11888401968,-0.715830872391,0.165,0.0,0.0,-0.999999351665,-0.00113871423026,0,67.2263870239,58.3570289612,98.9270248413,6.8566660881
1646363540446849440,71,1646363540446849440,r1000913c5/base_front_laser_link,0,1646363540446849440,v/m1vw10zy74w/map,-4.15743605318,-0.717544530595,0.165,0.0,0.0,-0.999999611776,0.000881162937411,0,63.8838005066,58.4337921143,98.951675415,6.83929395676
1646363540525031079,72,1646363540525031079,r1000913c5/base_front_laser_link,0,1646363540525031079,v/m1vw10zy74w/map,-4.19744218008,-0.718851147197,0.165,0.0,0.0,-0.999996567036,0.00262028918785,0,62.4793128967,58.4892082214,98.91355896,6.80811786652
1646363540761148367,73,1646363540761148367,r1000913c5/base_front_laser_link,0,1646363540761148367,v/m1vw10zy74w/map,-4.31214087989,-0.720943290869,0.165,0.0,0.0,-0.999978811285,0.00650976045927,0,60.6088104248,58.5178527832,98.8152923584,6.76581430435
1646363540919787129,74,1646363540919787129,r1000913c5/base_front_laser_link,0,1646363540919787129,v/m1vw10zy74w/map,-4.39716675189,-0.724898740216,0.165,0.0,0.0,-0.999959905144,0.00895478114732,0,64.4779281616,58.5973205566,98.8626022339,6.75509309769
1646363541076100928,75,1646363541076100928,r1000913c5/base_front_laser_link,0,1646363541076100928,v/m1vw10zy74w/map,-4.48256137632,-0.724901277515,0.165,0.0,0.0,-0.999938764524,0.0110664900957,0,67.9921264648,58.7209358215,99.1086273193,6.79589653015
1646363541233035055,76,1646363541233035055,r1000913c5/base_front_laser_link,0,1646363541233035055,v/m1vw10zy74w/map,-4.57416759851,-0.730125548695,0.165,0.0,0.0,-0.999901102313,0.0140636266226,0,69.5309143066,58.8613243103,99.4488754272,6.8625164032
1646363541469994709,77,1646363541469994709,r1000913c5/base_front_laser_link,0,1646363541469994709,v/m1vw10zy74w/map,-4.71960008693,-0.740829529859,0.165,0.0,0.0,-0.999903631868,0.013882614213,0,71.9936447144,59.0296897888,99.9639129639,6.97807359695
1646363541783999787,78,1646363541783999787,r1000913c5/base_front_laser_link,0,1646363541783999787,v/m1vw10zy74w/map,-4.92016701379,-0.734372102968,0.165,0.0,0.0,-0.999958542636,0.00910565808479,0,71.9342269897,59.1930351257,100.44379425,7.08358478546
1646363541943084030,79,1646363541943084030,r1000913c5/base_front_laser_link,0,1646363541943084030,v/m1vw10zy74w/map,-5.033767919,-0.735463509717,0.165,0.0,0.0,-0.999973373558,0.00729740877635,0,68.6017532349,59.3106460571,100.660987854,7.1167807579
1646363542336075324,80,1646363542336075324,r1000913c5/base_front_laser_link,0,1646363542336075324,v/m1vw10zy74w/map,-5.30673651813,-0.738411513588,0.165,0.0,0.0,-0.999994366629,0.00335659193171,0,64.2856140137,59.3720664978,100.653259277,7.09373140335
1646363542650049079,81,1646363542650049079,r1000913c5/base_front_laser_link,0,1646363542650049079,v/m1vw10zy74w/map,-5.53345506751,-0.737821314897,0.165,0.0,0.0,-0.99999478061,0.0032309057621,0,69.4845581055,59.495388031,100.90851593,7.1377081871
1646363542807178015,82,1646363542807178015,r1000913c5/base_front_laser_link,0,1646363542807178015,v/m1vw10zy74w/map,-5.6541381796,-0.738044822616,0.165,0.0,0.0,-0.999996780797,0.00253739956146,0,70.5058288574,59.6280441284,101.216827393,7.19626140594
1646363543044204953,83,1646363543044204953,r1000913c5/base_front_laser_link,0,1646363543044204953,v/m1vw10zy74w/map,-5.83497880999,-0.738561165281,0.165,0.0,0.0,-0.99999981735,0.000604400567306,0,72.4445343018,59.780620575,101.645202637,7.28819274902
1646363543280341737,84,1646363543280341737,r1000913c5/base_front_laser_link,0,1646363543280341737,v/m1vw10zy74w/map,-6.01383130702,-0.73823645018,0.165,0.0,0.0,-0.999996893088,-0.0024927525293,0,67.3490829468,59.8696632385,101.742790222,7.29104232788
1646363543516224594,85,1646363543516224594,r1000913c5/base_front_laser_link,0,1646363543516224594,v/m1vw10zy74w/map,-6.20814680622,-0.732334535314,0.165,0.0,0.0,-0.999994465905,-0.00332688439472,0,65.7419052124,59.9379425049,101.764846802,7.27563476562
1646363543672996474,86,1646363543672996474,r1000913c5/base_front_laser_link,0,1646363543672996474,v/m1vw10zy74w/map,-6.34066259741,-0.728860579342,0.165,0.0,0.0,-0.999989326519,-0.00462026504258,0,65.1087112427,59.997379303,101.760650635,7.25442361832
1646363543831172884,87,1646363543831172884,r1000913c5/base_front_laser_link,0,1646363543831172884,v/m1vw10zy74w/map,-6.45823435252,-0.725635226813,0.165,0.0,0.0,-0.999996040283,-0.00281414620454,0,61.3817176819,60.0131072998,101.655471802,7.21412038803
1646363544066782425,88,1646363544066782425,r1000913c5/base_front_laser_link,0,1646363544066782425,v/m1vw10zy74w/map,-6.62666308142,-0.728082482132,0.165,0.0,0.0,-0.999993922014,0.00348653618498,0,64.5072097778,60.0636062622,101.630050659,7.18881511688
1646363544224093662,89,1646363544224093662,r1000913c5/base_front_laser_link,0,1646363544224093662,v/m1vw10zy74w/map,-6.71861029902,-0.728581282032,0.165,0.0,0.0,-0.999981886896,0.00601879381779,0,64.7747650146,60.1159515381,101.612579346,7.16554307938
1646363544381130646,90,1646363544381130646,r1000913c5/base_front_laser_link,0,1646363544381130646,v/m1vw10zy74w/map,-6.79554960535,-0.725816313514,0.165,0.0,0.0,-0.99997365367,0.00725892325236,0,63.869934082,60.1572036743,101.566650391,7.13648176193
1646363544538991246,91,1646363544538991246,r1000913c5/base_front_laser_link,0,1646363544538991246,v/m1vw10zy74w/map,-6.86148457165,-0.72861104972,0.165,0.0,0.0,-0.999977255015,0.00674458686548,0,66.3390197754,60.224395752,101.603492737,7.12636566162
1646363544775265558,92,1646363544775265558,r1000913c5/base_front_laser_link,0,1646363544775265558,v/m1vw10zy74w/map,-6.95926487212,-0.719975666609,0.165,0.0,0.0,-0.999949337578,0.010065896709,0,65.1680221558,60.2775535583,101.595687866,7.10604429245
1646363545011217806,93,1646363545011217806,r1000913c5/base_front_laser_link,0,1646363545011217806,v/m1vw10zy74w/map,-7.0376270164,-0.728680962954,0.165,0.0,0.0,-0.999918760455,0.012746469712,0,68.0272521973,60.3599967957,101.698371887,7.11279201508
1646363545168107907,94,1646363545168107907,r1000913c5/base_front_laser_link,0,1646363545168107907,v/m1vw10zy74w/map,-7.08371004336,-0.730071880731,0.165,0.0,0.0,-0.999914823602,0.0130516489902,0,64.9345092773,60.4081497192,101.679374695,7.09040737152
1646363545325340394,95,1646363545325340394,r1000913c5/base_front_laser_link,0,1646363545325340394,v/m1vw10zy74w/map,-7.12565043339,-0.732236919438,0.165,0.0,0.0,-0.999920000198,0.012648842008,0,67.4712219238,60.4817237854,101.750930786,7.08973407745
1646363550522825950,96,1646363550522825950,r1000913c5/base_front_laser_link,0,1646363550522825950,v/m1vw10zy74w/map,-7.49792103039,-0.733013413281,0.165,0.0,0.0,-0.999990144951,0.00443959476348,0,60.2588310242,60.4794273376,101.637672424,7.05274820328
1646363550838503937,97,1646363550838503937,r1000913c5/base_front_laser_link,0,1646363550838503937,v/m1vw10zy74w/map,-7.56473271176,-0.737198399478,0.165,0.0,0.0,-0.999961657595,0.00875690243504,0,59.3845939636,60.4682540894,101.519767761,7.0171713829
1646363550994577999,98,1646363550994577999,r1000913c5/base_front_laser_link,0,1646363550994577999,v/m1vw10zy74w/map,-7.60305595016,-0.737100044354,0.165,0.0,0.0,-0.999970677139,0.00765799340935,0,60.1553001404,60.4650917053,101.409141541,6.98134851456
1646363551231161900,99,1646363551231161900,r1000913c5/base_front_laser_link,0,1646363551231161900,v/m1vw10zy74w/map,-7.66677931773,-0.736605856453,0.165,0.0,0.0,-0.999983948215,0.0056659784199,0,59.258480072,60.4530258179,101.294166565,6.94704771042
1646363551389274242,100,1646363551389274242,r1000913c5/base_front_laser_link,0,1646363551389274242,v/m1vw10zy74w/map,-7.71232427729,-0.735258606591,0.165,0.0,0.0,-0.999997236518,0.0023509478333,0,64.0182113647,60.4883270264,101.252296448,6.92132234573
1646363551545682788,101,1646363551545682788,r1000913c5/base_front_laser_link,0,1646363551545682788,v/m1vw10zy74w/map,-7.76166502983,-0.734432680057,0.165,0.0,0.0,-0.999998371046,0.00180496664071,0,65.0957565308,60.5334968567,101.239692688,6.90206623077
1646363551782452811,102,1646363551782452811,r1000913c5/base_front_laser_link,0,1646363551782452811,v/m1vw10zy74w/map,-7.84051127402,-0.734742195955,0.165,0.0,0.0,-0.999998308271,0.00183941697087,0,68.6734237671,60.6125259399,101.356994629,6.91482162476
1646363551940533615,103,1646363551940533615,r1000913c5/base_front_laser_link,0,1646363551940533615,v/m1vw10zy74w/map,-7.90692499961,-0.731690665702,0.165,0.0,0.0,-0.999999481826,0.00101801166456,0,64.2207870483,60.6472206116,101.318008423,6.8902630806
1646363552175962953,104,1646363552175962953,r1000913c5/base_front_laser_link,0,1646363552175962953,v/m1vw10zy74w/map,-7.99652008787,-0.732130065779,0.165,0.0,0.0,-0.999998982777,0.00142633981419,0,65.5614089966,60.6940231323,101.315444946,6.87380695343
1646363552255674196,105,1646363552255674196,r1000913c5/base_front_laser_link,0,1646363552255674196,v/m1vw10zy74w/map,-8.03286474487,-0.730442854407,0.165,0.0,0.0,-0.999999544912,0.000954031528107,0,69.7300796509,60.7792663574,101.470466614,6.8970656395
1646363552491179465,106,1646363552491179465,r1000913c5/base_front_laser_link,0,1646363552491179465,v/m1vw10zy74w/map,-8.12393815453,-0.729733320749,0.165,0.0,0.0,-0.999999013929,0.00140432961738,0,64.3776550293,60.8128967285,101.432693481,6.87326431274
1646363552727508474,107,1646363552727508474,r1000913c5/base_front_laser_link,0,1646363552727508474,v/m1vw10zy74w/map,-8.21018892155,-0.740404674111,0.165,0.0,0.0,-0.999991768068,0.00405756041008,0,64.2433853149,60.8446617126,101.39175415,6.84903001785
1646363552963117714,108,1646363552963117714,r1000913c5/base_front_laser_link,0,1646363552963117714,v/m1vw10zy74w/map,-8.31675921453,-0.737244524908,0.165,0.0,0.0,-0.999998108997,0.00194473732502,0,66.5698547363,60.8971862793,101.414993286,6.83926773071
1646363553041507542,109,1646363553041507542,r1000913c5/base_front_laser_link,0,1646363553041507542,v/m1vw10zy74w/map,-8.35606163896,-0.734286319864,0.165,0.0,0.0,-0.999999838269,0.0005687368232,0,65.4997406006,60.9390258789,101.404884338,6.82195186615
1646363553198442223,110,1646363553198442223,r1000913c5/base_front_laser_link,0,1646363553198442223,v/m1vw10zy74w/map,-8.43410183232,-0.73248547202,0.165,0.0,0.0,-0.999998004342,-0.00199782688896,0,62.5886955261,60.9538879395,101.331924438,6.79267692566
1646363553435563245,111,1646363553435563245,r1000913c5/base_front_laser_link,0,1646363553435563245,v/m1vw10zy74w/map,-8.55096901477,-0.746726136716,0.165,0.0,0.0,-0.999992926803,-0.00376116264823,0,62.5057868958,60.9677467346,101.258544922,6.76359987259
1646363553828343575,112,1646363553828343575,r1000913c5/base_front_laser_link,0,1646363553828343575,v/m1vw10zy74w/map,-8.76537562929,-0.732139052857,0.165,0.0,0.0,-0.99999930272,-0.0011809150516,0,62.6715049744,60.9828224182,101.188560486,6.73524522781
1646363553986712874,113,1646363553986712874,r1000913c5/base_front_laser_link,0,1646363553986712874,v/m1vw10zy74w/map,-8.85639863518,-0.727243430052,0.165,0.0,0.0,-0.999999111584,-0.00133297831803,0,61.4476585388,60.9869003296,101.10345459,6.7055182457
1646363554222573648,114,1646363554222573648,r1000913c5/base_front_laser_link,0,1646363554222573648,v/m1vw10zy74w/map,-9.00238019733,-0.747324891316,0.165,0.0,0.0,-0.999997233187,-0.00235236424023,0,58.4662017822,60.9649810791,101.005523682,6.68018007278
1646363554379745384,115,1646363554379745384,r1000913c5/base_front_laser_link,0,1646363554379745384,v/m1vw10zy74w/map,-9.10458567201,-0.744731330228,0.165,0.0,0.0,-0.999981306524,-0.00611445842052,0,60.2111282349,60.9584846497,100.91280365,6.65144062042
1646363554538512772,116,1646363554538512772,r1000913c5/base_front_laser_link,0,1646363554538512772,v/m1vw10zy74w/map,-9.20282047879,-0.742402381976,0.165,0.0,0.0,-0.999976404486,-0.00686953206208,0,60.5441551208,60.9549407959,100.823402405,6.62281942368
1646363554773643026,117,1646363554773643026,r1000913c5/base_front_laser_link,0,1646363554773643026,v/m1vw10zy74w/map,-9.35341123686,-0.718209904532,0.165,0.0,0.0,-0.999985313833,-0.0054196050685,0,60.9294128418,60.9547271729,100.738090515,6.59445619583
1646363554930630239,118,1646363554930630239,r1000913c5/base_front_laser_link,0,1646363554930630239,v/m1vw10zy74w/map,-9.46287399715,-0.724970995151,0.165,0.0,0.0,-0.99999897874,0.00142916727892,0,61.0901451111,60.9558639526,100.655258179,6.56646585464
1646363555088389122,119,1646363555088389122,r1000913c5/base_front_laser_link,0,1646363555088389122,v/m1vw10zy74w/map,-9.57261067742,-0.725329408696,0.165,0.0,0.0,-0.999992008338,0.00399790686318,0,53.2973213196,60.8920402527,100.620300293,6.57608652115
1646363555245575382,120,1646363555245575382,r1000913c5/base_front_laser_link,0,1646363555245575382,v/m1vw10zy74w/map,-9.68980764351,-0.726524747744,0.165,0.0,0.0,-0.999982471874,0.00592080602472,0,54.7848815918,60.8415679932,100.557937622,6.57212162018
1646363555481890003,121,1646363555481890003,r1000913c5/base_front_laser_link,0,1646363555481890003,v/m1vw10zy74w/map,-9.87284072326,-0.72142398324,0.165,0.0,0.0,-0.99998194616,0.00600893956654,0,59.0080986023,60.8265419006,100.467575073,6.5470123291
1646363555640109789,122,1646363555640109789,r1000913c5/base_front_laser_link,0,1646363555640109789,v/m1vw10zy74w/map,-10.0031506136,-0.716464162325,0.165,0.0,0.0,-0.999999750666,-0.000706163882137,0,63.0541725159,60.8446502686,100.414306641,6.52321815491
1646363555796551871,123,1646363555796551871,r1000913c5/base_front_laser_link,0,1646363555796551871,v/m1vw10zy74w/map,-10.0954810479,-0.739747286806,0.165,0.0,0.0,-0.999998818359,-0.00153729666756,0,62.6003570557,60.8588104248,100.354492188,6.49855995178
1646363556033548919,124,1646363556033548919,r1000913c5/base_front_laser_link,0,1646363556033548919,v/m1vw10zy74w/map,-10.2893217871,-0.736102683491,0.165,0.0,0.0,-0.999962980287,-0.0086045369017,0,63.5455780029,60.8803062439,100.310592651,6.47676277161
1646363556191469605,125,1646363556191469605,r1000913c5/base_front_laser_link,0,1646363556191469605,v/m1vw10zy74w/map,-10.433050503,-0.72447720891,0.165,0.0,0.0,-0.999933028512,-0.0115731797714,0,64.2803955078,60.9072914124,100.281021118,6.45791149139
1646363556427301644,126,1646363556427301644,r1000913c5/base_front_laser_link,0,1646363556427301644,v/m1vw10zy74w/map,-10.6322545002,-0.72484718393,0.165,0.0,0.0,-0.999932423392,-0.0116253451163,0,64.4734573364,60.9353713989,100.255409241,6.44001293182
1646363556585434004,127,1646363556585434004,r1000913c5/base_front_laser_link,0,1646363556585434004,v/m1vw10zy74w/map,-10.7713136848,-0.721515796882,0.165,0.0,0.0,-0.999925540719,-0.0122029921687,0,62.9781608582,60.9513282776,100.202774048,6.41714906693
1646363556741640481,128,1646363556741640481,r1000913c5/base_front_laser_link,0,1646363556741640481,v/m1vw10zy74w/map,-10.9161998343,-0.717088182236,0.165,0.0,0.0,-0.99991645947,-0.0129257139158,0,62.1731834412,60.9608001709,100.13961792,6.39293813705
1646363556898822538,129,1646363556898822538,r1000913c5/base_front_laser_link,0,1646363556898822538,v/m1vw10zy74w/map,-11.0640872474,-0.710877176283,0.165,0.0,0.0,-0.9998929172,-0.01463400609,0,60.9239120483,60.9605178833,100.064849854,6.36811208725
1646363557135622482,130,1646363557135622482,r1000913c5/base_front_laser_link,0,1646363557135622482,v/m1vw10zy74w/map,-11.2855734616,-0.705147048707,0.165,0.0,0.0,-0.999895489578,-0.0144571754543,0,58.987071991,60.9454536438,99.9832000732,6.3459148407
1646363557372460349,131,1646363557372460349,r1000913c5/base_front_laser_link,0,1646363557372460349,v/m1vw10zy74w/map,-11.5019007972,-0.701204622802,0.165,0.0,0.0,-0.999890977095,-0.0147659718417,0,62.4772911072,60.9570579529,99.9262161255,6.32305335999
1646363557528531971,132,1646363557528531971,r1000913c5/base_front_laser_link,0,1646363557528531971,v/m1vw10zy74w/map,-11.6549348272,-0.691944949403,0.165,0.0,0.0,-0.999871541953,-0.0160280876128,0,60.1381072998,60.9509010315,99.8492736816,6.29945707321
1646363557686805159,133,1646363557686805159,r1000913c5/base_front_laser_link,0,1646363557686805159,v/m1vw10zy74w/map,-11.8203034855,-0.686771265124,0.165,0.0,0.0,-0.999894636623,-0.0145160481068,0,60.779838562,60.9496231079,99.7768630981,6.27574729919
1646363557766534056,134,1646363557766534056,r1000913c5/base_front_laser_link,0,1646363557766534056,v/m1vw10zy74w/map,-11.8989828373,-0.681840964092,0.165,0.0,0.0,-0.999910379295,-0.0133878070505,0,61.4722480774,60.9534950256,99.7108383179,6.25244855881
1646363557923473278,135,1646363557923473278,r1000913c5/base_front_laser_link,0,1646363557923473278,v/m1vw10zy74w/map,-12.0667466332,-0.673717550181,0.165,0.0,0.0,-0.999924269363,-0.0123067273567,0,62.6234741211,60.9657745361,99.658454895,6.23089408875
1646363558001507345,136,1646363558001507345,r1000913c5/base_front_laser_link,0,1646363558001507345,v/m1vw10zy74w/map,-12.144208471,-0.676109530307,0.165,0.0,0.0,-0.999958589272,-0.00910053521559,0,62.1969146729,60.9747619629,99.6012649536,6.20883512497
1646363558158597985,137,1646363558158597985,r1000913c5/base_front_laser_link,0,1646363558158597985,v/m1vw10zy74w/map,-12.3081509033,-0.674193160871,0.165,0.0,0.0,-0.999984686144,-0.00553420980204,0,64.4893417358,61.0002288818,99.5803222656,6.19336414337
1646363558316493629,138,1646363558316493629,r1000913c5/base_front_laser_link,0,1646363558316493629,v/m1vw10zy74w/map,-12.471907082,-0.666866224421,0.165,0.0,0.0,-0.99998699939,-0.00509912261527,0,62.7397422791,61.0127449036,99.5306854248,6.17264699936
1646363558473735866,139,1646363558473735866,r1000913c5/base_front_laser_link,0,1646363558473735866,v/m1vw10zy74w/map,-12.6380382955,-0.658467460458,0.165,0.0,0.0,-0.999974156122,-0.00718937322913,0,57.8785820007,60.9903564453,99.4586715698,6.15610456467
1646363558552597036,140,1646363558552597036,r1000913c5/base_front_laser_link,0,1646363558552597036,v/m1vw10zy74w/map,-12.7277471432,-0.643997928952,0.165,0.0,0.0,-0.999982554148,-0.0059068942811,0,58.2117156982,60.9706497192,99.3862686157,6.13854074478
1646363558788502950,141,1646363558788502950,r1000913c5/base_front_laser_link,0,1646363558788502950,v/m1vw10zy74w/map,-12.9835441983,-0.659974808022,0.165,0.0,0.0,-0.999989942884,-0.004484877996,0,60.6312446594,60.9682579041,99.3186645508,6.11680078506
1646363558867735910,142,1646363558867735910,r1000913c5/base_front_laser_link,0,1646363558867735910,v/m1vw10zy74w/map,-13.0902283776,-0.66059593638,0.165,0.0,0.0,-0.999994493797,-0.00331848986093,0,56.8022956848,60.939125061,99.2546463013,6.10517215729
1646363559024850687,143,1646363559024850687,r1000913c5/base_front_laser_link,0,1646363559024850687,v/m1vw10zy74w/map,-13.2730069881,-0.660350955558,0.165,0.0,0.0,-0.999993927149,-0.00348506303794,0,57.394744873,60.9145126343,99.1873703003,6.0909538269
1646363559182747745,144,1646363559182747745,r1000913c5/base_front_laser_link,0,1646363559182747745,v/m1vw10zy74w/map,-13.4618579528,-0.660970742396,0.165,0.0,0.0,-0.999997269627,-0.00233682217006,0,56.8585205078,60.8865394592,99.1238632202,6.07910633087
1646363559339706489,145,1646363559339706489,r1000913c5/base_front_laser_link,0,1646363559339706489,v/m1vw10zy74w/map,-13.6513892112,-0.659980001284,0.165,0.0,0.0,-0.999999581237,-0.00091516466581,0,56.2348747253,60.8546791077,99.0656585693,6.07032728195
1646363559418642389,146,1646363559418642389,r1000913c5/base_front_laser_link,0,1646363559418642389,v/m1vw10zy74w/map,-13.726131678,-0.627780575803,0.165,0.0,0.0,-0.999999178987,-0.00128141560214,0,57.9410438538,60.8348579407,98.9976806641,6.05427408218
1646363559497761973,147,1646363559497761973,r1000913c5/base_front_laser_link,0,1646363559497761973,v/m1vw10zy74w/map,-13.8031485654,-0.625183678274,0.165,0.0,0.0,-0.999997575293,-0.00220213730719,0,57.2480278015,60.8106231689,98.9331588745,6.04084539413
1646363559655907969,148,1646363559655907969,r1000913c5/base_front_laser_link,0,1646363559655907969,v/m1vw10zy74w/map,-13.9429676257,-0.621417294058,0.165,0.0,0.0,-0.999998515014,-0.00172335992455,0,60.0962677002,60.8058280945,98.8678894043,6.02068710327
1646363559733963851,149,1646363559733963851,r1000913c5/base_front_laser_link,0,1646363559733963851,v/m1vw10zy74w/map,-13.9994245229,-0.622124230191,0.165,0.0,0.0,-0.999999895425,-0.000457328833932,0,62.7403793335,60.8187255859,98.8263092041,6.00252819061
1646363559891660958,150,1646363559891660958,r1000913c5/base_front_laser_link,0,1646363559891660958,v/m1vw10zy74w/map,-14.0879612873,-0.625952049273,0.165,0.0,0.0,-0.999995802821,0.00289729880251,0,61.2558326721,60.8216209412,98.7693939209,5.98259210587
1646363560048929276,151,1646363560048929276,r1000913c5/base_front_laser_link,0,1646363560048929276,v/m1vw10zy74w/map,-14.150594802,-0.630036202718,0.165,0.0,0.0,-0.999981361971,0.00610538379245,0,62.4365844727,60.832244873,98.7248077393,5.96418762207
1646363560285010843,152,1646363560285010843,r1000913c5/base_front_laser_link,0,1646363560285010843,v/m1vw10zy74w/map,-14.2362798046,-0.631158706956,0.165,0.0,0.0,-0.999969776968,0.00777464798775,0,60.1449127197,60.8277549744,98.6621398926,5.94479608536
1646363560442927856,153,1646363560442927856,r1000913c5/base_front_laser_link,0,1646363560442927856,v/m1vw10zy74w/map,-14.2937786704,-0.635050144237,0.165,0.0,0.0,-0.999971954328,0.00748936293151,0,61.3913955688,60.831413269,98.6079483032,5.92551088333
1646363560679009711,154,1646363560679009711,r1000913c5/base_front_laser_link,0,1646363560679009711,v/m1vw10zy74w/map,-14.3705068009,-0.633674897343,0.165,0.0,0.0,-0.999989911994,0.00449176014962,0,63.695022583,60.8498878479,98.5820388794,5.91071796417
1646363560992946310,155,1646363560992946310,r1000913c5/base_front_laser_link,0,1646363560992946310,v/m1vw10zy74w/map,-14.4828228067,-0.648759395953,0.165,0.0,0.0,-0.999799708495,0.0200135677393,0,61.3252067566,60.852935791,98.5281677246,5.89174318314
1646363561230855437,156,1646363561230855437,r1000913c5/base_front_laser_link,0,1646363561230855437,v/m1vw10zy74w/map,-14.5520281354,-0.666103442758,0.165,0.0,0.0,-0.99921800866,0.0395394887437,0,67.0721054077,60.8925476074,98.5738449097,5.89376592636
1646363561545819935,157,1646363561545819935,r1000913c5/base_front_laser_link,0,1646363561545819935,v/m1vw10zy74w/map,-14.635569186,-0.688600434305,0.165,0.0,0.0,-0.998106136349,0.061515368673,0,63.4266624451,60.9085884094,98.5438613892,5.87842416763
1646363561781994988,158,1646363561781994988,r1000913c5/base_front_laser_link,0,1646363561781994988,v/m1vw10zy74w/map,-14.6936318567,-0.712173687876,0.165,0.0,0.0,-0.99646990807,0.0839507135783,0,65.8081359863,60.9393997192,98.5573806763,5.8726606369
1646363561939050316,159,1646363561939050316,r1000913c5/base_front_laser_link,0,1646363561939050316,v/m1vw10zy74w/map,-14.739208747,-0.724167855727,0.165,0.0,0.0,-0.994709477222,0.102728067855,0,64.9599151611,60.9645309448,98.5528869629,5.86278629303
1646363562175912155,160,1646363562175912155,r1000913c5/base_front_laser_link,0,1646363562175912155,v/m1vw10zy74w/map,-14.7865357032,-0.765464492787,0.165,0.0,0.0,-0.989344324465,0.145594669025,0,69.2210845947,61.0158119202,98.6574630737,5.88054895401
1646363562333954499,161,1646363562333954499,r1000913c5/base_front_laser_link,0,1646363562333954499,v/m1vw10zy74w/map,-14.8012172467,-0.791277805724,0.165,0.0,0.0,-0.983646452486,0.180110123291,0,67.3419723511,61.0548629761,98.7047348022,5.88329029083
1646363562489825909,162,1646363562489825909,r1000913c5/base_front_laser_link,0,1646363562489825909,v/m1vw10zy74w/map,-14.7962211637,-0.812134851373,0.165,0.0,0.0,-0.977574995826,0.210587576881,0,67.3929519653,61.0937461853,98.7519760132,5.88607645035
1646363562727861290,163,1646363562727861290,r1000913c5/base_front_laser_link,0,1646363562727861290,v/m1vw10zy74w/map,-14.7749363761,-0.841442131142,0.165,0.0,0.0,-0.965841070144,0.259135152425,0,65.9130401611,61.123134613,98.7632751465,5.88004779816
1646363562884553070,164,1646363562884553070,r1000913c5/base_front_laser_link,0,1646363562884553070,v/m1vw10zy74w/map,-14.7606709133,-0.862048101246,0.165,0.0,0.0,-0.955495571111,0.295005446706,0,71.166305542,61.1840019226,98.9260101318,5.91400432587
1646363563121012991,165,1646363563121012991,r1000913c5/base_front_laser_link,0,1646363563121012991,v/m1vw10zy74w/map,-14.7402195732,-0.889275266234,0.165,0.0,0.0,-0.938403144753,0.34554238223,0,67.1659698486,61.220035553,98.9629592896,5.91430807114
1646363563278019336,166,1646363563278019336,r1000913c5/base_front_laser_link,0,1646363563278019336,v/m1vw10zy74w/map,-14.7336991887,-0.90565181513,0.165,0.0,0.0,-0.926124312439,0.377218448528,0,65.1249923706,61.2434196472,98.9560317993,5.90420484543
1646363563435955714,167,1646363563435955714,r1000913c5/base_front_laser_link,0,1646363563435955714,v/m1vw10zy74w/map,-14.724197296,-0.921479442193,0.165,0.0,0.0,-0.91232779949,0.409460604061,0,63.7509613037,61.2583465576,98.9273834229,5.88967895508
1646363563593222424,168,1646363563593222424,r1000913c5/base_front_laser_link,0,1646363563593222424,v/m1vw10zy74w/map,-14.7069638282,-0.936128919571,0.165,0.0,0.0,-0.897291853463,0.441437798233,0,60.478767395,61.2537307739,98.8710250854,5.87243032455
1646363563828977360,169,1646363563828977360,r1000913c5/base_front_laser_link,0,1646363563828977360,v/m1vw10zy74w/map,-14.6801034778,-0.954978491655,0.165,0.0,0.0,-0.873222320011,0.487322049403,0,55.3175468445,61.2188148499,98.8369293213,5.87270498276
1646363563987184277,170,1646363563987184277,r1000913c5/base_front_laser_link,0,1646363563987184277,v/m1vw10zy74w/map,-14.6650936243,-0.967065580469,0.165,0.0,0.0,-0.854969608465,0.518678097283,0,53.318359375,61.1726112366,98.8320922852,5.88649320602
1646363564066092814,171,1646363564066092814,r1000913c5/base_front_laser_link,0,1646363564066092814,v/m1vw10zy74w/map,-14.6543534344,-0.972175050286,0.165,0.0,0.0,-0.845629316043,0.533770606017,0,55.5738220215,61.1400604248,98.794342041,5.88476133347
1646363564222990550,172,1646363564222990550,r1000913c5/base_front_laser_link,0,1646363564222990550,v/m1vw10zy74w/map,-14.6307803682,-0.981830613392,0.165,0.0,0.0,-0.827775295196,0.561059765678,0,56.6105766296,61.1138801575,98.7470550537,5.87772607803
1646363564460947840,173,1646363564460947840,r1000913c5/base_front_laser_link,0,1646363564460947840,v/m1vw10zy74w/map,-14.6009233068,-0.988285215012,0.165,0.0,0.0,-0.801060516109,0.598583368906,0,60.7995147705,61.112071991,98.6943588257,5.86076259613
1646363564538289992,174,1646363564538289992,r1000913c5/base_front_laser_link,0,1646363564538289992,v/m1vw10zy74w/map,-14.5916962765,-0.990844512505,0.165,0.0,0.0,-0.792405590286,0.609994574143,0,59.8016166687,61.1045837402,98.6387939453,5.84473657608
1646363564776141022,175,1646363564776141022,r1000913c5/base_front_laser_link,0,1646363564776141022,v/m1vw10zy74w/map,-14.5705330477,-0.995647241659,0.165,0.0,0.0,-0.764932829997,0.644110057049,0,62.1812019348,61.1107025146,98.5964355469,5.82857847214
1646363567058062700,176,1646363567058062700,r1000913c5/base_front_laser_link,0,1646363567058062700,v/m1vw10zy74w/map,-14.5251150364,-1.00088348257,0.165,0.0,0.0,-0.720385968109,0.693573396947,0,61.8762245178,61.1150245667,98.5518722534,5.81228113174
1646363567217072947,177,1646363567217072947,r1000913c5/base_front_laser_link,0,1646363567217072947,v/m1vw10zy74w/map,-14.5251715133,-1.00182570075,0.165,0.0,0.0,-0.720402121098,0.693556619114,0,63.0016326904,61.1256256104,98.5183181763,5.79756355286
1646363567373999274,178,1646363567373999274,r1000913c5/base_front_laser_link,0,1646363567373999274,v/m1vw10zy74w/map,-14.5273628014,-1.01323028398,0.165,0.0,0.0,-0.722229092409,0.691653914959,0,64.1095962524,61.1422958374,98.4989624023,5.78555583954
1646363567531797518,179,1646363567531797518,r1000913c5/base_front_laser_link,0,1646363567531797518,v/m1vw10zy74w/map,-14.5287326861,-1.04070678212,0.165,0.0,0.0,-0.722481414172,0.691390342842,0,63.9225502014,61.1577415466,98.4770202637,5.77309322357
1646363567610941573,180,1646363567610941573,r1000913c5/base_front_laser_link,0,1646363567610941573,v/m1vw10zy74w/map,-14.5303724642,-1.06443278286,0.165,0.0,0.0,-0.723139466427,0.690702042921,0,62.9934425354,61.1678848267,98.4438400269,5.75865125656
1646363567847045548,181,1646363567847045548,r1000913c5/base_front_laser_link,0,1646363567847045548,v/m1vw10zy74w/map,-14.5374199103,-1.13687741741,0.165,0.0,0.0,-0.72667140141,0.686985206808,0,61.0013923645,61.1669692993,98.3951721191,5.74273443222
1646363568082229975,182,1646363568082229975,r1000913c5/base_front_laser_link,0,1646363568082229975,v/m1vw10zy74w/map,-14.5454386729,-1.20481343012,0.165,0.0,0.0,-0.730649707302,0.68275252121,0,62.9905662537,61.1769332886,98.3625030518,5.72852230072
1646363568239125788,183,1646363568239125788,r1000913c5/base_front_laser_link,0,1646363568239125788,v/m1vw10zy74w/map,-14.5519727715,-1.24865325247,0.165,0.0,0.0,-0.734050877478,0.679094477428,0,61.1596221924,61.1768379211,98.3153839111,5.71284914017
1646363568397628517,184,1646363568397628517,r1000913c5/base_front_laser_link,0,1646363568397628517,v/m1vw10zy74w/map,-14.5581633833,-1.29279875349,0.165,0.0,0.0,-0.735413799415,0.677618287556,0,62.9427146912,61.1863861084,98.2827377319,5.69878339767
1646363568476237122,185,1646363568476237122,r1000913c5/base_front_laser_link,0,1646363568476237122,v/m1vw10zy74w/map,-14.5611754158,-1.31511871076,0.165,0.0,0.0,-0.736573701172,0.676357289265,0,60.9466285706,61.1850967407,98.2352600098,5.68338727951
1646363568633074747,186,1646363568633074747,r1000913c5/base_front_laser_link,0,1646363568633074747,v/m1vw10zy74w/map,-14.5659507695,-1.35915085236,0.165,0.0,0.0,-0.737510960733,0.675335163307,0,58.9722709656,61.1732635498,98.1844558716,5.67039823532
1646363568790912254,187,1646363568790912254,r1000913c5/base_front_laser_link,0,1646363568790912254,v/m1vw10zy74w/map,-14.5629077722,-1.40420939898,0.165,0.0,0.0,-0.733928907164,0.679226294565,0,61.0150489807,61.1724205017,98.1381072998,5.65522813797
1646363568949173144,188,1646363568949173144,r1000913c5/base_front_laser_link,0,1646363568949173144,v/m1vw10zy74w/map,-14.5596285787,-1.44933139984,0.165,0.0,0.0,-0.726592753349,0.687068388722,0,63.1230888367,61.1827430725,98.1085968018,5.64195203781
1646363569028070323,189,1646363569028070323,r1000913c5/base_front_laser_link,0,1646363569028070323,v/m1vw10zy74w/map,-14.5587766021,-1.47182913531,0.165,0.0,0.0,-0.724491653235,0.689283573279,0,62.0377883911,61.1872406006,98.0692901611,5.627348423
1646363569107109246,190,1646363569107109246,r1000913c5/base_front_laser_link,0,1646363569107109246,v/m1vw10zy74w/map,-14.5577065778,-1.49427171551,0.165,0.0,0.0,-0.722297157693,0.691582833787,0,63.0071525574,61.1967697144,98.0389633179,5.61406469345
1646363569186228682,191,1646363569186228682,r1000913c5/base_front_laser_link,0,1646363569186228682,v/m1vw10zy74w/map,-14.5563937727,-1.51669882781,0.165,0.0,0.0,-0.71999915696,0.693974937572,0,63.6877403259,61.2097434998,98.0164489746,5.60223388672
1646363569264204030,192,1646363569264204030,r1000913c5/base_front_laser_link,0,1646363569264204030,v/m1vw10zy74w/map,-14.5537707793,-1.54899854069,0.165,0.0,0.0,-0.718058049938,0.695983215976,0,65.5011444092,61.2319793701,98.0204544067,5.59615802765
1646363569422044990,193,1646363569422044990,r1000913c5/base_front_laser_link,0,1646363569422044990,v/m1vw10zy74w/map,-14.5508263812,-1.59511793391,0.165,0.0,0.0,-0.71390799707,0.700239510253,0,62.5788879395,61.2389221191,97.9863586426,5.58247900009
1646363569501253820,194,1646363569501253820,r1000913c5/base_front_laser_link,0,1646363569501253820,v/m1vw10zy74w/map,-14.5493351875,-1.61761989747,0.165,0.0,0.0,-0.711941622184,0.702238653594,0,61.5116462708,61.240322113,97.9446411133,5.56810665131
1646363569658506534,195,1646363569658506534,r1000913c5/base_front_laser_link,0,1646363569658506534,v/m1vw10zy74w/map,-14.5465534499,-1.66218439951,0.165,0.0,0.0,-0.708595401145,0.705615020728,0,63.128162384,61.2499542236,97.9162979126,5.55544805527
1646363575177542551,196,1646363575177542551,r1000913c5/base_front_laser_link,0,1646363575177542551,v/m1vw10zy74w/map,-14.5492973851,-2.56147873698,0.165,0.0,0.0,-0.707661958358,0.706551167782,0,50.0638618469,61.1931724548,97.9879989624,5.59827709198
1646363575336565309,197,1646363575336565309,r1000913c5/base_front_laser_link,0,1646363575336565309,v/m1vw10zy74w/map,-14.5492965007,-2.59359570597,0.165,0.0,0.0,-0.707609523261,0.706603681416,0,52.3337745667,61.1484260559,98.0067214966,5.61943292618
1646363578803763527,198,1646363578803763527,r1000913c5/base_front_laser_link,0,1646363578803763527,v/m1vw10zy74w/map,-14.5525177237,-2.7609455824,0.165,0.0,0.0,-0.709076519658,0.705131540402,0,47.9263877869,61.0819854736,98.1311340332,5.68304872513
1646363579039779582,199,1646363579039779582,r1000913c5/base_front_laser_link,0,1646363579039779582,v/m1vw10zy74w/map,-14.552516117,-2.76088450348,0.165,0.0,0.0,-0.709075187204,0.705132880309,0,49.611366272,61.0246315002,98.2040863037,5.72648429871
1646363579197782348,200,1646363579197782348,r1000913c5/base_front_laser_link,0,1646363579197782348,v/m1vw10zy74w/map,-14.5525581238,-2.75821943256,0.165,0.0,0.0,-0.709135268649,0.705072457807,0,46.743686676,60.9535827637,98.3544387817,5.80028581619
1646363579276790758,201,1646363579276790758,r1000913c5/base_front_laser_link,0,1646363579276790758,v/m1vw10zy74w/map,-14.5526563409,-2.75340042192,0.165,0.0,0.0,-0.709268417104,0.704938516822,0,46.1429481506,60.8802604675,98.5170593262,5.87893295288
1646363579513037893,202,1646363579513037893,r1000913c5/base_front_laser_link,0,1646363579513037893,v/m1vw10zy74w/map,-14.5533858188,-2.71917765144,0.165,0.0,0.0,-0.710282717928,0.703916515371,0,48.4699058533,60.8191261292,98.60521698,5.92869758606
1646363579671943095,203,1646363579671943095,r1000913c5/base_front_laser_link,0,1646363579671943095,v/m1vw10zy74w/map,-14.5528561144,-2.68857838987,0.165,0.0,0.0,-0.710009739408,0.704191855921,0,53.3136672974,60.782333374,98.5944671631,5.93737649918
1646363579749573903,204,1646363579749573903,r1000913c5/base_front_laser_link,0,1646363579749573903,v/m1vw10zy74w/map,-14.5531029548,-2.66800955068,0.165,0.0,0.0,-0.710457864528,0.703739740764,0,52.4457626343,60.7416687012,98.595741272,5.95135736465
1646363579827494030,205,1646363579827494030,r1000913c5/base_front_laser_link,0,1646363579827494030,v/m1vw10zy74w/map,-14.5529880879,-2.6442643914,0.165,0.0,0.0,-0.710572992763,0.703623494459,0,54.1087913513,60.7094688416,98.5738220215,5.95478343964
1646363579986690656,206,1646363579986690656,r1000913c5/base_front_laser_link,0,1646363579986690656,v/m1vw10zy74w/map,-14.5535884232,-2.59350735744,0.165,0.0,0.0,-0.7117954472,0.702386817463,0,48.3473396301,60.6497497559,98.6561431885,6.00213193893
1646363580222528093,207,1646363580222528093,r1000913c5/base_front_laser_link,0,1646363580222528093,v/m1vw10zy74w/map,-14.5528815094,-2.5225129692,0.165,0.0,0.0,-0.712116312192,0.702061505788,0,48.2279548645,60.5900306702,98.7377700806,6.04924631119
1646363580300753535,208,1646363580300753535,r1000913c5/base_front_laser_link,0,1646363580300753535,v/m1vw10zy74w/map,-14.5527345228,-2.50023149491,0.165,0.0,0.0,-0.712297333461,0.701877844603,0,47.4238090515,60.5270347595,98.8360977173,6.1030216217
1646363580459600041,209,1646363580459600041,r1000913c5/base_front_laser_link,0,1646363580459600041,v/m1vw10zy74w/map,-14.5531101908,-2.45586447176,0.165,0.0,0.0,-0.713465803221,0.700690051046,0,46.6837120056,60.4611129761,98.9497833252,6.16289043427
1646363580616762127,210,1646363580616762127,r1000913c5/base_front_laser_link,0,1646363580616762127,v/m1vw10zy74w/map,-14.5524094615,-2.4113920381,0.165,0.0,0.0,-0.713580048678,0.700573703566,0,45.3059272766,60.3892860413,99.0975723267,6.23609542847
1646363580773726851,211,1646363580773726851,r1000913c5/base_front_laser_link,0,1646363580773726851,v/m1vw10zy74w/map,-14.5570930126,-2.38178016594,0.165,0.0,0.0,-0.714027581098,0.700117571149,0,46.1232719421,60.3219947815,99.2159423828,6.29798173904
1646363580853783737,212,1646363580853783737,r1000913c5/base_front_laser_link,0,1646363580853783737,v/m1vw10zy74w/map,-14.5566540946,-2.35871482964,0.165,0.0,0.0,-0.714043902196,0.700100925394,0,49.0920753479,60.2692718506,99.2594223022,6.33005094528
1646363580932828418,213,1646363580932828418,r1000913c5/base_front_laser_link,0,1646363580932828418,v/m1vw10zy74w/map,-14.5560792832,-2.33596309085,0.165,0.0,0.0,-0.713909069067,0.700238417329,0,50.2478294373,60.222442627,99.2791061401,6.35222196579
1646363581088864785,214,1646363581088864785,r1000913c5/base_front_laser_link,0,1646363581088864785,v/m1vw10zy74w/map,-14.5550900558,-2.29094227073,0.165,0.0,0.0,-0.71377171297,0.700378427541,0,51.1568260193,60.1802787781,99.2826309204,6.36745071411
1646363581167758749,215,1646363581167758749,r1000913c5/base_front_laser_link,0,1646363581167758749,v/m1vw10zy74w/map,-14.5538532209,-2.27072014588,0.165,0.0,0.0,-0.712769086796,0.701398765973,0,52.7182502747,60.1457328796,99.2643814087,6.37288284302
1646363581246864727,216,1646363581246864727,r1000913c5/base_front_laser_link,0,1646363581246864727,v/m1vw10zy74w/map,-14.5536481856,-2.25060868632,0.165,0.0,0.0,-0.712725246407,0.70144331427,0,52.2767829895,60.1094703674,99.2510070801,6.38051366806
1646363581404674272,217,1646363581404674272,r1000913c5/base_front_laser_link,0,1646363581404674272,v/m1vw10zy74w/map,-14.5528558471,-2.20608527612,0.165,0.0,0.0,-0.712633730355,0.701536290124,0,57.3142166138,60.0966453552,99.2024765015,6.36860942841
1646363581483819888,218,1646363581483819888,r1000913c5/base_front_laser_link,0,1646363581483819888,v/m1vw10zy74w/map,-14.5524735553,-2.18384010444,0.165,0.0,0.0,-0.712597919318,0.70157266579,0,58.8291740417,60.0908584595,99.154548645,6.35456323624
1646363581640785302,219,1646363581640785302,r1000913c5/base_front_laser_link,0,1646363581640785302,v/m1vw10zy74w/map,-14.5599332282,-2.13212942174,0.165,0.0,0.0,-0.713015591531,0.701148177088,0,54.52085495,60.0655403137,99.1189880371,6.35115003586
1646363581798878045,220,1646363581798878045,r1000913c5/base_front_laser_link,0,1646363581798878045,v/m1vw10zy74w/map,-14.5606873615,-2.0851829341,0.165,0.0,0.0,-0.712995961189,0.701168139128,0,57.4725074768,60.0538063049,99.071105957,6.3390994072
1646363581877756582,221,1646363581877756582,r1000913c5/base_front_laser_link,0,1646363581877756582,v/m1vw10zy74w/map,-14.5602725497,-2.0623798769,0.165,0.0,0.0,-0.712959686391,0.701205023928,0,56.2313346863,60.0365905762,99.0264129639,6.32994222641
1646363581955842303,222,1646363581955842303,r1000913c5/base_front_laser_link,0,1646363581955842303,v/m1vw10zy74w/map,-14.5598734282,-2.03992058678,0.165,0.0,0.0,-0.712931767578,0.701233409628,0,58.9771728516,60.0318374634,98.9800415039,6.31606817245
1646363582034871722,223,1646363582034871722,r1000913c5/base_front_laser_link,0,1646363582034871722,v/m1vw10zy74w/map,-14.5594683042,-2.01742223581,0.165,0.0,0.0,-0.712896853184,0.701268904715,0,56.8792800903,60.0177650452,98.9339904785,6.30540990829
1646363582113781101,224,1646363582113781101,r1000913c5/base_front_laser_link,0,1646363582113781101,v/m1vw10zy74w/map,-14.5510305389,-2.00702136947,0.165,0.0,0.0,-0.714849029618,0.699278817678,0,56.7278671265,60.0031433105,98.8885650635,6.29514169693
1646363582272680306,225,1646363582272680306,r1000913c5/base_front_laser_link,0,1646363582272680306,v/m1vw10zy74w/map,-14.5498510657,-1.96025423295,0.165,0.0,0.0,-0.714900235777,0.699226467524,0,56.8972015381,59.9893989563,98.8430023193,6.28453350067
1646363582429883538,226,1646363582429883538,r1000913c5/base_front_laser_link,0,1646363582429883538,v/m1vw10zy74w/map,-14.5488516691,-1.91514799468,0.165,0.0,0.0,-0.714900635746,0.699226058589,0,58.1794815063,59.981426239,98.7967224121,6.27176523209
1646363582508663094,227,1646363582508663094,r1000913c5/base_front_laser_link,0,1646363582508663094,v/m1vw10zy74w/map,-14.5483376867,-1.89251382955,0.165,0.0,0.0,-0.714887571401,0.699239415548,0,59.475894928,59.9792098999,98.7532806396,6.25802469254
1646363582666666037,228,1646363582666666037,r1000913c5/base_front_laser_link,0,1646363582666666037,v/m1vw10zy74w/map,-14.5506513814,-1.83615840525,0.165,0.0,0.0,-0.715051235891,0.699072049256,0,62.6139564514,59.9907150269,98.7308502197,6.24671268463
1646363582823017608,229,1646363582823017608,r1000913c5/base_front_laser_link,0,1646363582823017608,v/m1vw10zy74w/map,-14.5495890736,-1.79133733425,0.165,0.0,0.0,-0.714995398957,0.699129157932,0,61.8722839355,59.9988937378,98.7017745972,6.23429346085
1646363582981304777,230,1646363582981304777,r1000913c5/base_front_laser_link,0,1646363582981304777,v/m1vw10zy74w/map,-14.5485499992,-1.74669613522,0.165,0.0,0.0,-0.714954828399,0.699170646801,0,59.321762085,59.9959640503,98.6586227417,6.22088527679
1646363583138886311,231,1646363583138886311,r1000913c5/base_front_laser_link,0,1646363583138886311,v/m1vw10zy74w/map,-14.5474789387,-1.70294258011,0.165,0.0,0.0,-0.714118104881,0.700025236889,0,58.1840858459,59.988155365,98.6137924194,6.20854520798
1646363583217995812,232,1646363583217995812,r1000913c5/base_front_laser_link,0,1646363583217995812,v/m1vw10zy74w/map,-14.5470405992,-1.68051615269,0.165,0.0,0.0,-0.714182970166,0.699959059607,0,55.1018753052,59.9671821594,98.5774307251,6.20341539383
1646363583295762123,233,1646363583295762123,r1000913c5/base_front_laser_link,0,1646363583295762123,v/m1vw10zy74w/map,-14.5465891337,-1.658394665,0.165,0.0,0.0,-0.714176015305,0.699966155727,0,62.2329521179,59.9768638611,98.552444458,6.19186067581
1646363583374928549,234,1646363583374928549,r1000913c5/base_front_laser_link,0,1646363583374928549,v/m1vw10zy74w/map,-14.5461063462,-1.63587152942,0.165,0.0,0.0,-0.714143234042,0.699999600908,0,61.4006919861,59.982925415,98.520866394,6.17931413651
1646363583453805372,235,1646363583453805372,r1000913c5/base_front_laser_link,0,1646363583453805372,v/m1vw10zy74w/map,-14.5456396587,-1.61326146784,0.165,0.0,0.0,-0.714127684375,0.700015464407,0,58.2327194214,59.9755096436,98.4771270752,6.16720485687
1646363583532829185,236,1646363583532829185,r1000913c5/base_front_laser_link,0,1646363583532829185,v/m1vw10zy74w/map,-14.5495424922,-1.57522084439,0.165,0.0,0.0,-0.713312680992,0.700845931097,0,60.6749305725,59.9784584045,98.4413375854,6.15429258347
1646363583690976218,237,1646363583690976218,r1000913c5/base_front_laser_link,0,1646363583690976218,v/m1vw10zy74w/map,-14.5487560764,-1.53032905317,0.165,0.0,0.0,-0.713281464553,0.700877701404,0,57.6470527649,59.968662262,98.3981246948,6.14315462112
