%time,field.header.seq,field.header.stamp,field.header.frame_id,field.pose.header.seq,field.pose.header.stamp,field.pose.header.frame_id,field.pose.pose.position.x,field.pose.pose.position.y,field.pose.pose.position.z,field.pose.pose.orientation.x,field.pose.pose.orientation.y,field.pose.pose.orientation.z,field.pose.pose.orientation.w,field.label,field.current_error,field.mean,field.threshold,field.std_dev
1646454049786053747,0,1646454049786053747,r1000913c5/base_front_laser_link,0,1646454049786053747,v/m1vw10zy74w/map,-2.81994998938,-2.28206835339,0.165,0.0,0.0,-0.705592123052,0.708618201775,0,62.1346244812,62.1346244812,nan,nan
1646454049944631648,1,1646454049944631648,r1000913c5/base_front_laser_link,0,1646454049944631648,v/m1vw10zy74w/map,-2.82444996312,-2.28204435691,0.165,0.0,0.0,-0.7103389404,0.703859779893,0,66.4005813599,64.2676010132,93.3170700073,3.01648807526
1646454050180990928,2,1646454050180990928,r1000913c5/base_front_laser_link,0,1646454050180990928,v/m1vw10zy74w/map,-2.84315933468,-2.28057145799,0.165,0.0,0.0,-0.729761891112,0.683701383852,0,66.0019760132,64.8457260132,91.9147109985,2.35632801056
1646454050415869866,3,1646454050415869866,r1000913c5/base_front_laser_link,0,1646454050415869866,v/m1vw10zy74w/map,-2.8730257568,-2.27661761847,0.165,0.0,0.0,-0.759769537831,0.65019247103,0,66.9136734009,65.3627166748,91.9152374268,2.1841750145
1646454050574091061,4,1646454050574091061,r1000913c5/base_front_laser_link,0,1646454050574091061,v/m1vw10zy74w/map,-2.89752979151,-2.27190968782,0.165,0.0,0.0,-0.783479993143,0.621417010021,0,67.895866394,65.8693466187,92.4838790894,2.20484447479
1646454050652860188,5,1646454050652860188,r1000913c5/base_front_laser_link,0,1646454050652860188,v/m1vw10zy74w/map,-2.90974315041,-2.26891198109,0.165,0.0,0.0,-0.79501684564,0.606587351623,0,66.2762451172,65.9371643066,91.8743286133,1.97905683517
1646454050810535457,6,1646454050810535457,r1000913c5/base_front_laser_link,0,1646454050810535457,v/m1vw10zy74w/map,-2.93119824393,-2.27146592878,0.165,0.0,0.0,-0.815855698889,0.578255547825,0,64.0162124634,65.6627426147,91.5039138794,1.94705843925
1646454051125979280,7,1646454051125979280,r1000913c5/base_front_laser_link,0,1646454051125979280,v/m1vw10zy74w/map,-2.97891006551,-2.25219173367,0.165,0.0,0.0,-0.854969419429,0.518678408883,0,62.9120597839,65.3189086914,91.4635925293,2.04822850227
1646454051362007049,8,1646454051362007049,r1000913c5/base_front_laser_link,0,1646454051362007049,v/m1vw10zy74w/map,-3.01012040693,-2.23709603836,0.165,0.0,0.0,-0.880477448133,0.474088033312,0,63.4583892822,65.1121826172,91.1536254883,2.01381444931
1646454051520149853,9,1646454051520149853,r1000913c5/base_front_laser_link,0,1646454051520149853,v/m1vw10zy74w/map,-3.0296826527,-2.2232364835,0.165,0.0,0.0,-0.896888838859,0.442256046572,0,63.2753334045,64.9284973145,90.8850250244,1.98550844193
1646454051676865408,10,1646454051676865408,r1000913c5/base_front_laser_link,0,1646454051676865408,v/m1vw10zy74w/map,-3.05372662841,-2.21007672799,0.165,0.0,0.0,-0.91153305056,0.411226820304,0,60.3979988098,64.5166320801,91.4970092773,2.3267929554
1646454051992272402,11,1646454051992272402,r1000913c5/base_front_laser_link,0,1646454051992272402,v/m1vw10zy74w/map,-3.08889878558,-2.18415330041,0.165,0.0,0.0,-0.938432397793,0.345462928216,0,58.0973129272,63.9816894531,92.6535873413,2.89063286781
1646454052228835735,12,1646454052228835735,r1000913c5/base_front_laser_link,0,1646454052228835735,v/m1vw10zy74w/map,-3.11378413871,-2.16113435338,0.165,0.0,0.0,-0.955148747752,0.296126442028,0,57.4862556458,63.4820404053,93.3888015747,3.30225396156
1646454052387056013,13,1646454052387056013,r1000913c5/base_front_laser_link,0,1646454052387056013,v/m1vw10zy74w/map,-3.12744568968,-2.14687879606,0.165,0.0,0.0,-0.964593413308,0.263741439676,0,59.229850769,63.178314209,93.2886047363,3.37009692192
1646454052543984462,14,1646454052543984462,r1000913c5/base_front_laser_link,0,1646454052543984462,v/m1vw10zy74w/map,-3.14027882594,-2.12774474216,0.165,0.0,0.0,-0.973304792744,0.229516405562,0,58.4977798462,62.8662796021,93.2615203857,3.46508193016
1646454052781045249,15,1646454052781045249,r1000913c5/base_front_laser_link,0,1646454052781045249,v/m1vw10zy74w/map,-3.15586632574,-2.10153578979,0.165,0.0,0.0,-0.984235484768,0.176862971034,0,56.4158477783,62.4631271362,93.6103897095,3.71575570107
1646454052939060269,16,1646454052939060269,r1000913c5/base_front_laser_link,0,1646454052939060269,v/m1vw10zy74w/map,-3.16031388722,-2.08141980405,0.165,0.0,0.0,-0.989481545051,0.144659158037,0,58.6520843506,62.238948822,93.3827514648,3.71460199356
1646454053176159708,17,1646454053176159708,r1000913c5/base_front_laser_link,0,1646454053176159708,v/m1vw10zy74w/map,-3.16659431848,-2.01827759018,0.165,0.0,0.0,0.995108316848,-0.0987898665816,0,57.3836669922,61.9692077637,93.3123245239,3.78103923798
1646454053332098642,18,1646454053332098642,r1000913c5/base_front_laser_link,0,1646454053332098642,v/m1vw10zy74w/map,-3.17053920707,-1.99432740594,0.165,0.0,0.0,0.997939476367,-0.0641623059778,0,61.8910446167,61.96509552,92.9887542725,3.67455339432
1646454053490133237,19,1646454053490133237,r1000913c5/base_front_laser_link,0,1646454053490133237,v/m1vw10zy74w/map,-3.17254912724,-1.96975640971,0.165,0.0,0.0,0.999558695252,-0.0297054665927,0,58.9511032104,61.8143959045,92.7328720093,3.63949179649
1646454053569269736,20,1646454053569269736,r1000913c5/base_front_laser_link,0,1646454053569269736,v/m1vw10zy74w/map,-3.17314688007,-1.95773881211,0.165,0.0,0.0,0.999931121241,-0.0117368127315,0,60.1676635742,61.7359809875,92.4324569702,3.56549215317
1646454053727273360,21,1646454053727273360,r1000913c5/base_front_laser_link,0,1646454053727273360,v/m1vw10zy74w/map,-3.17481548336,-1.93195749319,0.165,0.0,0.0,0.999731165911,0.0231861145083,0,62.7734451294,61.7831382751,92.2428970337,3.486587286
1646454053963144613,22,1646454053963144613,r1000913c5/base_front_laser_link,0,1646454053963144613,v/m1vw10zy74w/map,-3.1877853917,-1.87476981648,0.165,0.0,0.0,0.996853869231,0.0792613613266,0,58.3183517456,61.6324958801,92.0790786743,3.48219442368
1646454054121133579,23,1646454054121133579,r1000913c5/base_front_laser_link,0,1646454054121133579,v/m1vw10zy74w/map,-3.18463886011,-1.84949084035,0.165,0.0,0.0,0.993337626522,0.115240443143,0,59.4088134766,61.5398406982,91.8471450806,3.43576860428
1646454054357305293,24,1646454054357305293,r1000913c5/base_front_laser_link,0,1646454054357305293,v/m1vw10zy74w/map,-3.15493672949,-1.83921985623,0.165,0.0,0.0,0.985911461083,0.167268021169,0,59.6727104187,61.4651565552,91.61743927,3.38409495354
1646454054515409432,25,1646454054515409432,r1000913c5/base_front_laser_link,0,1646454054515409432,v/m1vw10zy74w/map,-3.15270531985,-1.80835138533,0.165,0.0,0.0,0.979861416958,0.199678750891,0,57.3495178223,61.3068618774,91.5445098877,3.4125494957
1646454054830260867,26,1646454054830260867,r1000913c5/base_front_laser_link,0,1646454054830260867,v/m1vw10zy74w/map,-3.14258857331,-1.74793310831,0.165,0.0,0.0,0.963300207291,0.268426359794,0,59.1340827942,61.2263908386,91.3433074951,3.37230491638
1646454054988337072,27,1646454054988337072,r1000913c5/base_front_laser_link,0,1646454054988337072,v/m1vw10zy74w/map,-3.12954720714,-1.72791903766,0.165,0.0,0.0,0.95310917881,0.302626656571,0,58.3667602539,61.1242599487,91.1835632324,3.35310173035
1646454055303300215,28,1646454055303300215,r1000913c5/base_front_laser_link,0,1646454055303300215,v/m1vw10zy74w/map,-3.09046876273,-1.70781108071,0.165,0.0,0.0,0.931709393909,0.36320463282,0,61.1376457214,61.1247215271,91.0027694702,3.29268169403
1646454055461201947,29,1646454055461201947,r1000913c5/base_front_laser_link,0,1646454055461201947,v/m1vw10zy74w/map,-3.0733724458,-1.69256096335,0.165,0.0,0.0,0.918257906437,0.395982849713,0,61.5818099976,61.139957428,90.8494262695,3.23648929596
1646454055777199862,30,1646454055777199862,r1000913c5/base_front_laser_link,0,1646454055777199862,v/m1vw10zy74w/map,-3.0369982432,-1.65982175023,0.165,0.0,0.0,0.888668107135,0.458550973569,0,61.0726280212,61.1377868652,90.6841278076,3.18211364746
1646454055934267359,31,1646454055934267359,r1000913c5/base_front_laser_link,0,1646454055934267359,v/m1vw10zy74w/map,-3.01692749275,-1.64822039229,0.165,0.0,0.0,0.872447044777,0.488708659693,0,56.7897758484,61.0019111633,90.6719665527,3.22335147858
1646454056171316466,32,1646454056171316466,r1000913c5/base_front_laser_link,0,1646454056171316466,v/m1vw10zy74w/map,-2.9852046601,-1.63251374939,0.165,0.0,0.0,0.845695016568,0.533666505368,0,57.2452812195,60.8880729675,90.6059188843,3.23928260803
1646454056959198134,33,1646454056959198134,r1000913c5/base_front_laser_link,0,1646454056959198134,v/m1vw10zy74w/map,-2.9245804725,-1.59544241027,0.165,0.0,0.0,0.783654845852,0.621196492724,0,60.2303276062,60.8687286377,90.4441833496,3.19181895256
1646454057195900816,34,1646454057195900816,r1000913c5/base_front_laser_link,0,1646454057195900816,v/m1vw10zy74w/map,-2.92079528305,-1.57917715413,0.165,0.0,0.0,0.77687740692,0.629651883676,0,60.1384620667,60.8478622437,90.2887191772,3.14695191383
1646454057431423803,35,1646454057431423803,r1000913c5/base_front_laser_link,0,1646454057431423803,v/m1vw10zy74w/map,-2.91344700472,-1.54093751236,0.165,0.0,0.0,0.76061451718,0.649203786384,0,60.1091079712,60.8273429871,90.1396789551,3.1041123867
1646454057588427036,36,1646454057588427036,r1000913c5/base_front_laser_link,0,1646454057588427036,v/m1vw10zy74w/map,-2.90624024418,-1.52035389537,0.165,0.0,0.0,0.750744113526,0.660593124401,0,60.4658279419,60.8175697327,90.0013885498,3.06127309799
1646454057667403362,37,1646454057667403362,r1000913c5/base_front_laser_link,0,1646454057667403362,v/m1vw10zy74w/map,-2.90233485747,-1.5088520631,0.165,0.0,0.0,0.745524644614,0.666478059858,0,61.1639175415,60.8266868591,89.8871154785,3.02014398575
1646454057825851816,38,1646454057825851816,r1000913c5/base_front_laser_link,0,1646454057825851816,v/m1vw10zy74w/map,-2.8933008332,-1.48390265547,0.165,0.0,0.0,0.734064108684,0.679080175195,0,61.8044433594,60.8517570496,89.8045043945,2.98425006866
1646454057982541331,39,1646454057982541331,r1000913c5/base_front_laser_link,0,1646454057982541331,v/m1vw10zy74w/map,-2.8843024941,-1.45711534199,0.165,0.0,0.0,0.723150560064,0.690690428108,0,63.2619895935,60.9120101929,89.822883606,2.97029066086
1646454058219548150,40,1646454058219548150,r1000913c5/base_front_laser_link,0,1646454058219548150,v/m1vw10zy74w/map,-2.8215488729,-1.42246572082,0.165,0.0,0.0,0.700124278346,0.714021004502,0,64.0949478149,60.9896430969,89.9139099121,2.97475385666
1646454058377999567,41,1646454058377999567,r1000913c5/base_front_laser_link,0,1646454058377999567,v/m1vw10zy74w/map,-2.8113749264,-1.3894437222,0.165,0.0,0.0,0.690335142562,0.723489731056,0,63.9245567322,61.0595245361,89.9783630371,2.97294735909
1646454058455344507,42,1646454058455344507,r1000913c5/base_front_laser_link,0,1646454058455344507,v/m1vw10zy74w/map,-2.80574888258,-1.37262877345,0.165,0.0,0.0,0.685200207043,0.728354773629,0,64.5609741211,61.140953064,90.0973968506,2.98548102379
1646454058692455090,43,1646454058692455090,r1000913c5/base_front_laser_link,0,1646454058692455090,v/m1vw10zy74w/map,-2.77931927929,-1.30593220521,0.165,0.0,0.0,0.66437218983,0.747401895489,0,57.9708061218,61.0689048767,90.0359573364,2.98901677132
1646454058850413648,44,1646454058850413648,r1000913c5/base_front_laser_link,0,1646454058850413648,v/m1vw10zy74w/map,-2.76379872953,-1.26544029004,0.165,0.0,0.0,0.653131677761,0.757244353894,0,57.1531448364,60.9818878174,90.0177688599,3.01196074486
1646454059007406116,45,1646454059007406116,r1000913c5/base_front_laser_link,0,1646454059007406116,v/m1vw10zy74w/map,-2.74995280385,-1.22279226456,0.165,0.0,0.0,0.645199958703,0.764013752029,0,54.1498146057,60.8333625793,90.2655029297,3.14404702187
1646454059165507066,46,1646454059165507066,r1000913c5/base_front_laser_link,0,1646454059165507066,v/m1vw10zy74w/map,-2.73076329104,-1.17213292736,0.165,0.0,0.0,0.639664699743,0.76865406517,0,54.2437438965,60.693157196,90.4577026367,3.25484800339
1646454059323551900,47,1646454059323551900,r1000913c5/base_front_laser_link,0,1646454059323551900,v/m1vw10zy74w/map,-2.72333551342,-1.12214593907,0.165,0.0,0.0,0.642090713841,0.766628668391,0,53.0105209351,60.5331039429,90.7499771118,3.40562415123
1646454059402437106,48,1646454059402437106,r1000913c5/base_front_laser_link,0,1646454059402437106,v/m1vw10zy74w/map,-2.72147968362,-1.09589702347,0.165,0.0,0.0,0.645195447068,0.764017562025,0,51.7481460571,60.3538208008,91.1420059204,3.59606099129
1646454059559381188,49,1646454059559381188,r1000913c5/base_front_laser_link,0,1646454059559381188,v/m1vw10zy74w/map,-2.71627415669,-1.03378788533,0.165,0.0,0.0,0.652979664853,0.757375440115,0,50.8011169434,60.1627655029,91.5835952759,3.80694437027
1646454059638546125,50,1646454059638546125,r1000913c5/base_front_laser_link,0,1646454059638546125,v/m1vw10zy74w/map,-2.71794298223,-1.00441692109,0.165,0.0,0.0,0.659531638625,0.751676803988,0,51.9297447205,60.001335144,91.824546814,3.94107079506
1646454060032408673,51,1646454060032408673,r1000913c5/base_front_laser_link,0,1646454060032408673,v/m1vw10zy74w/map,-2.73374682803,-0.843922315285,0.165,0.0,0.0,0.69231757015,0.721592947625,0,50.7663459778,59.8237380981,92.1447906494,4.10701656342
1646454060347626992,52,1646454060347626992,r1000913c5/base_front_laser_link,0,1646454060347626992,v/m1vw10zy74w/map,-2.76397296071,-0.710945258231,0.165,0.0,0.0,0.724060949629,0.689735993857,0,56.49766922,59.7609825134,92.0397186279,4.09291362762
1646454060741660503,53,1646454060741660503,r1000913c5/base_front_laser_link,0,1646454060741660503,v/m1vw10zy74w/map,-2.84188565645,-0.585533961843,0.165,0.0,0.0,0.785055372064,0.619425591006,0,57.7400169373,59.7235565186,91.9138565063,4.06343460083
1646454060898685494,54,1646454060898685494,r1000913c5/base_front_laser_link,0,1646454060898685494,v/m1vw10zy74w/map,-2.86347168319,-0.587816219171,0.165,0.0,0.0,0.803201605631,0.595707294493,0,60.8857269287,59.7446861267,91.8307342529,4.02868318558
1646454061134466245,55,1646454061134466245,r1000913c5/base_front_laser_link,0,1646454061134466245,v/m1vw10zy74w/map,-2.89375846155,-0.600198396543,0.165,0.0,0.0,0.83139613974,0.555680176744,0,56.9830131531,59.6953697205,91.722114563,4.008913517
1646454061371313730,56,1646454061371313730,r1000913c5/base_front_laser_link,0,1646454061371313730,v/m1vw10zy74w/map,-2.92578439965,-0.619308003493,0.165,0.0,0.0,0.859658364456,0.510869353573,0,57.9530982971,59.664806366,91.603767395,3.97965478897
1646454061528548470,57,1646454061528548470,r1000913c5/base_front_laser_link,0,1646454061528548470,v/m1vw10zy74w/map,-2.94598133839,-0.633816408196,0.165,0.0,0.0,0.87755743887,0.479471523121,0,55.5623130798,59.5940704346,91.5376815796,3.98120331764
1646454061765744801,58,1646454061765744801,r1000913c5/base_front_laser_link,0,1646454061765744801,v/m1vw10zy74w/map,-2.97789396428,-0.643284348809,0.165,0.0,0.0,0.901593709558,0.432583844921,0,60.5065879822,59.609539032,91.4551010132,3.94852089882
1646454061922573243,59,1646454061922573243,r1000913c5/base_front_laser_link,0,1646454061922573243,v/m1vw10zy74w/map,-2.99615639263,-0.658450796423,0.165,0.0,0.0,0.916443244423,0.400164690786,0,59.5120506287,59.6079139709,91.352722168,3.91493606567
1646454062158592224,60,1646454062158592224,r1000913c5/base_front_laser_link,0,1646454062158592224,v/m1vw10zy74w/map,-3.02036947923,-0.688138174604,0.165,0.0,0.0,0.935927822072,0.352191867981,0,59.3534202576,59.6037406921,91.2506790161,3.88231110573
1646454063026414516,61,1646454063026414516,r1000913c5/base_front_laser_link,0,1646454063026414516,v/m1vw10zy74w/map,-3.07413464243,-0.725167973502,0.165,0.0,0.0,0.963176387903,0.268870314068,0,62.2073783875,59.6457366943,91.2393264771,3.8645298481
1646454063184453766,62,1646454063184453766,r1000913c5/base_front_laser_link,0,1646454063184453766,v/m1vw10zy74w/map,-3.09029549883,-0.724876344602,0.165,0.0,0.0,0.966302747657,0.257408235823,0,61.5741958618,59.6763458252,91.1991348267,3.84092974663
1646454063340589900,63,1646454063340589900,r1000913c5/base_front_laser_link,0,1646454063340589900,v/m1vw10zy74w/map,-3.10922484899,-0.725119961469,0.165,0.0,0.0,0.969829353965,0.243784790723,0,59.1788101196,59.6685714722,91.1010665894,3.8108317852
1646454063577780590,64,1646454063577780590,r1000913c5/base_front_laser_link,0,1646454063577780590,v/m1vw10zy74w/map,-3.14352850719,-0.724811219002,0.165,0.0,0.0,0.975135673897,0.221608703561,0,61.9485549927,59.7036476135,91.078163147,3.79150366783
1646454063734710875,65,1646454063734710875,r1000913c5/base_front_laser_link,0,1646454063734710875,v/m1vw10zy74w/map,-3.16771726131,-0.725046792996,0.165,0.0,0.0,0.977854486053,0.209285938626,0,60.9338912964,59.7222900391,91.0181045532,3.76527142525
1646454063813828327,66,1646454063813828327,r1000913c5/base_front_laser_link,0,1646454063813828327,v/m1vw10zy74w/map,-3.18127922914,-0.723616448772,0.165,0.0,0.0,0.979141965371,0.203177291176,0,62.9531517029,59.7705116272,91.0427932739,3.75742745399
1646454063892647372,67,1646454063892647372,r1000913c5/base_front_laser_link,0,1646454063892647372,v/m1vw10zy74w/map,-3.195376872,-0.722011532417,0.165,0.0,0.0,0.980361335578,0.197209664326,0,64.9477005005,59.8466453552,91.1919250488,3.7817595005
1646454064050874413,68,1646454064050874413,r1000913c5/base_front_laser_link,0,1646454064050874413,v/m1vw10zy74w/map,-3.22643821723,-0.718740210185,0.165,0.0,0.0,0.982826591071,0.184531547123,0,63.5864028931,59.900844574,91.2430953979,3.78075122833
1646454064286618407,69,1646454064286618407,r1000913c5/base_front_laser_link,0,1646454064286618407,v/m1vw10zy74w/map,-3.27666108729,-0.718003855269,0.165,0.0,0.0,0.985763891648,0.168135510596,0,63.1876678467,59.9477996826,91.2690734863,3.77375817299
1646454064444626698,70,1646454064444626698,r1000913c5/base_front_laser_link,0,1646454064444626698,v/m1vw10zy74w/map,-3.31313260243,-0.713022324847,0.165,0.0,0.0,0.98739370151,0.158283537423,0,59.8362922668,59.9462280273,91.186416626,3.74672913551
1646454064523789032,71,1646454064523789032,r1000913c5/base_front_laser_link,0,1646454064523789032,v/m1vw10zy74w/map,-3.33277348758,-0.710472888052,0.165,0.0,0.0,0.98823565489,0.152938845307,0,65.9108734131,60.0290718079,91.3873062134,3.78607797623
1646454064681667519,72,1646454064681667519,r1000913c5/base_front_laser_link,0,1646454064681667519,v/m1vw10zy74w/map,-3.37431441181,-0.706138914138,0.165,0.0,0.0,0.989989696323,0.14113965132,0,73.0115585327,60.2069129944,92.3723220825,4.05513620377
1646454064839557772,73,1646454064839557772,r1000913c5/base_front_laser_link,0,1646454064839557772,v/m1vw10zy74w/map,-3.41858841836,-0.702434470627,0.165,0.0,0.0,0.991669216974,0.128810574516,0,75.4546432495,60.4129638672,93.6131896973,4.40007638931
1646454064997584384,74,1646454064997584384,r1000913c5/base_front_laser_link,0,1646454064997584384,v/m1vw10zy74w/map,-3.46607355019,-0.704505721905,0.165,0.0,0.0,0.993325365446,0.11534608082,0,73.4692230225,60.5870475769,94.4559783936,4.62297725677
1646454065234636400,75,1646454065234636400,r1000913c5/base_front_laser_link,0,1646454065234636400,v/m1vw10zy74w/map,-3.54231082802,-0.701407805345,0.165,0.0,0.0,0.995383645753,0.0959760270501,0,76.3230819702,60.7941017151,95.5963439941,4.93408107758
1646454065313682610,76,1646454065313682610,r1000913c5/base_front_laser_link,0,1646454065313682610,v/m1vw10zy74w/map,-3.56908054146,-0.700364078274,0.165,0.0,0.0,0.995933994456,0.0900859516656,0,72.6211700439,60.9477005005,96.1980438232,5.0834479332
1646454065470922537,77,1646454065470922537,r1000913c5/base_front_laser_link,0,1646454065470922537,v/m1vw10zy74w/map,-3.61985336738,-0.708837868687,0.165,0.0,0.0,0.996996733651,0.0774436123158,0,73.4162597656,61.1075515747,96.8393936157,5.24394702911
1646454065549770028,78,1646454065549770028,r1000913c5/base_front_laser_link,0,1646454065549770028,v/m1vw10zy74w/map,-3.6487684239,-0.707900780377,0.165,0.0,0.0,0.997380612984,0.0723319628046,0,70.3607940674,61.2246818542,97.1643295288,5.31321525574
1646454065707841313,79,1646454065707841313,r1000913c5/base_front_laser_link,0,1646454065707841313,v/m1vw10zy74w/map,-3.70809009891,-0.706567671288,0.165,0.0,0.0,0.998053580331,0.0623622545224,0,68.650352478,61.3175048828,97.3505783081,5.34435844421
1646454066022998504,80,1646454066022998504,r1000913c5/base_front_laser_link,0,1646454066022998504,v/m1vw10zy74w/map,-3.83009573647,-0.709865608865,0.165,0.0,0.0,0.999046727752,0.0436535882519,0,69.3479385376,61.41664505,97.5724945068,5.38528442383
1646454066337788904,81,1646454066337788904,r1000913c5/base_front_laser_link,0,1646454066337788904,v/m1vw10zy74w/map,-3.97053822884,-0.711216922203,0.165,0.0,0.0,0.999648066538,0.0265281561284,0,64.6402435303,61.4559555054,97.5472488403,5.36376476288
1646454066574842228,82,1646454066574842228,r1000913c5/base_front_laser_link,0,1646454066574842228,v/m1vw10zy74w/map,-4.0796925354,-0.713957522619,0.165,0.0,0.0,0.999893512171,0.0145932970034,0,63.3428497314,61.4786911011,97.4836349487,5.33498048782
1646454066733915575,83,1646454066733915575,r1000913c5/base_front_laser_link,0,1646454066733915575,v/m1vw10zy74w/map,-4.15357489561,-0.716454172242,0.165,0.0,0.0,0.999967712871,0.00803574612589,0,67.6027603149,61.5515937805,97.5856323242,5.34467792511
1646454066969955493,84,1646454066969955493,r1000913c5/base_front_laser_link,0,1646454066969955493,v/m1vw10zy74w/map,-4.27567341559,-0.722418966572,0.165,0.0,0.0,0.999997994194,0.00200289977325,0,65.1758880615,61.5942344666,97.5761108398,5.32729291916
1646454067047829329,85,1646454067047829329,r1000913c5/base_front_laser_link,0,1646454067047829329,v/m1vw10zy74w/map,-4.31691087377,-0.723139960647,0.165,0.0,0.0,0.999999490479,0.0010094763695,0,62.3390960693,61.6028938293,97.4923095703,5.2964720726
1646454067126950539,86,1646454067126950539,r1000913c5/base_front_laser_link,0,1646454067126950539,v/m1vw10zy74w/map,-4.35981910203,-0.723525427262,0.165,0.0,0.0,0.999999935673,0.000358684747197,0,63.3728752136,61.6232414246,97.4302597046,5.26900672913
1646454067364327430,87,1646454067364327430,r1000913c5/base_front_laser_link,0,1646454067364327430,v/m1vw10zy74w/map,-4.48298618466,-0.729683895925,0.165,0.0,0.0,0.99999825241,-0.00186953906943,0,61.8651313782,61.6259880066,97.3420944214,5.23870134354
1646454067521992728,88,1646454067521992728,r1000913c5/base_front_laser_link,0,1646454067521992728,v/m1vw10zy74w/map,-4.56945124096,-0.732614791382,0.165,0.0,0.0,0.999997335099,-0.00230863485829,0,67.4060058594,61.6909332275,97.4252090454,5.24475955963
1646454067599999186,89,1646454067599999186,r1000913c5/base_front_laser_link,0,1646454067599999186,v/m1vw10zy74w/map,-4.6163358041,-0.732923678106,0.165,0.0,0.0,0.999997067357,-0.00242183345257,0,71.48387146,61.7997436523,97.748916626,5.31639003754
1646454067837967336,90,1646454067837967336,r1000913c5/base_front_laser_link,0,1646454067837967336,v/m1vw10zy74w/map,-4.75940947263,-0.735813372777,0.165,0.0,0.0,0.999992117374,-0.00397054012728,0,73.952003479,61.9332847595,98.247543335,5.43808698654
1646454067916954920,91,1646454067916954920,r1000913c5/base_front_laser_link,0,1646454067916954920,v/m1vw10zy74w/map,-4.8054208506,-0.734091847325,0.165,0.0,0.0,0.999994633573,-0.00327609915647,0,72.1455993652,62.0442886353,98.5800933838,5.51193380356
1646454068075025625,92,1646454068075025625,r1000913c5/base_front_laser_link,0,1646454068075025625,v/m1vw10zy74w/map,-4.901663279,-0.734965484699,0.165,0.0,0.0,0.999995578616,-0.00297367577135,0,74.3114700317,62.1761932373,99.0588378906,5.6275472641
1646454068232076638,93,1646454068232076638,r1000913c5/base_front_laser_link,0,1646454068232076638,v/m1vw10zy74w/map,-4.98236219409,-0.732063862597,0.165,0.0,0.0,0.99999754078,-0.00221775435779,0,71.8677597046,62.279296875,99.3366012573,5.68576955795
1646454068390072540,94,1646454068390072540,r1000913c5/base_front_laser_link,0,1646454068390072540,v/m1vw10zy74w/map,-5.06046484571,-0.731435129543,0.165,0.0,0.0,0.999999987796,-0.000156229714741,0,65.6573791504,62.3148536682,99.3130187988,5.66605520248
1646454068546964716,95,1646454068546964716,r1000913c5/base_front_laser_link,0,1646454068546964716,v/m1vw10zy74w/map,-5.12947651348,-0.731230689256,0.165,0.0,0.0,0.999999980897,0.00019546491555,0,60.8074073792,62.2991523743,99.2139129639,5.63825464249
1646454068704907650,96,1646454068704907650,r1000913c5/base_front_laser_link,0,1646454068704907650,v/m1vw10zy74w/map,-5.1890355334,-0.736428068304,0.165,0.0,0.0,0.999999840262,-0.000565222614455,0,59.8284645081,62.2736816406,99.11693573,5.61441898346
1646454068862098022,97,1646454068862098022,r1000913c5/base_front_laser_link,0,1646454068862098022,v/m1vw10zy74w/map,-5.24154178292,-0.737539316617,0.165,0.0,0.0,0.999999096653,-0.00134413256971,0,58.7399024963,62.2376213074,99.0280151367,5.59679889679
1646454069019971809,98,1646454069019971809,r1000913c5/base_front_laser_link,0,1646454069019971809,v/m1vw10zy74w/map,-5.29222205913,-0.737592598393,0.165,0.0,0.0,0.999999237259,-0.00123510392075,0,63.8238220215,62.2536430359,98.9649963379,5.57045221329
1646454069177903403,99,1646454069177903403,r1000913c5/base_front_laser_link,0,1646454069177903403,v/m1vw10zy74w/map,-5.34804498595,-0.738157396993,0.165,0.0,0.0,0.999999661781,-0.000822458765441,0,62.5247535706,62.2563552856,98.8832931519,5.54231357574
1646454074460369960,100,1646454074460369960,r1000913c5/base_front_laser_link,0,1646454074460369960,v/m1vw10zy74w/map,-5.75680863747,-0.734046169778,0.165,0.0,0.0,0.999999421397,0.00107573526003,0,68.1001815796,62.3142127991,98.9495315552,5.54510498047
1646454074618234657,101,1646454074618234657,r1000913c5/base_front_laser_link,0,1646454074618234657,v/m1vw10zy74w/map,-5.79070077042,-0.734041555512,0.165,0.0,0.0,0.999999519903,0.000979895011696,0,68.8087158203,62.3778877258,99.042678833,5.55493164062
1646454074775478006,102,1646454074775478006,r1000913c5/base_front_laser_link,0,1646454074775478006,v/m1vw10zy74w/map,-5.83438026337,-0.731820413058,0.165,0.0,0.0,0.999999801981,0.000629315266544,0,67.6304473877,62.4288825989,99.084312439,5.55181074142
1646454075092542438,103,1646454075092542438,r1000913c5/base_front_laser_link,0,1646454075092542438,v/m1vw10zy74w/map,-5.91697536969,-0.73178187008,0.165,0.0,0.0,0.999999941611,0.000341728710513,0,68.3093261719,62.4854240417,99.1498336792,5.5548043251
1646454075485349714,104,1646454075485349714,r1000913c5/base_front_laser_link,0,1646454075485349714,v/m1vw10zy74w/map,-6.03256191913,-0.732743001415,0.165,0.0,0.0,0.999999994276,-0.000106994359543,0,63.4402885437,62.49451828,99.0809783936,5.52881908417
1646454075643643056,105,1646454075643643056,r1000913c5/base_front_laser_link,0,1646454075643643056,v/m1vw10zy74w/map,-6.08502167496,-0.732815193586,0.165,0.0,0.0,0.999999981517,-0.000192266659172,0,68.7994232178,62.5539970398,99.1632003784,5.53640127182
1646454075880237631,106,1646454075880237631,r1000913c5/base_front_laser_link,0,1646454075880237631,v/m1vw10zy74w/map,-6.17071128876,-0.730229458516,0.165,0.0,0.0,0.999999545522,-0.000953392113941,0,65.4708938599,62.5812606812,99.1335601807,5.51743459702
1646454076194490514,107,1646454076194490514,r1000913c5/base_front_laser_link,0,1646454076194490514,v/m1vw10zy74w/map,-6.28708576388,-0.734396487959,0.165,0.0,0.0,0.999999864369,-0.000520827210203,0,66.3475189209,62.6161308289,99.1267471313,5.50353717804
1646454076352348267,108,1646454076352348267,r1000913c5/base_front_laser_link,0,1646454076352348267,v/m1vw10zy74w/map,-6.35149802288,-0.734482052734,0.165,0.0,0.0,0.999999852511,-0.000543119089676,0,63.9657821655,62.6285133362,99.0670852661,5.47952365875
1646454076511282902,109,1646454076511282902,r1000913c5/base_front_laser_link,0,1646454076511282902,v/m1vw10zy74w/map,-6.42505126994,-0.736507305041,0.165,0.0,0.0,0.999998229239,-0.00188189254231,0,63.7723007202,62.6389122009,99.0051727295,5.45542049408
1646454076747351717,110,1646454076747351717,r1000913c5/base_front_laser_link,0,1646454076747351717,v/m1vw10zy74w/map,-6.5285211945,-0.735397266272,0.165,0.0,0.0,0.999995382293,-0.0030389789712,0,63.7583808899,62.6489982605,98.9438171387,5.43160581589
1646454076904346861,111,1646454076904346861,r1000913c5/base_front_laser_link,0,1646454076904346861,v/m1vw10zy74w/map,-6.60233335492,-0.735979568872,0.165,0.0,0.0,0.999994216376,-0.00340106076878,0,65.268737793,62.6723861694,98.9106292725,5.41274738312
1646454077141685911,112,1646454077141685911,r1000913c5/base_front_laser_link,0,1646454077141685911,v/m1vw10zy74w/map,-6.71674663423,-0.734008509117,0.165,0.0,0.0,0.999991905724,-0.00402349193125,0,64.9912796021,62.6929092407,98.8717346191,5.39294290543
1646454077377637821,113,1646454077377637821,r1000913c5/base_front_laser_link,0,1646454077377637821,v/m1vw10zy74w/map,-6.84245051779,-0.726782463332,0.165,0.0,0.0,0.999990180028,-0.00443168672548,0,66.4006958008,62.7254333496,98.8661727905,5.38024568558
1646454077535511739,114,1646454077535511739,r1000913c5/base_front_laser_link,0,1646454077535511739,v/m1vw10zy74w/map,-6.93082753312,-0.726768637659,0.165,0.0,0.0,0.999985072534,-0.00546394638421,0,65.8761978149,62.7528305054,98.8467788696,5.3646478653
1646454077614499872,115,1646454077614499872,r1000913c5/base_front_laser_link,0,1646454077614499872,v/m1vw10zy74w/map,-6.9687063059,-0.723881918552,0.165,0.0,0.0,0.999977057523,-0.00677380444955,0,64.3155136108,62.7663040161,98.7960281372,5.3432431221
1646454077929354425,116,1646454077929354425,r1000913c5/base_front_laser_link,0,1646454077929354425,v/m1vw10zy74w/map,-7.15179383978,-0.728656675463,0.165,0.0,0.0,0.999956044623,-0.00937597042769,0,63.7427558899,62.7746505737,98.7374343872,5.32092761993
1646454078167294322,117,1646454078167294322,r1000913c5/base_front_laser_link,0,1646454078167294322,v/m1vw10zy74w/map,-7.29084937768,-0.729133188901,0.165,0.0,0.0,0.999960437492,-0.00889513632235,0,64.1079788208,62.785949707,98.6846313477,5.29956150055
1646454078324607880,118,1646454078324607880,r1000913c5/base_front_laser_link,0,1646454078324607880,v/m1vw10zy74w/map,-7.38932261583,-0.729374154258,0.165,0.0,0.0,0.999962789639,-0.00862666428891,0,64.4375915527,62.7998275757,98.637512207,5.27922964096
1646454078639436273,119,1646454078639436273,r1000913c5/base_front_laser_link,0,1646454078639436273,v/m1vw10zy74w/map,-7.59183898026,-0.731574862572,0.165,0.0,0.0,0.999957129712,-0.00925952145808,0,61.5166702271,62.7891349792,98.5640487671,5.25830602646
1646454078876485541,120,1646454078876485541,r1000913c5/base_front_laser_link,0,1646454078876485541,v/m1vw10zy74w/map,-7.75194615795,-0.730098205337,0.165,0.0,0.0,0.999969040948,-0.00786874488958,0,61.0975914001,62.7751541138,98.4909820557,5.23860788345
1646454079192614419,121,1646454079192614419,r1000913c5/base_front_laser_link,0,1646454079192614419,v/m1vw10zy74w/map,-7.97193673985,-0.734469479313,0.165,0.0,0.0,0.999977288154,-0.00673967187121,0,67.0982437134,62.8105888367,98.5053253174,5.23157739639
1646454079428480196,122,1646454079428480196,r1000913c5/base_front_laser_link,0,1646454079428480196,v/m1vw10zy74w/map,-8.11089446421,-0.729965478574,0.165,0.0,0.0,0.999993132103,-0.00370617686694,0,67.3632278442,62.8476028442,98.5263214111,5.22623872757
1646454079743583914,123,1646454079743583914,r1000913c5/base_front_laser_link,0,1646454079743583914,v/m1vw10zy74w/map,-8.26661219256,-0.726524690549,0.165,0.0,0.0,0.999989676348,-0.00454391868033,0,69.440322876,62.9007720947,98.6163101196,5.2385134697
1646454079981535891,124,1646454079981535891,r1000913c5/base_front_laser_link,0,1646454079981535891,v/m1vw10zy74w/map,-8.36613264534,-0.724640610764,0.165,0.0,0.0,0.999977470298,-0.00671259242333,0,67.7805175781,62.9398078918,98.646522522,5.23557186127
1646454080139562259,125,1646454080139562259,r1000913c5/base_front_laser_link,0,1646454080139562259,v/m1vw10zy74w/map,-8.42550909141,-0.726038584335,0.165,0.0,0.0,0.999944911619,-0.0104963672997,0,67.8017120361,62.9783935547,98.67603302,5.23254489899
1646454080295449190,126,1646454080295449190,r1000913c5/base_front_laser_link,0,1646454080295449190,v/m1vw10zy74w/map,-8.48117496645,-0.728095526397,0.165,0.0,0.0,0.999937689411,-0.0111632116717,0,67.3653945923,63.0129394531,98.6917114258,5.22625780106
1646454080532440773,127,1646454080532440773,r1000913c5/base_front_laser_link,0,1646454080532440773,v/m1vw10zy74w/map,-8.55594708144,-0.729488775276,0.165,0.0,0.0,0.999935170118,-0.0113866396263,0,68.5181732178,63.0559463501,98.7409515381,5.22833442688
1646454080690598592,128,1646454080690598592,r1000913c5/base_front_laser_link,0,1646454080690598592,v/m1vw10zy74w/map,-8.60540103125,-0.731874484045,0.165,0.0,0.0,0.999913629827,-0.0131427883892,0,70.504486084,63.1136894226,98.8606872559,5.24900007248
1646454080847613521,129,1646454080847613521,r1000913c5/base_front_laser_link,0,1646454080847613521,v/m1vw10zy74w/map,-8.65837000539,-0.734919900108,0.165,0.0,0.0,0.999786560627,-0.0206599416771,0,72.0877151489,63.1827201843,99.0452880859,5.28752374649
1646454081005423622,130,1646454081005423622,r1000913c5/base_front_laser_link,0,1646454081005423622,v/m1vw10zy74w/map,-8.70410140534,-0.747202898852,0.165,0.0,0.0,0.999379086498,-0.0352340952896,0,71.5584869385,63.2466583252,99.1998825073,5.31774139404
1646454081242542634,131,1646454081242542634,r1000913c5/base_front_laser_link,0,1646454081242542634,v/m1vw10zy74w/map,-8.77093222429,-0.767378680895,0.165,0.0,0.0,0.998426126601,-0.0560827042962,0,75.1849212646,63.337097168,99.5321578979,5.39835357666
1646454081477699331,132,1646454081477699331,r1000913c5/base_front_laser_link,0,1646454081477699331,v/m1vw10zy74w/map,-8.8345588653,-0.79331975419,0.165,0.0,0.0,0.997052611541,-0.076720856482,0,76.2687225342,63.4343299866,99.914894104,5.49352264404
1646454081635672557,133,1646454081635672557,r1000913c5/base_front_laser_link,0,1646454081635672557,v/m1vw10zy74w/map,-8.87008564578,-0.80299483574,0.165,0.0,0.0,0.996268630064,-0.0863065278587,0,72.6192703247,63.502872467,100.093025208,5.53005027771
1646454081872278521,134,1646454081872278521,r1000913c5/base_front_laser_link,0,1646454081872278521,v/m1vw10zy74w/map,-8.93079307427,-0.828863020983,0.165,0.0,0.0,0.994426838106,-0.105428950743,0,73.8590698242,63.5795860291,100.322616577,5.58101129532
1646454082030599076,135,1646454082030599076,r1000913c5/base_front_laser_link,0,1646454082030599076,v/m1vw10zy74w/map,-8.96490629006,-0.842969674682,0.165,0.0,0.0,-0.99317875375,0.116601728543,0,72.899307251,63.6481132507,100.500427246,5.61743879318
1646454082187698606,136,1646454082187698606,r1000913c5/base_front_laser_link,0,1646454082187698606,v/m1vw10zy74w/map,-8.98972131048,-0.859833771344,0.165,0.0,0.0,-0.991266390839,0.131874722346,0,72.2895736694,63.71118927,100.646888733,5.64523410797
1646454082424605289,137,1646454082424605289,r1000913c5/base_front_laser_link,0,1646454082424605289,v/m1vw10zy74w/map,-9.00058844035,-0.874305675385,0.165,0.0,0.0,-0.988254235221,0.152818737623,0,71.9431381226,63.7708396912,100.77507019,5.66807699203
1646454082580766065,138,1646454082580766065,r1000913c5/base_front_laser_link,0,1646454082580766065,v/m1vw10zy74w/map,-8.99335609929,-0.891080496465,0.165,0.0,0.0,-0.983758697084,0.179496033138,0,68.684135437,63.806186676,100.794761658,5.66285848618
1646454082739841707,139,1646454082739841707,r1000913c5/base_front_laser_link,0,1646454082739841707,v/m1vw10zy74w/map,-8.98367668066,-0.915674456747,0.165,0.0,0.0,-0.975911422393,0.218167127776,0,70.8675460815,63.8566246033,100.87840271,5.67392492294
1646454082897633952,140,1646454082897633952,r1000913c5/base_front_laser_link,0,1646454082897633952,v/m1vw10zy74w/map,-8.9715520854,-0.939034304149,0.165,0.0,0.0,-0.96658928752,0.256330156736,0,66.5445861816,63.8756904602,100.850151062,5.65815448761
1646454083132474444,141,1646454083132474444,r1000913c5/base_front_laser_link,0,1646454083132474444,v/m1vw10zy74w/map,-8.9578747359,-0.972712609339,0.165,0.0,0.0,-0.951619547695,0.307278760158,0,67.6934890747,63.9025764465,100.844024658,5.64715003967
1646454083290686623,142,1646454083290686623,r1000913c5/base_front_laser_link,0,1646454083290686623,v/m1vw10zy74w/map,-8.95351797346,-0.990665456392,0.165,0.0,0.0,-0.941008334013,0.33838338511,0,63.7070236206,63.9012069702,100.782974243,5.62725448608
1646454083446762342,143,1646454083446762342,r1000913c5/base_front_laser_link,0,1646454083446762342,v/m1vw10zy74w/map,-8.93851996704,-1.00772379113,0.165,0.0,0.0,-0.928990347929,0.370103949526,0,67.7928009033,63.9282341003,100.77897644,5.61691379547
1646454083525895640,144,1646454083525895640,r1000913c5/base_front_laser_link,0,1646454083525895640,v/m1vw10zy74w/map,-8.92583184025,-1.01602817765,0.165,0.0,0.0,-0.923391712177,0.383859018239,0,64.8163452148,63.9343566895,100.72794342,5.59786272049
1646454083683745851,145,1646454083683745851,r1000913c5/base_front_laser_link,0,1646454083683745851,v/m1vw10zy74w/map,-8.90903071808,-1.03145776609,0.165,0.0,0.0,-0.909780527714,0.415089618507,0,66.3199310303,63.9506988525,100.696754456,5.58201885223
1646454084077933024,146,1646454084077933024,r1000913c5/base_front_laser_link,0,1646454084077933024,v/m1vw10zy74w/map,-8.85535015041,-1.05303558249,0.165,0.0,0.0,-0.871747879378,0.489954727296,0,62.1193733215,63.9382400513,100.632995605,5.56491947174
1646454084156748758,147,1646454084156748758,r1000913c5/base_front_laser_link,0,1646454084156748758,v/m1vw10zy74w/map,-8.8451105388,-1.05900298192,0.165,0.0,0.0,-0.86293797058,0.505309864273,0,63.7488327026,63.936958313,100.574905396,5.54598093033
1646454084313840276,148,1646454084313840276,r1000913c5/base_front_laser_link,0,1646454084313840276,v/m1vw10zy74w/map,-8.81867807612,-1.07270125985,0.165,0.0,0.0,-0.844344499576,0.535800677524,0,64.6530685425,63.9417648315,100.524337769,5.52752399445
1646454084392963684,149,1646454084392963684,r1000913c5/base_front_laser_link,0,1646454084392963684,v/m1vw10zy74w/map,-8.80979943662,-1.08233107492,0.165,0.0,0.0,-0.835101517075,0.550095860901,0,61.3892021179,63.924747467,100.463401794,5.51288509369
1646454084787904754,150,1646454084787904754,r1000913c5/base_front_laser_link,0,1646454084787904754,v/m1vw10zy74w/map,-8.75808480072,-1.10175673709,0.165,0.0,0.0,-0.789221660595,0.614108435415,0,62.8819046021,63.917842865,100.403244019,5.49513339996
1646454084865872481,151,1646454084865872481,r1000913c5/base_front_laser_link,0,1646454084865872481,v/m1vw10zy74w/map,-8.74311961915,-1.09814374055,0.165,0.0,0.0,-0.782042238429,0.623225430573,0,61.4059562683,63.9013175964,100.343406677,5.48069572449
1646454084945914912,152,1646454084945914912,r1000913c5/base_front_laser_link,0,1646454084945914912,v/m1vw10zy74w/map,-8.7331000567,-1.09914261947,0.165,0.0,0.0,-0.773285171442,0.63405839134,0,59.0975265503,63.8699188232,100.299194336,5.4764251709
1646454085102810182,153,1646454085102810182,r1000913c5/base_front_laser_link,0,1646454085102810182,v/m1vw10zy74w/map,-8.71377819393,-1.10009440134,0.165,0.0,0.0,-0.75779096404,0.652497398323,0,59.3837890625,63.8407897949,100.252159119,5.47045660019
1646454101033707922,154,1646454101033707922,r1000913c5/base_front_laser_link,0,1646454101033707922,v/m1vw10zy74w/map,-8.6727286358,-1.11331324309,0.165,0.0,0.0,-0.711233358991,0.70295597946,0,64.4796142578,63.844909668,100.203636169,5.45290803909
1646454101191802465,155,1646454101191802465,r1000913c5/base_front_laser_link,0,1646454101191802465,v/m1vw10zy74w/map,-8.67271387172,-1.11353788491,0.165,0.0,0.0,-0.711215107614,0.702974445269,0,65.517616272,63.855632782,100.1664505,5.4369392395
1646454101270775456,156,1646454101270775456,r1000913c5/base_front_laser_link,0,1646454101270775456,v/m1vw10zy74w/map,-8.67257705,-1.11706824617,0.165,0.0,0.0,-0.711028866487,0.70316281971,0,65.464805603,63.8658828735,100.128898621,5.42100667953
1646454101349493943,157,1646454101349493943,r1000913c5/base_front_laser_link,0,1646454101349493943,v/m1vw10zy74w/map,-8.67197348324,-1.12250972537,0.165,0.0,0.0,-0.710333294421,0.703865477799,0,62.5174179077,63.8573493958,100.071685791,5.4047794342
1646454101428868239,158,1646454101428868239,r1000913c5/base_front_laser_link,0,1646454101428868239,v/m1vw10zy74w/map,-8.66938115192,-1.12981739656,0.165,0.0,0.0,-0.707549589076,0.706663695826,0,63.8357849121,63.8572120667,100.02015686,5.38764858246
1646454101507641402,159,1646454101507641402,r1000913c5/base_front_laser_link,0,1646454101507641402,v/m1vw10zy74w/map,-8.66542209159,-1.14346418551,0.165,0.0,0.0,-0.703360783687,0.710833038041,0,65.6966781616,63.8687095642,99.986656189,5.37264823914
1646454101743779947,160,1646454101743779947,r1000913c5/base_front_laser_link,0,1646454101743779947,v/m1vw10zy74w/map,-8.65362134153,-1.20608361443,0.165,0.0,0.0,-0.692309589682,0.721600604236,0,62.8982162476,63.8626823425,99.9318161011,5.3563785553
1646454101980686110,161,1646454101980686110,r1000913c5/base_front_laser_link,0,1646454101980686110,v/m1vw10zy74w/map,-8.64383840035,-1.27576357565,0.165,0.0,0.0,-0.683492440498,0.7299575904,0,65.5444412231,63.8730621338,99.8971176147,5.34135246277
1646454102058197567,162,1646454102058197567,r1000913c5/base_front_laser_link,0,1646454102058197567,v/m1vw10zy74w/map,-8.64278644574,-1.29385012162,0.165,0.0,0.0,-0.683771570157,0.729696128429,0,66.6748657227,63.8902511597,99.8783340454,5.32936143875
1646454102373697614,163,1646454102373697614,r1000913c5/base_front_laser_link,0,1646454102373697614,v/m1vw10zy74w/map,-8.64312531281,-1.38085651043,0.165,0.0,0.0,-0.693361841632,0.72058958955,0,68.0146484375,63.9154014587,99.8836212158,5.32274103165
1646454102452893765,164,1646454102452893765,r1000913c5/base_front_laser_link,0,1646454102452893765,v/m1vw10zy74w/map,-8.64560729366,-1.40359278639,0.165,0.0,0.0,-0.697136425727,0.716938493823,0,71.087059021,63.9588661194,99.9662017822,5.33577823639
1646454102688505343,165,1646454102688505343,r1000913c5/base_front_laser_link,0,1646454102688505343,v/m1vw10zy74w/map,-8.65633970689,-1.47047416348,0.165,0.0,0.0,-0.709378679442,0.704827559871,0,68.5269546509,63.9863853455,99.9805450439,5.331387043
1646454102926007652,166,1646454102926007652,r1000913c5/base_front_laser_link,0,1646454102926007652,v/m1vw10zy74w/map,-8.67698973298,-1.55105829833,0.165,0.0,0.0,-0.718040278114,0.696001551009,0,73.240196228,64.0417938232,100.131767273,5.36332321167
1646454103004519507,167,1646454103004519507,r1000913c5/base_front_laser_link,0,1646454103004519507,v/m1vw10zy74w/map,-8.68128827151,-1.57306905347,0.165,0.0,0.0,-0.721685523546,0.692221066643,0,73.0759048462,64.0955734253,100.272994995,5.39247560501
1646454103083788060,168,1646454103083788060,r1000913c5/base_front_laser_link,0,1646454103083788060,v/m1vw10zy74w/map,-8.68482899514,-1.59410316756,0.165,0.0,0.0,-0.724339505652,0.68944345711,0,76.4310531616,64.1685638428,100.547042847,5.4594950676
1646454103162367819,169,1646454103162367819,r1000913c5/base_front_laser_link,0,1646454103162367819,v/m1vw10zy74w/map,-8.68934773957,-1.62811502384,0.165,0.0,0.0,-0.723185083545,0.69065428033,0,73.0796737671,64.2209777832,100.679153442,5.48605728149
1646454103319829830,170,1646454103319829830,r1000913c5/base_front_laser_link,0,1646454103319829830,v/m1vw10zy74w/map,-8.69312189745,-1.67417075318,0.165,0.0,0.0,-0.724521737117,0.689251951354,0,72.1247711182,64.2671966553,100.776771545,5.50319051743
1646454109218972381,171,1646454109218972381,r1000913c5/base_front_laser_link,0,1646454109218972381,v/m1vw10zy74w/map,-8.68302552967,-2.56059528613,0.165,0.0,0.0,-0.71606890354,0.698029602082,0,59.0350875854,64.2367782593,100.741462708,5.50155925751
1646454109376345085,172,1646454109376345085,r1000913c5/base_front_laser_link,0,1646454109376345085,v/m1vw10zy74w/map,-8.6833340451,-2.59217980124,0.165,0.0,0.0,-0.716118662915,0.697978553127,0,55.6542625427,64.187171936,100.759819031,5.52421569824
1646454113234551978,173,1646454113234551978,r1000913c5/base_front_laser_link,0,1646454113234551978,v/m1vw10zy74w/map,-8.68658150368,-2.74968486924,0.165,0.0,0.0,-0.716755144175,0.6973249338,0,64.7534637451,64.1904220581,100.715606689,5.50839424133
1646454113313410722,174,1646454113313410722,r1000913c5/base_front_laser_link,0,1646454113313410722,v/m1vw10zy74w/map,-8.68658231457,-2.7496383134,0.165,0.0,0.0,-0.716757320579,0.697322696746,0,65.3553390503,64.1970825195,100.676826477,5.49324846268
1646454113469493376,175,1646454113469493376,r1000913c5/base_front_laser_link,0,1646454113469493376,v/m1vw10zy74w/map,-8.68647421848,-2.7466174148,0.165,0.0,0.0,-0.716731339631,0.697349400796,0,65.6689910889,64.2054443359,100.641410828,5.47865438461
1646454113627579638,176,1646454113627579638,r1000913c5/base_front_laser_link,0,1646454113627579638,v/m1vw10zy74w/map,-8.68572491072,-2.73192102934,0.165,0.0,0.0,-0.71636327918,0.697727491391,0,63.3032264709,64.2003479004,100.590812683,5.46348905563
1646454113706414050,177,1646454113706414050,r1000913c5/base_front_laser_link,0,1646454113706414050,v/m1vw10zy74w/map,-8.68577112671,-2.72137190734,0.165,0.0,0.0,-0.716705421799,0.697376037991,0,62.7798500061,64.1923675537,100.539588928,5.4490737915
1646454113943690243,178,1646454113943690243,r1000913c5/base_front_laser_link,0,1646454113943690243,v/m1vw10zy74w/map,-8.68820838276,-2.67076825386,0.165,0.0,0.0,-0.720920297893,0.693017982513,0,62.1854858398,64.1811599731,100.488601685,5.43581581116
1646454114179586543,179,1646454114179586543,r1000913c5/base_front_laser_link,0,1646454114179586543,v/m1vw10zy74w/map,-8.68876447176,-2.60053445765,0.165,0.0,0.0,-0.724690461962,0.68907454919,0,62.6128005981,64.1724395752,100.438056946,5.4218711853
1646454114258575186,180,1646454114258575186,r1000913c5/base_front_laser_link,0,1646454114258575186,v/m1vw10zy74w/map,-8.68859840106,-2.5765129916,0.165,0.0,0.0,-0.725791804479,0.687914425311,0,66.709236145,64.1864547729,100.416687012,5.41007614136
1646454114416766060,181,1646454114416766060,r1000913c5/base_front_laser_link,0,1646454114416766060,v/m1vw10zy74w/map,-8.68555842766,-2.52977397568,0.165,0.0,0.0,-0.725237055656,0.688499246988,0,62.4416732788,64.1768722534,100.366851807,5.39666032791
1646454114574673088,182,1646454114574673088,r1000913c5/base_front_laser_link,0,1646454114574673088,v/m1vw10zy74w/map,-8.68245258034,-2.48498622862,0.165,0.0,0.0,-0.724372680635,0.689408601302,0,63.337310791,64.1722869873,100.31880188,5.3821721077
1646454114653887998,183,1646454114653887998,r1000913c5/base_front_laser_link,0,1646454114653887998,v/m1vw10zy74w/map,-8.68102558566,-2.46265877778,0.165,0.0,0.0,-0.724031879263,0.689766509633,0,61.8835296631,64.1598434448,100.270141602,5.37009763718
1646454114889524342,184,1646454114889524342,r1000913c5/base_front_laser_link,0,1646454114889524342,v/m1vw10zy74w/map,-8.67869469272,-2.38364473745,0.165,0.0,0.0,-0.723885918355,0.689919688954,0,67.6913299561,64.1789321899,100.264259338,5.36177539825
1646454115047500132,185,1646454115047500132,r1000913c5/base_front_laser_link,0,1646454115047500132,v/m1vw10zy74w/map,-8.6766278748,-2.33872261808,0.165,0.0,0.0,-0.723993303516,0.689806999431,0,62.8527679443,64.1718063354,100.216247559,5.34814834595
1646454115127434060,186,1646454115127434060,r1000913c5/base_front_laser_link,0,1646454115127434060,v/m1vw10zy74w/map,-8.67548571671,-2.3158064696,0.165,0.0,0.0,-0.723957384302,0.689844696808,0,65.6618270874,64.1797714233,100.184371948,5.33486509323
1646454115285542702,187,1646454115285542702,r1000913c5/base_front_laser_link,0,1646454115285542702,v/m1vw10zy74w/map,-8.67597232459,-2.28753937095,0.165,0.0,0.0,-0.723432922073,0.690394674995,0,58.5534133911,64.1498413086,100.158988953,5.33638191223
1646454115363616544,188,1646454115363616544,r1000913c5/base_front_laser_link,0,1646454115363616544,v/m1vw10zy74w/map,-8.6749211416,-2.26530931204,0.165,0.0,0.0,-0.723420618348,0.690407567274,0,59.590511322,64.1257247925,100.123199463,5.33249330521
1646454115520538176,189,1646454115520538176,r1000913c5/base_front_laser_link,0,1646454115520538176,v/m1vw10zy74w/map,-8.6727927831,-2.22028314741,0.165,0.0,0.0,-0.723393496778,0.690435984592,0,50.1741104126,64.0522918701,100.293762207,5.41382455826
1646454115599646273,190,1646454115599646273,r1000913c5/base_front_laser_link,0,1646454115599646273,v/m1vw10zy74w/map,-8.67458141298,-2.21263844993,0.165,0.0,0.0,-0.72357183923,0.690249080748,0,52.7954025269,63.9933547974,100.375297546,5.46064805984
1646454115837005668,191,1646454115837005668,r1000913c5/base_front_laser_link,0,1646454115837005668,v/m1vw10zy74w/map,-8.67162563911,-2.1467522824,0.165,0.0,0.0,-0.723500525524,0.690323829494,0,67.8379898071,64.013381958,100.373573303,5.45339727402
1646454115916607616,192,1646454115916607616,r1000913c5/base_front_laser_link,0,1646454115916607616,v/m1vw10zy74w/map,-8.67060134116,-2.1240156558,0.165,0.0,0.0,-0.723546868594,0.690275255929,0,66.8849334717,64.0282592773,100.357566833,5.44310331345
1646454116074599295,193,1646454116074599295,r1000913c5/base_front_laser_link,0,1646454116074599295,v/m1vw10zy74w/map,-8.67012684102,-2.08904673373,0.165,0.0,0.0,-0.723700493464,0.690114190378,0,70.3640365601,64.0609130859,100.404937744,5.44800710678
1646454116231398109,194,1646454116231398109,r1000913c5/base_front_laser_link,0,1646454116231398109,v/m1vw10zy74w/map,-8.66798342697,-2.04435665258,0.165,0.0,0.0,-0.723681048224,0.690134581398,0,71.9215774536,64.1012268066,100.490310669,5.46302652359
1646454116388541378,195,1646454116388541378,r1000913c5/base_front_laser_link,0,1646454116388541378,v/m1vw10zy74w/map,-8.6659131311,-2.00182726551,0.165,0.0,0.0,-0.723126640505,0.690715470937,0,68.9844360352,64.1261444092,100.506599426,5.46015310287
1646454116625694497,196,1646454116625694497,r1000913c5/base_front_laser_link,0,1646454116625694497,v/m1vw10zy74w/map,-8.66379886684,-1.93661939452,0.165,0.0,0.0,-0.723188733124,0.690650458831,0,70.0561981201,64.1562423706,100.543952942,5.46256971359
1646454116783606689,197,1646454116783606689,r1000913c5/base_front_laser_link,0,1646454116783606689,v/m1vw10zy74w/map,-8.66176456002,-1.88501150905,0.165,0.0,0.0,-0.722896753157,0.690956065373,0,69.5260162354,64.1833648682,100.569473267,5.46203517914
1646454116862609836,198,1646454116862609836,r1000913c5/base_front_laser_link,0,1646454116862609836,v/m1vw10zy74w/map,-8.66173452684,-1.86175180838,0.165,0.0,0.0,-0.722698492742,0.691163431171,0,72.022026062,64.2227554321,100.65221405,5.47648763657
1646454117178709382,199,1646454117178709382,r1000913c5/base_front_laser_link,0,1646454117178709382,v/m1vw10zy74w/map,-8.65494558413,-1.77868246676,0.165,0.0,0.0,-0.724902092813,0.688851911397,0,72.8818664551,64.2660522461,100.75680542,5.49691820145
1646454117257440462,200,1646454117257440462,r1000913c5/base_front_laser_link,0,1646454117257440462,v/m1vw10zy74w/map,-8.65970770016,-1.75458050164,0.165,0.0,0.0,-0.7263138309,0.68736323661,0,73.453453064,64.3117599487,100.875717163,5.52131938934
1646454117492542734,201,1646454117492542734,r1000913c5/base_front_laser_link,0,1646454117492542734,v/m1vw10zy74w/map,-8.65606530492,-1.6879233761,0.165,0.0,0.0,-0.72635232591,0.687322557934,0,70.783821106,64.3437957764,100.92288208,5.52636098862
1646454117730460752,202,1646454117730460752,r1000913c5/base_front_laser_link,0,1646454117730460752,v/m1vw10zy74w/map,-8.64874325333,-1.6207688216,0.165,0.0,0.0,-0.724537223875,0.689235671755,0,72.0244750977,64.3816375732,100.998512268,5.53896045685
1646454117887763176,203,1646454117887763176,r1000913c5/base_front_laser_link,0,1646454117887763176,v/m1vw10zy74w/map,-8.6465065538,-1.57602821056,0.165,0.0,0.0,-0.724536257205,0.689236687935,0,73.6556777954,64.4270935059,101.11706543,5.56332206726
1646454118124728706,204,1646454118124728706,r1000913c5/base_front_laser_link,0,1646454118124728706,v/m1vw10zy74w/map,-8.64346032465,-1.50724601482,0.165,0.0,0.0,-0.725127569275,0.68861455712,0,72.1626434326,64.4648284912,101.192550659,5.5759062767
1646454118282449605,205,1646454118282449605,r1000913c5/base_front_laser_link,0,1646454118282449605,v/m1vw10zy74w/map,-8.64116344474,-1.46281144908,0.165,0.0,0.0,-0.725127401712,0.688614733567,0,71.3582611084,64.4982910156,101.247253418,5.5829873085
1646454118439620711,206,1646454118439620711,r1000913c5/base_front_laser_link,0,1646454118439620711,v/m1vw10zy74w/map,-8.63953781061,-1.41177882111,0.165,0.0,0.0,-0.725491762794,0.688230849438,0,69.6243972778,64.5230560303,101.265472412,5.58080434799
1646454118675835385,207,1646454118675835385,r1000913c5/base_front_laser_link,0,1646454118675835385,v/m1vw10zy74w/map,-8.63583722518,-1.34430332666,0.165,0.0,0.0,-0.725490351034,0.688232337628,0,68.5832901001,64.5425796509,101.265838623,5.57442140579
1646454118833817817,208,1646454118833817817,r1000913c5/base_front_laser_link,0,1646454118833817817,v/m1vw10zy74w/map,-8.64164085892,-1.29439642661,0.165,0.0,0.0,-0.726565667165,0.687097031937,0,70.4306869507,64.5707473755,101.298454285,5.57590055466
1646454118911556181,209,1646454118911556181,r1000913c5/base_front_laser_link,0,1646454118911556181,v/m1vw10zy74w/map,-8.64059957175,-1.27236976447,0.165,0.0,0.0,-0.726551817827,0.687111676521,0,69.7127990723,64.5952377319,101.31678772,5.57385063171
1646454118990729188,210,1646454118990729188,r1000913c5/base_front_laser_link,0,1646454118990729188,v/m1vw10zy74w/map,-8.63933056342,-1.24992595378,0.165,0.0,0.0,-0.72653528783,0.687129154918,0,66.986907959,64.6065673828,101.295570374,5.56300115585
1646454119069913511,211,1646454119069913511,r1000913c5/base_front_laser_link,0,1646454119069913511,v/m1vw10zy74w/map,-8.63810240392,-1.22777930081,0.165,0.0,0.0,-0.726543269195,0.687120715732,0,64.4756317139,64.6059494019,101.255386353,5.54981040955
1646454119227703023,212,1646454119227703023,r1000913c5/base_front_laser_link,0,1646454119227703023,v/m1vw10zy74w/map,-8.62735260733,-1.19983884414,0.165,0.0,0.0,-0.725016120979,0.688731895821,0,60.3316688538,64.5858840942,101.219223022,5.54444599152
1646454119384754438,213,1646454119384754438,r1000913c5/base_front_laser_link,0,1646454119384754438,v/m1vw10zy74w/map,-8.62503232309,-1.15515225481,0.165,0.0,0.0,-0.724987998232,0.688761498938,0,60.9871788025,64.5690689087,101.179718018,5.53688335419
1646454119463991956,214,1646454119463991956,r1000913c5/base_front_laser_link,0,1646454119463991956,v/m1vw10zy74w/map,-8.62387790268,-1.13272122688,0.165,0.0,0.0,-0.724983597759,0.688766130831,0,59.7441673279,64.5466308594,101.147796631,5.53372335434
1646454119542879138,215,1646454119542879138,r1000913c5/base_front_laser_link,0,1646454119542879138,v/m1vw10zy74w/map,-8.62345759294,-1.11443916145,0.165,0.0,0.0,-0.724649482745,0.689117643917,0,57.3253479004,64.5131988525,101.141181946,5.5426607132
1646454119700674836,216,1646454119700674836,r1000913c5/base_front_laser_link,0,1646454119700674836,v/m1vw10zy74w/map,-8.62174411614,-1.08798154385,0.165,0.0,0.0,-0.724057425786,0.689739693046,0,60.4748001099,64.4945831299,101.104408264,5.53660678864
1646454119936762361,217,1646454119936762361,r1000913c5/base_front_laser_link,0,1646454119936762361,v/m1vw10zy74w/map,-8.61834375792,-1.02065705528,0.165,0.0,0.0,-0.723919996018,0.689883931807,0,58.7034225464,64.4680175781,101.081253052,5.53774261475
1646454120174789873,218,1646454120174789873,r1000913c5/base_front_laser_link,0,1646454120174789873,v/m1vw10zy74w/map,-8.61565482578,-0.957395273942,0.165,0.0,0.0,-0.722960530096,0.690889334064,0,56.5283927917,64.4317703247,101.08480835,5.55101490021
1646454120253568316,219,1646454120253568316,r1000913c5/base_front_laser_link,0,1646454120253568316,v/m1vw10zy74w/map,-8.61463966337,-0.93492760962,0.165,0.0,0.0,-0.72296549443,0.690884139247,0,58.832611084,64.4063186646,101.059844971,5.55117702484
1646454120488993514,220,1646454120488993514,r1000913c5/base_front_laser_link,0,1646454120488993514,v/m1vw10zy74w/map,-8.62007426987,-0.886162612863,0.165,0.0,0.0,-0.722977902694,0.690871154569,0,57.7409934998,64.376159668,101.046150208,5.55666446686
1646454120726801135,221,1646454120726801135,r1000913c5/base_front_laser_link,0,1646454120726801135,v/m1vw10zy74w/map,-8.61701204677,-0.81818740273,0.165,0.0,0.0,-0.723008156853,0.690839493025,0,60.890625,64.360458374,101.007492065,5.54901170731
1646454120883846113,222,1646454120883846113,r1000913c5/base_front_laser_link,0,1646454120883846113,v/m1vw10zy74w/map,-8.6114985754,-0.7739647192,0.165,0.0,0.0,-0.723538300599,0.690284236794,0,57.3425216675,64.3289871216,100.998214722,5.55640983582
1646454123880042696,223,1646454123880042696,r1000913c5/base_front_laser_link,0,1646454123880042696,v/m1vw10zy74w/map,-8.59768254365,-0.739098290053,0.165,0.0,0.0,-0.7176058458,0.696449459813,0,58.3530235291,64.3023071289,100.977203369,5.55829763412
1646454124116133059,224,1646454124116133059,r1000913c5/base_front_laser_link,0,1646454124116133059,v/m1vw10zy74w/map,-8.59296109712,-0.769429612247,0.165,0.0,0.0,-0.711936608807,0.702243736206,0,61.9302062988,64.2917633057,100.936157227,5.54813098907
1646454124273938890,225,1646454124273938890,r1000913c5/base_front_laser_link,0,1646454124273938890,v/m1vw10zy74w/map,-8.58528149263,-0.792899686373,0.165,0.0,0.0,-0.703708496333,0.710488812149,0,62.1362724304,64.2822265625,100.89515686,5.53764486313
1646454124353067437,226,1646454124353067437,r1000913c5/base_front_laser_link,0,1646454124353067437,v/m1vw10zy74w/map,-8.57893095208,-0.805342329124,0.165,0.0,0.0,-0.697142035308,0.716933039137,0,59.690536499,64.2620010376,100.863334656,5.53377819061
1646454124511034266,227,1646454124511034266,r1000913c5/base_front_laser_link,0,1646454124511034266,v/m1vw10zy74w/map,-8.56240575251,-0.832491848543,0.165,0.0,0.0,-0.680670619579,0.732589590181,0,58.0831718445,64.2349014282,100.845054626,5.53671789169
1646454124590225669,228,1646454124590225669,r1000913c5/base_front_laser_link,0,1646454124590225669,v/m1vw10zy74w/map,-8.5529505069,-0.847034198286,0.165,0.0,0.0,-0.671572097769,0.740939213093,0,58.8482284546,64.2113800049,100.81943512,5.53601837158
1646454124904993399,229,1646454124904993399,r1000913c5/base_front_laser_link,0,1646454124904993399,v/m1vw10zy74w/map,-8.49846577907,-0.905271709159,0.165,0.0,0.0,-0.624742325411,0.780830984811,0,59.2114868164,64.1896362305,100.790878296,5.5337471962
1646454124983025725,230,1646454124983025725,r1000913c5/base_front_laser_link,0,1646454124983025725,v/m1vw10zy74w/map,-8.48088600882,-0.92070436452,0.165,0.0,0.0,-0.60884809465,0.793286831885,0,59.2783737183,64.1683731079,100.761833191,5.53115129471
1646454125220721447,231,1646454125220721447,r1000913c5/base_front_laser_link,0,1646454125220721447,v/m1vw10zy74w/map,-8.42122622438,-0.963047241523,0.165,0.0,0.0,-0.552041443528,0.833816673273,0,58.8246154785,64.1453399658,100.73625946,5.53030586243
1646454125377097869,232,1646454125377097869,r1000913c5/base_front_laser_link,0,1646454125377097869,v/m1vw10zy74w/map,-8.37969801327,-0.968808383676,0.165,0.0,0.0,-0.508012267139,0.861349833945,0,55.6395339966,64.1088409424,100.748146057,5.54643678665
1646454125455191844,233,1646454125455191844,r1000913c5/base_front_laser_link,0,1646454125455191844,v/m1vw10zy74w/map,-8.36333960277,-0.965580011217,0.165,0.0,0.0,-0.490838157385,0.871250769443,0,59.6479949951,64.0897750854,100.716369629,5.54219913483
1646454125534113976,234,1646454125534113976,r1000913c5/base_front_laser_link,0,1646454125534113976,v/m1vw10zy74w/map,-8.35171916239,-0.959248334384,0.165,0.0,0.0,-0.473938100785,0.880558161977,0,59.4729194641,64.0701293945,100.685745239,5.53853845596
1646454125691190612,235,1646454125691190612,r1000913c5/base_front_laser_link,0,1646454125691190612,v/m1vw10zy74w/map,-8.33851908181,-0.957960425503,0.165,0.0,0.0,-0.450392867467,0.892830479394,0,60.1657676697,64.0535812378,100.651329041,5.53258275986
1646454126085004132,236,1646454126085004132,r1000913c5/base_front_laser_link,0,1646454126085004132,v/m1vw10zy74w/map,-8.30712237398,-0.928916754812,0.165,0.0,0.0,-0.38376196529,0.92343205164,0,60.5117301941,64.0386428833,100.615562439,5.52564048767
1646454126323004985,237,1646454126323004985,r1000913c5/base_front_laser_link,0,1646454126323004985,v/m1vw10zy74w/map,-8.28230943617,-0.89718739969,0.165,0.0,0.0,-0.329426437365,0.944181244447,0,58.6715621948,64.0160903931,100.590888977,5.52493476868
1646454127269250576,238,1646454127269250576,r1000913c5/base_front_laser_link,0,1646454127269250576,v/m1vw10zy74w/map,-8.21753399668,-0.843233350608,0.165,0.0,0.0,-0.215265590461,0.976555541464,0,58.9848594666,63.9950370789,100.563774109,5.52291202545
