%time,field.header.seq,field.header.stamp,field.header.frame_id,field.pose.header.seq,field.pose.header.stamp,field.pose.header.frame_id,field.pose.pose.position.x,field.pose.pose.position.y,field.pose.pose.position.z,field.pose.pose.orientation.x,field.pose.pose.orientation.y,field.pose.pose.orientation.z,field.pose.pose.orientation.w,field.label,field.current_error,field.mean,field.threshold,field.std_dev
1646712279816025966,0,1646712279816025966,r1000913c5/base_front_laser_link,0,1646712279816025966,v/m1vw10zy74w/map,-2.8556246158,-2.42313248319,0.165,0.0,0.0,-0.697201561463,0.716875151399,0,59.3846931458,59.3846931458,nan,nan
1646712279894668218,1,1646712279894668218,r1000913c5/base_front_laser_link,0,1646712279894668218,v/m1vw10zy74w/map,-2.85596430429,-2.40071765884,0.165,0.0,0.0,-0.696888036793,0.717179938491,0,59.4968452454,59.4407691956,79.6786804199,0.0793041214347
1646712279972892390,2,1646712279972892390,r1000913c5/base_front_laser_link,0,1646712279972892390,v/m1vw10zy74w/map,-2.84947673588,-2.35191183939,0.165,0.0,0.0,-0.698082152735,0.716017672989,0,59.9019622803,59.5945014954,80.4108352661,0.272110342979
1646712282022142641,3,1646712282022142641,r1000913c5/base_front_laser_link,0,1646712282022142641,v/m1vw10zy74w/map,-2.87633920021,-2.24902222033,0.165,0.0,0.0,-0.711530577244,0.702655134221,0,62.1746406555,60.2395362854,84.1667251587,1.30906188488
1646712282178991333,4,1646712282178991333,r1000913c5/base_front_laser_link,0,1646712282178991333,v/m1vw10zy74w/map,-2.89296279437,-2.24772512053,0.165,0.0,0.0,-0.728780649535,0.684747226985,0,65.4531173706,61.2822494507,89.0600128174,2.59258794785
1646712282415297474,5,1646712282415297474,r1000913c5/base_front_laser_link,0,1646712282415297474,v/m1vw10zy74w/map,-2.92610025737,-2.24353795228,0.165,0.0,0.0,-0.762022546748,0.647550490887,0,66.2348632812,62.1076850891,91.3373947144,3.0765683651
1646712282573141844,6,1646712282573141844,r1000913c5/base_front_laser_link,0,1646712282573141844,v/m1vw10zy74w/map,-2.95054010033,-2.23844425675,0.165,0.0,0.0,-0.785635491243,0.61868964344,0,65.6870269775,62.6190223694,91.9711151123,3.11736488342
1646712282809638067,7,1646712282809638067,r1000913c5/base_front_laser_link,0,1646712282809638067,v/m1vw10zy74w/map,-2.98039882351,-2.25379180955,0.165,0.0,0.0,-0.816603289063,0.577199331507,0,66.2922515869,63.0781745911,92.5727157593,3.16484808922
1646712283046127142,8,1646712283046127142,r1000913c5/base_front_laser_link,0,1646712283046127142,v/m1vw10zy74w/map,-3.02093123638,-2.24907335097,0.165,0.0,0.0,-0.845648859514,0.533739642899,0,71.1123275757,63.9708595276,95.9468994141,3.99201488495
1646712283283071723,9,1646712283283071723,r1000913c5/base_front_laser_link,0,1646712283283071723,v/m1vw10zy74w/map,-3.05226682165,-2.23099215901,0.165,0.0,0.0,-0.873121856719,0.487502023913,0,71.8530654907,64.7590789795,98.3018188477,4.51424598694
1646712283439193865,10,1646712283439193865,r1000913c5/base_front_laser_link,0,1646712283439193865,v/m1vw10zy74w/map,-3.0672624428,-2.20529536935,0.165,0.0,0.0,-0.889650830884,0.456641433849,0,72.3304595947,65.4473876953,100.006507874,4.85304117203
1646712283675216078,11,1646712283675216078,r1000913c5/base_front_laser_link,0,1646712283675216078,v/m1vw10zy74w/map,-3.09928409136,-2.19744223799,0.165,0.0,0.0,-0.911337299068,0.411660451498,0,68.5757904053,65.7080841064,99.8515777588,4.71449804306
1646712283912540245,12,1646712283912540245,r1000913c5/base_front_laser_link,0,1646712283912540245,v/m1vw10zy74w/map,-3.12559092169,-2.17636021571,0.165,0.0,0.0,-0.93153406202,0.363654081919,0,69.0679321289,65.9665374756,99.7934570312,4.60897350311
1646712284148369510,13,1646712284148369510,r1000913c5/base_front_laser_link,0,1646712284148369510,v/m1vw10zy74w/map,-3.14700368936,-2.15183811046,0.165,0.0,0.0,-0.949036160451,0.315167203492,0,67.6973648071,66.0901641846,99.4469299316,4.45225477219
1646712284227201376,14,1646712284227201376,r1000913c5/base_front_laser_link,0,1646712284227201376,v/m1vw10zy74w/map,-3.15405963479,-2.14213286184,0.165,0.0,0.0,-0.95453240352,0.29810717977,0,66.1891708374,66.0967712402,98.9678955078,4.29037618637
1646712284306679286,15,1646712284306679286,r1000913c5/base_front_laser_link,0,1646712284306679286,v/m1vw10zy74w/map,-3.16072577118,-2.13207675407,0.165,0.0,0.0,-0.959748030109,0.28086245513,0,69.275894165,66.295463562,98.9566879272,4.22040891647
1646712284384367892,16,1646712284384367892,r1000913c5/base_front_laser_link,0,1646712284384367892,v/m1vw10zy74w/map,-3.1669787033,-2.11858628248,0.165,0.0,0.0,-0.964438245375,0.264308287531,0,66.7355651855,66.3213500977,98.5847091675,4.08778715134
1646712284542325037,17,1646712284542325037,r1000913c5/base_front_laser_link,0,1646712284542325037,v/m1vw10zy74w/map,-3.17855877048,-2.09727800849,0.165,0.0,0.0,-0.973279826325,0.2296222543,0,68.2386322021,66.4278640747,98.4020690918,3.99140095711
1646712284701280040,18,1646712284701280040,r1000913c5/base_front_laser_link,0,1646712284701280040,v/m1vw10zy74w/map,-3.18966757637,-2.07553435333,0.165,0.0,0.0,-0.980248680826,0.19776886443,0,70.0176315308,66.6167984009,98.5130157471,3.96540570259
1646712284936247616,19,1646712284936247616,r1000913c5/base_front_laser_link,0,1646712284936247616,v/m1vw10zy74w/map,-3.19430597334,-2.04798707383,0.165,0.0,0.0,0.988463655,-0.15145825413,0,67.1754150391,66.6447296143,98.2297210693,3.86166334152
1646712285015353190,20,1646712285015353190,r1000913c5/base_front_laser_link,0,1646712285015353190,v/m1vw10zy74w/map,-3.19563198618,-2.03807202416,0.165,0.0,0.0,0.990952712561,-0.134211480391,0,68.4813461304,66.7321929932,98.087677002,3.78516149521
1646712285251149663,21,1646712285251149663,r1000913c5/base_front_laser_link,0,1646712285251149663,v/m1vw10zy74w/map,-3.20027981606,-1.99186647124,0.165,0.0,0.0,0.996483440057,-0.0837899378974,0,66.8380737305,66.7370071411,97.8190307617,3.69400835037
1646712285330173237,22,1646712285330173237,r1000913c5/base_front_laser_link,0,1646712285330173237,v/m1vw10zy74w/map,-3.20199146039,-1.97962453797,0.165,0.0,0.0,0.997821701152,-0.065968573656,0,69.8952102661,66.8743133545,97.8803100586,3.66866493225
1646712285409303642,23,1646712285409303642,r1000913c5/base_front_laser_link,0,1646712285409303642,v/m1vw10zy74w/map,-3.20327204146,-1.96485081139,0.165,0.0,0.0,0.998876232958,-0.0473948439248,0,70.3778152466,67.0202941895,97.9961013794,3.65860104561
1646712285566336817,24,1646712285566336817,r1000913c5/base_front_laser_link,0,1646712285566336817,v/m1vw10zy74w/map,-3.20341564611,-1.9385357861,0.165,0.0,0.0,0.999896271408,-0.0144030005671,0,63.9995651245,66.8994674683,97.7959671021,3.63216590881
1646712285803314280,25,1646712285803314280,r1000913c5/base_front_laser_link,0,1646712285803314280,v/m1vw10zy74w/map,-3.20197154925,-1.89104268394,0.165,0.0,0.0,0.999334466842,0.0364777107407,0,63.2035102844,66.7573165894,97.6528549194,3.63184690475
1646712285881236754,26,1646712285881236754,r1000913c5/base_front_laser_link,0,1646712285881236754,v/m1vw10zy74w/map,-3.20085509571,-1.87932807887,0.165,0.0,0.0,0.998539115241,0.0540336500052,0,61.9971885681,66.5810165405,97.61277771,3.67725539207
1646712286118362944,27,1646712286118362944,r1000913c5/base_front_laser_link,0,1646712286118362944,v/m1vw10zy74w/map,-3.19224081332,-1.82911983968,0.165,0.0,0.0,0.994323625573,0.106397968154,0,63.3165550232,66.4644241333,97.4470443726,3.66087150574
1646712286198433286,28,1646712286198433286,r1000913c5/base_front_laser_link,0,1646712286198433286,v/m1vw10zy74w/map,-3.18951874929,-1.81742693407,0.165,0.0,0.0,0.9922557555,0.124211576258,0,62.4825172424,66.3271179199,97.337600708,3.67016124725
1646712286275392429,29,1646712286275392429,r1000913c5/base_front_laser_link,0,1646712286275392429,v/m1vw10zy74w/map,-3.18200197532,-1.78967967923,0.165,0.0,0.0,0.990157133065,0.13996017948,0,65.7197036743,66.3068695068,97.1309661865,3.60803222656
1646712286354304078,30,1646712286354304078,r1000913c5/base_front_laser_link,0,1646712286354304078,v/m1vw10zy74w/map,-3.17809215329,-1.77769346515,0.165,0.0,0.0,0.987443863447,0.157970302719,0,66.6810531616,66.318939209,96.9630203247,3.54802513123
1646712286433482325,31,1646712286433482325,r1000913c5/base_front_laser_link,0,1646712286433482325,v/m1vw10zy74w/map,-3.17406330963,-1.76626271568,0.165,0.0,0.0,0.984422945459,0.175816564786,0,61.7824172974,66.1771774292,96.9209976196,3.58127474785
1646712286512310021,32,1646712286512310021,r1000913c5/base_front_laser_link,0,1646712286512310021,v/m1vw10zy74w/map,-3.16921543793,-1.75377597804,0.165,0.0,0.0,0.981554979298,0.191180079024,0,61.5064735413,66.0356369019,96.8879318237,3.61743092537
1646712286590394513,33,1646712286590394513,r1000913c5/base_front_laser_link,0,1646712286590394513,v/m1vw10zy74w/map,-3.16459668243,-1.74293929697,0.165,0.0,0.0,0.978106003945,0.208107292153,0,62.8514556885,65.941986084,96.7534255981,3.60381364822
1646712286906514769,34,1646712286906514769,r1000913c5/base_front_laser_link,0,1646712286906514769,v/m1vw10zy74w/map,-3.14244091171,-1.69791190898,0.165,0.0,0.0,0.961472963006,0.274899511473,0,65.3511199951,65.9251022339,96.580581665,3.55182552338
1646712287142517863,35,1646712287142517863,r1000913c5/base_front_laser_link,0,1646712287142517863,v/m1vw10zy74w/map,-3.12544894105,-1.66618692087,0.165,0.0,0.0,0.945457251736,0.32574619743,0,65.7301712036,65.9196929932,96.4222946167,3.50086808205
1646712287457509993,36,1646712287457509993,r1000913c5/base_front_laser_link,0,1646712287457509993,v/m1vw10zy74w/map,-3.09301127529,-1.61451184993,0.165,0.0,0.0,0.920325827154,0.391152619667,0,60.8125267029,65.7816619873,96.4392929077,3.55254554749
1646712287694395494,37,1646712287694395494,r1000913c5/base_front_laser_link,0,1646712287694395494,v/m1vw10zy74w/map,-3.06966332846,-1.59426695519,0.165,0.0,0.0,0.898785364441,0.438388946789,0,64.0847930908,65.7370071411,96.2820205688,3.51500439644
1646712287851821046,38,1646712287851821046,r1000913c5/base_front_laser_link,0,1646712287851821046,v/m1vw10zy74w/map,-3.05139617072,-1.58339470011,0.165,0.0,0.0,0.88336254171,0.468690324098,0,63.4945983887,65.6795043945,96.1404571533,3.48698306084
1646712288639615067,39,1646712288639615067,r1000913c5/base_front_laser_link,0,1646712288639615067,v/m1vw10zy74w/map,-2.98592709394,-1.5399853137,0.165,0.0,0.0,0.826694995195,0.562650322065,0,58.4569129944,65.4989395142,96.3784103394,3.62648963928
1646712288955204786,40,1646712288955204786,r1000913c5/base_front_laser_link,0,1646712288955204786,v/m1vw10zy74w/map,-2.98123460442,-1.51469068442,0.165,0.0,0.0,0.815099634082,0.579320797589,0,58.8768196106,65.3374252319,96.5191040039,3.72722601891
1646712289192702011,41,1646712289192702011,r1000913c5/base_front_laser_link,0,1646712289192702011,v/m1vw10zy74w/map,-2.97473053904,-1.48540625265,0.165,0.0,0.0,0.801739079097,0.597674199752,0,60.0339317322,65.211151123,96.5251998901,3.77134871483
1646712289506906203,42,1646712289506906203,r1000913c5/base_front_laser_link,0,1646712289506906203,v/m1vw10zy74w/map,-2.95648345143,-1.4320471686,0.165,0.0,0.0,0.77677666508,0.629776160701,0,62.6179389954,65.1508483887,96.3921661377,3.74710774422
1646712289664212273,43,1646712289664212273,r1000913c5/base_front_laser_link,0,1646712289664212273,v/m1vw10zy74w/map,-2.949253306,-1.40439505833,0.165,0.0,0.0,0.765011811534,0.644016248408,0,61.7892150879,65.0744476318,96.2878341675,3.73779559135
1646712289899711532,44,1646712289899711532,r1000913c5/base_front_laser_link,0,1646712289899711532,v/m1vw10zy74w/map,-2.90750580034,-1.29314594758,0.165,0.0,0.0,0.737837108803,0.674978815129,0,62.7655715942,65.0231399536,96.1563491821,3.71107196808
1646712290137633289,45,1646712290137633289,r1000913c5/base_front_laser_link,0,1646712290137633289,v/m1vw10zy74w/map,-2.88986394966,-1.23898574007,0.165,0.0,0.0,0.716534024688,0.69755214247,0,64.0506210327,65.001991272,96.0192184448,3.67240667343
1646712290294283943,46,1646712290294283943,r1000913c5/base_front_laser_link,0,1646712290294283943,v/m1vw10zy74w/map,-2.88147647418,-1.20228282087,0.165,0.0,0.0,0.707217267599,0.706996277508,0,63.3192825317,64.9661941528,95.8878555298,3.64055347443
1646712290530683211,47,1646712290530683211,r1000913c5/base_front_laser_link,0,1646712290530683211,v/m1vw10zy74w/map,-2.86905862763,-1.13103305532,0.165,0.0,0.0,0.69960484627,0.714529956738,0,58.9752159119,64.8413772583,95.9532852173,3.70396852493
1646712290766814217,48,1646712290766814217,r1000913c5/base_front_laser_link,0,1646712290766814217,v/m1vw10zy74w/map,-2.87453051729,-1.06334390545,0.165,0.0,0.0,0.706522417719,0.707690662126,0,57.3704299927,64.688911438,96.1411514282,3.8174135685
1646712290924789834,49,1646712290924789834,r1000913c5/base_front_laser_link,0,1646712290924789834,v/m1vw10zy74w/map,-2.88463611635,-1.01453272201,0.165,0.0,0.0,0.71618467076,0.697910823364,0,54.8214912415,64.4915618896,96.5747375488,4.02772474289
1646712291161740746,50,1646712291161740746,r1000913c5/base_front_laser_link,0,1646712291161740746,v/m1vw10zy74w/map,-2.91151006064,-0.937670070122,0.165,0.0,0.0,0.739365469349,0.673304316587,0,56.5597457886,64.3360366821,96.7531814575,4.13904762268
1646712291240716309,51,1646712291240716309,r1000913c5/base_front_laser_link,0,1646712291240716309,v/m1vw10zy74w/map,-2.92009660183,-0.900868623131,0.165,0.0,0.0,0.747357819006,0.664421771445,0,50.8183822632,64.0760803223,97.595993042,4.50663757324
1646712291319597323,52,1646712291319597323,r1000913c5/base_front_laser_link,0,1646712291319597323,v/m1vw10zy74w/map,-2.93420620492,-0.87433706082,0.165,0.0,0.0,0.757770555074,0.652521099937,0,53.9730110168,63.8854598999,97.907081604,4.67387390137
1646712291476489986,53,1646712291476489986,r1000913c5/base_front_laser_link,0,1646712291476489986,v/m1vw10zy74w/map,-2.96263669304,-0.820746296496,0.165,0.0,0.0,0.775856209055,0.630909773954,0,55.0844612122,63.7224769592,98.0684127808,4.78197908401
1646712291634694537,54,1646712291634694537,r1000913c5/base_front_laser_link,0,1646712291634694537,v/m1vw10zy74w/map,-2.9834823699,-0.764575547065,0.165,0.0,0.0,0.784596622882,0.620006563966,0,57.8704223633,63.6160774231,98.0243606567,4.80276155472
1646712291712813659,55,1646712291712813659,r1000913c5/base_front_laser_link,0,1646712291712813659,v/m1vw10zy74w/map,-2.99578119069,-0.735287386416,0.165,0.0,0.0,0.789243890006,0.614079866214,0,62.6553192139,63.5989189148,97.8808135986,4.76063156128
1646712291870641904,56,1646712291870641904,r1000913c5/base_front_laser_link,0,1646712291870641904,v/m1vw10zy74w/map,-3.02701919204,-0.675852333141,0.165,0.0,0.0,0.802455940369,0.596711373921,0,63.7518959045,63.6016044617,97.7555389404,4.71797800064
1646712292107763872,57,1646712292107763872,r1000913c5/base_front_laser_link,0,1646712292107763872,v/m1vw10zy74w/map,-3.08762298331,-0.585786630849,0.165,0.0,0.0,0.829181213884,0.558979887422,0,63.1781425476,63.5943031311,97.6245193481,4.67673969269
1646712292343724912,58,1646712292343724912,r1000913c5/base_front_laser_link,0,1646712292343724912,v/m1vw10zy74w/map,-3.16706368131,-0.58140000453,0.165,0.0,0.0,0.861645531588,0.507510569244,0,71.8040008545,63.7334518433,98.0070037842,4.75785112381
1646712292501763914,59,1646712292501763914,r1000913c5/base_front_laser_link,0,1646712292501763914,v/m1vw10zy74w/map,-3.23530478519,-0.533159434716,0.165,0.0,0.0,0.886209038287,0.463285592759,0,71.6947937012,63.8661384583,98.3502197266,4.82802772522
1646712292659787925,60,1646712292659787925,r1000913c5/base_front_laser_link,0,1646712292659787925,v/m1vw10zy74w/map,-3.31598425875,-0.492664954686,0.165,0.0,0.0,0.912588110026,0.408880106437,0,72.388092041,64.0058441162,98.7370071411,4.91038751602
1646712292895943170,61,1646712292895943170,r1000913c5/base_front_laser_link,0,1646712292895943170,v/m1vw10zy74w/map,-3.44002186575,-0.467916044935,0.165,0.0,0.0,0.950438966297,0.31091119527,0,73.9428787231,64.1661148071,99.2586212158,5.03083324432
1646712292975585685,62,1646712292975585685,r1000913c5/base_front_laser_link,0,1646712292975585685,v/m1vw10zy74w/map,-3.48387248647,-0.412353693113,0.165,0.0,0.0,0.961017076752,0.27648902002,1,73.3078765869,64.3112258911,99.6750946045,5.12128973007
1646712293053810203,63,1646712293053810203,r1000913c5/base_front_laser_link,0,1646712293053810203,v/m1vw10zy74w/map,-3.510466594,-0.417540415835,0.165,0.0,0.0,0.969086944266,0.246719465086,1,71.7544326782,64.4275283813,99.9224472046,5.16497278214
1646712293212400459,64,1646712293212400459,r1000913c5/base_front_laser_link,0,1646712293212400459,v/m1vw10zy74w/map,-3.54100298815,-0.447090264218,0.165,0.0,0.0,0.980845236505,0.1947886599,1,70.0741424561,64.5143966675,100.030700684,5.17210245132
1646712294313289710,65,1646712294313289710,r1000913c5/base_front_laser_link,0,1646712294313289710,v/m1vw10zy74w/map,-3.56734689374,-0.597745476243,0.165,0.0,0.0,0.998925017858,0.0463552445617,1,69.2562789917,64.5862426758,100.081985474,5.16524744034
1646712294706811736,66,1646712294706811736,r1000913c5/base_front_laser_link,0,1646712294706811736,v/m1vw10zy74w/map,-3.59836820329,-0.610068869484,0.165,0.0,0.0,0.999752416488,0.0222509713589,1,74.0311660767,64.7272109985,100.48991394,5.2542347908
1646712294866029798,67,1646712294866029798,r1000913c5/base_front_laser_link,0,1646712294866029798,v/m1vw10zy74w/map,-3.6163949701,-0.618440605568,0.165,0.0,0.0,0.999960258014,0.0089152898574,0,71.0587997437,64.8203277588,100.633621216,5.27109909058
1646712295259031956,68,1646712295259031956,r1000913c5/base_front_laser_link,0,1646712295259031956,v/m1vw10zy74w/map,-3.67430796786,-0.636875203606,0.165,0.0,0.0,0.999842641663,-0.0177395578365,0,70.2104949951,64.8984451294,100.715286255,5.27228212357
1646712295416976020,69,1646712295416976020,r1000913c5/base_front_laser_link,0,1646712295416976020,v/m1vw10zy74w/map,-3.69518885415,-0.656382474881,0.165,0.0,0.0,0.999459739981,-0.0328668245526,0,70.9967880249,64.9855651855,100.838905334,5.28444766998
1646712295652823854,70,1646712295652823854,r1000913c5/base_front_laser_link,0,1646712295652823854,v/m1vw10zy74w/map,-3.74015694169,-0.668265445195,0.165,0.0,0.0,0.998975647201,-0.045251036434,0,69.4544067383,65.048500061,100.868415833,5.27330350876
1646712295810177831,71,1646712295810177831,r1000913c5/base_front_laser_link,0,1646712295810177831,v/m1vw10zy74w/map,-3.77381034367,-0.67609705319,0.165,0.0,0.0,0.998646818691,-0.0520051105076,0,72.2648696899,65.148727417,101.062690735,5.30465364456
1646712296046226819,72,1646712296046226819,r1000913c5/base_front_laser_link,0,1646712296046226819,v/m1vw10zy74w/map,-3.83395429847,-0.687195520635,0.165,0.0,0.0,0.997966862555,-0.0637349295257,0,70.4517974854,65.2213745117,101.133758545,5.30412721634
1646712296282934741,73,1646712296282934741,r1000913c5/base_front_laser_link,0,1646712296282934741,v/m1vw10zy74w/map,-3.89728912424,-0.699776802745,0.165,0.0,0.0,0.99754205609,-0.0700702956376,0,71.7530517578,65.3096389771,101.275985718,5.32211399078
1646712296440093146,74,1646712296440093146,r1000913c5/base_front_laser_link,0,1646712296440093146,v/m1vw10zy74w/map,-3.94275761669,-0.706788496486,0.165,0.0,0.0,0.997487665048,-0.0708403703936,0,72.6550369263,65.4075775146,101.468521118,5.35364580154
1646712296598051847,75,1646712296598051847,r1000913c5/base_front_laser_link,0,1646712296598051847,v/m1vw10zy74w/map,-3.98937679333,-0.716456766117,0.165,0.0,0.0,0.997335225791,-0.0729551053474,0,71.4239730835,65.4867401123,101.574028015,5.362429142
1646712296913061017,76,1646712296913061017,r1000913c5/base_front_laser_link,0,1646712296913061017,v/m1vw10zy74w/map,-4.09573001824,-0.728867849931,0.165,0.0,0.0,0.997780468493,-0.066589313654,0,69.3988265991,65.5375518799,101.574516296,5.34565639496
1646712297069968678,77,1646712297069968678,r1000913c5/base_front_laser_link,0,1646712297069968678,v/m1vw10zy74w/map,-4.15092711055,-0.735507075151,0.165,0.0,0.0,0.997953765759,-0.0639396700603,0,69.0289764404,65.5823135376,101.558883667,5.32552433014
1646712297307202045,78,1646712297307202045,r1000913c5/base_front_laser_link,0,1646712297307202045,v/m1vw10zy74w/map,-4.24407830913,-0.740586427847,0.165,0.0,0.0,0.998399656731,-0.0565519711444,0,68.2681350708,65.6163101196,101.51599884,5.29989767075
1646712297464073671,79,1646712297464073671,r1000913c5/base_front_laser_link,0,1646712297464073671,v/m1vw10zy74w/map,-4.30879065731,-0.742549722069,0.165,0.0,0.0,0.99878000733,-0.0493811397039,0,65.9201126099,65.6201095581,101.419174194,5.2663564682
1646712297623011025,80,1646712297623011025,r1000913c5/base_front_laser_link,0,1646712297623011025,v/m1vw10zy74w/map,-4.37432741251,-0.744621629653,0.165,0.0,0.0,0.999118271179,-0.0419842851022,0,64.6889038086,65.6086120605,101.311691284,5.23436117172
1646712297859069379,81,1646712297859069379,r1000913c5/base_front_laser_link,0,1646712297859069379,v/m1vw10zy74w/map,-4.4815068239,-0.749108990767,0.165,0.0,0.0,0.999458512398,-0.0329041333992,0,71.7791595459,65.6838607788,101.423034668,5.24639129639
1646712298016542497,82,1646712298016542497,r1000913c5/base_front_laser_link,0,1646712298016542497,v/m1vw10zy74w/map,-4.55473388271,-0.75010318013,0.165,0.0,0.0,0.999608792373,-0.0279689508426,0,71.217628479,65.7505340576,101.499221802,5.24956178665
1646712298094129483,83,1646712298094129483,r1000913c5/base_front_laser_link,0,1646712298094129483,v/m1vw10zy74w/map,-4.59279270329,-0.750200536379,0.165,0.0,0.0,0.99968566067,-0.0250714948051,0,73.1264572144,65.8383407593,101.676963806,5.27954053879
1646712298253142253,84,1646712298253142253,r1000913c5/base_front_laser_link,0,1646712298253142253,v/m1vw10zy74w/map,-4.68576485587,-0.751897643166,0.165,0.0,0.0,0.999811212911,-0.0194303509495,0,71.5868301392,65.9059677124,101.760757446,5.28493022919
1646712298409222285,85,1646712298409222285,r1000913c5/base_front_laser_link,0,1646712298409222285,v/m1vw10zy74w/map,-4.76302209607,-0.749648520865,0.165,0.0,0.0,0.999906633241,-0.0136647283345,0,70.4566497803,65.9588851929,101.788734436,5.27661752701
1646712298488329232,86,1646712298488329232,r1000913c5/base_front_laser_link,0,1646712298488329232,v/m1vw10zy74w/map,-4.80362256336,-0.751697411842,0.165,0.0,0.0,0.999930751188,-0.0117682975834,0,70.7456817627,66.0139083862,101.826583862,5.27089262009
1646712298883119432,87,1646712298883119432,r1000913c5/base_front_laser_link,0,1646712298883119432,v/m1vw10zy74w/map,-5.02007666584,-0.748218971857,0.165,0.0,0.0,0.999998076874,0.00196118530018,0,69.4992599487,66.0535125732,101.81451416,5.25366687775
1646712299198272596,88,1646712299198272596,r1000913c5/base_front_laser_link,0,1646712299198272596,v/m1vw10zy74w/map,-5.19868261964,-0.746727184661,0.165,0.0,0.0,0.999987260808,0.00504759557419,0,65.8383789062,66.0510940552,101.722434998,5.22378110886
1646712299356387944,89,1646712299356387944,r1000913c5/base_front_laser_link,0,1646712299356387944,v/m1vw10zy74w/map,-5.29758618181,-0.744899287552,0.165,0.0,0.0,0.999985297061,0.00542269872325,0,63.8445167542,66.0265808105,101.625244141,5.19955587387
1646712299749791356,90,1646712299749791356,r1000913c5/base_front_laser_link,0,1646712299749791356,v/m1vw10zy74w/map,-5.54591571522,-0.738848115663,0.165,0.0,0.0,0.999990254189,0.00441492088835,0,67.6214675903,66.0441055298,101.563980103,5.17329120636
1646712300065325267,91,1646712300065325267,r1000913c5/base_front_laser_link,0,1646712300065325267,v/m1vw10zy74w/map,-5.76600935453,-0.731976673077,0.165,0.0,0.0,0.999986623305,0.0051723505525,0,71.7452850342,66.1060714722,101.643104553,5.1790099144
1646712300301124248,92,1646712300301124248,r1000913c5/base_front_laser_link,0,1646712300301124248,v/m1vw10zy74w/map,-5.93193849096,-0.730865426031,0.165,0.0,0.0,0.999979281769,0.00643708259669,0,69.7982025146,66.1457748413,101.640762329,5.16499519348
1646712300458321127,93,1646712300458321127,r1000913c5/base_front_laser_link,0,1646712300458321127,v/m1vw10zy74w/map,-6.04338570044,-0.740755962758,0.165,0.0,0.0,0.999979598119,0.00638774964305,0,69.599395752,66.182510376,101.630973816,5.14948654175
1646712300773216337,94,1646712300773216337,r1000913c5/base_front_laser_link,0,1646712300773216337,v/m1vw10zy74w/map,-6.29416080987,-0.725647866122,0.165,0.0,0.0,0.999958850049,0.00907183597133,0,67.0196990967,66.1913299561,101.559555054,5.12274265289
1646712301010309144,95,1646712301010309144,r1000913c5/base_front_laser_link,0,1646712301010309144,v/m1vw10zy74w/map,-6.48624031229,-0.72459560868,0.165,0.0,0.0,0.999991282325,0.00417555676374,0,66.2664642334,66.1921081543,101.479255676,5.09571504593
1646712301325319084,96,1646712301325319084,r1000913c5/base_front_laser_link,0,1646712301325319084,v/m1vw10zy74w/map,-6.74274427894,-0.732895411871,0.165,0.0,0.0,0.999996834987,-0.00251595217664,0,64.8166427612,66.1779327393,101.391014099,5.07102918625
1646712301561667592,97,1646712301561667592,r1000913c5/base_front_laser_link,0,1646712301561667592,v/m1vw10zy74w/map,-6.92232774468,-0.698906171505,0.165,0.0,0.0,0.999967717337,-0.0080351903546,0,68.857460022,66.2052688599,101.361503601,5.05207824707
1646712301798465321,98,1646712301798465321,r1000913c5/base_front_laser_link,0,1646712301798465321,v/m1vw10zy74w/map,-7.13439318066,-0.716294788792,0.165,0.0,0.0,0.999923862772,-0.0123397187614,0,69.3514099121,66.2370529175,101.345565796,5.03617238998
1646712301956059870,99,1646712301956059870,r1000913c5/base_front_laser_link,0,1646712301956059870,v/m1vw10zy74w/map,-7.28366073726,-0.719277454154,0.165,0.0,0.0,0.999912883425,-0.0131994530271,0,68.9504928589,66.2641830444,101.318229675,5.018014431
1646712302113507701,100,1646712302113507701,r1000913c5/base_front_laser_link,0,1646712302113507701,v/m1vw10zy74w/map,-7.42547451871,-0.721089824804,0.165,0.0,0.0,0.999908763152,-0.0135079743803,0,66.9246520996,66.2707214355,101.250602722,4.99329376221
1646712302428428605,101,1646712302428428605,r1000913c5/base_front_laser_link,0,1646712302428428605,v/m1vw10zy74w/map,-7.72884755024,-0.725984477431,0.165,0.0,0.0,0.999967672077,-0.00804082096599,0,66.4285354614,66.2722702026,101.177886963,4.96853733063
1646712302507457841,102,1646712302507457841,r1000913c5/base_front_laser_link,0,1646712302507457841,v/m1vw10zy74w/map,-7.80099320353,-0.733317912846,0.165,0.0,0.0,0.999964738205,-0.00839775842827,0,68.8648605347,66.2974395752,101.149589539,4.95071697235
1646712302666620577,103,1646712302666620577,r1000913c5/base_front_laser_link,0,1646712302666620577,v/m1vw10zy74w/map,-7.94315412126,-0.728490551755,0.165,0.0,0.0,0.999989494687,-0.00458372287028,0,71.4342193604,66.3468322754,101.20375824,4.95230817795
1646712302745409987,104,1646712302745409987,r1000913c5/base_front_laser_link,0,1646712302745409987,v/m1vw10zy74w/map,-8.00094265965,-0.73244279648,0.165,0.0,0.0,0.999992128495,-0.00396773833813,0,69.3264923096,66.375213623,101.186248779,4.93701267242
1646712302980392027,105,1646712302980392027,r1000913c5/base_front_laser_link,0,1646712302980392027,v/m1vw10zy74w/map,-8.15861508407,-0.730816968872,0.165,0.0,0.0,0.999999182398,-0.00127875091373,0,72.0882949829,66.429107666,101.263153076,4.94468164444
1646712303060308736,106,1646712303060308736,r1000913c5/base_front_laser_link,0,1646712303060308736,v/m1vw10zy74w/map,-8.20075474013,-0.732423566156,0.165,0.0,0.0,0.999997981093,-0.00200943027738,0,72.1372451782,66.4824523926,101.338890076,4.95214414597
1646712303216532287,107,1646712303216532287,r1000913c5/base_front_laser_link,0,1646712303216532287,v/m1vw10zy74w/map,-8.27163975049,-0.732937581923,0.165,0.0,0.0,0.999995234983,-0.00308707168601,0,68.3748016357,66.4999771118,101.296913147,4.93231105804
1646712303296403823,108,1646712303296403823,r1000913c5/base_front_laser_link,0,1646712303296403823,v/m1vw10zy74w/map,-8.30614033914,-0.734084745121,0.165,0.0,0.0,0.999994981207,-0.00316821094957,0,69.5337219238,66.5278091431,101.281852722,4.9180150032
1646712303454667108,109,1646712303454667108,r1000913c5/base_front_laser_link,0,1646712303454667108,v/m1vw10zy74w/map,-8.38432335254,-0.739310259761,0.165,0.0,0.0,0.999981226842,-0.00612747603692,0,71.307723999,66.5712661743,101.320983887,4.91657209396
1646712303611653902,110,1646712303611653902,r1000913c5/base_front_laser_link,0,1646712303611653902,v/m1vw10zy74w/map,-8.44127836062,-0.73427576463,0.165,0.0,0.0,0.999985682553,-0.0053511389763,0,70.7353591919,66.6087799072,101.339096069,4.9101061821
1646712303768284843,111,1646712303768284843,r1000913c5/base_front_laser_link,0,1646712303768284843,v/m1vw10zy74w/map,-8.49577471566,-0.733816776805,0.165,0.0,0.0,0.999986535141,-0.00518936763727,0,68.944732666,66.6296386719,101.308395386,4.89292001724
1646712303927536540,112,1646712303927536540,r1000913c5/base_front_laser_link,0,1646712303927536540,v/m1vw10zy74w/map,-8.55307301875,-0.735873288179,0.165,0.0,0.0,0.999984996704,-0.00547780679447,0,71.9914016724,66.6770858765,101.368301392,4.89707279205
1646712304004932807,113,1646712304004932807,r1000913c5/base_front_laser_link,0,1646712304004932807,v/m1vw10zy74w/map,-8.58086859204,-0.736998606194,0.165,0.0,0.0,0.999974998923,-0.00707117598157,0,71.191192627,66.7166824341,101.397644043,4.89365339279
1646712304083511283,114,1646712304083511283,r1000913c5/base_front_laser_link,0,1646712304083511283,v/m1vw10zy74w/map,-8.60553155989,-0.738556989304,0.165,0.0,0.0,0.999961066157,-0.00882418104364,0,70.4758453369,66.7493667603,101.403579712,4.88473701477
1646712304241976910,115,1646712304241976910,r1000913c5/base_front_laser_link,0,1646712304241976910,v/m1vw10zy74w/map,-8.65551311074,-0.745468330348,0.165,0.0,0.0,0.999888714016,-0.014918431026,0,69.7359390259,66.7751159668,101.389167786,4.87135124207
1646712304320796794,116,1646712304320796794,r1000913c5/base_front_laser_link,0,1646712304320796794,v/m1vw10zy74w/map,-8.67818324085,-0.749055637141,0.165,0.0,0.0,0.999817217693,-0.0191188703988,0,68.2923126221,66.7880859375,101.345092773,4.85233640671
1646712304398634777,117,1646712304398634777,r1000913c5/base_front_laser_link,0,1646712304398634777,v/m1vw10zy74w/map,-8.70097582807,-0.753726142053,0.165,0.0,0.0,0.999701128035,-0.0244469753907,0,71.4002532959,66.8271713257,101.377693176,4.85017538071
1646712304477590346,118,1646712304477590346,r1000913c5/base_front_laser_link,0,1646712304477590346,v/m1vw10zy74w/map,-8.72336804528,-0.758795986745,0.165,0.0,0.0,0.999543457066,-0.0302138616597,0,71.2957992554,66.8647232056,101.405487061,4.84692144394
1646712304635520738,119,1646712304635520738,r1000913c5/base_front_laser_link,0,1646712304635520738,v/m1vw10zy74w/map,-8.76953883532,-0.77251606425,0.165,0.0,0.0,0.999149315238,-0.0412388877136,0,65.938911438,66.8570098877,101.338768005,4.82725286484
1646712304951698807,120,1646712304951698807,r1000913c5/base_front_laser_link,0,1646712304951698807,v/m1vw10zy74w/map,-8.85301349204,-0.79465188425,0.165,0.0,0.0,0.998130885296,-0.061112484964,0,61.9567527771,66.8165054321,101.299591064,4.82769441605
1646712305424632786,121,1646712305424632786,r1000913c5/base_front_laser_link,0,1646712305424632786,v/m1vw10zy74w/map,-8.97269332539,-0.828047724395,0.165,0.0,0.0,0.996898754526,-0.0786948106575,0,58.1500816345,66.745475769,101.359397888,4.87130880356
1646712305739582782,122,1646712305739582782,r1000913c5/base_front_laser_link,0,1646712305739582782,v/m1vw10zy74w/map,-8.99866503721,-0.840141126595,0.165,0.0,0.0,0.995577456272,-0.0939442843508,0,58.0424690247,66.6747131348,101.417793274,4.91436004639
1646712306211720579,123,1646712306211720579,r1000913c5/base_front_laser_link,0,1646712306211720579,v/m1vw10zy74w/map,-8.98904777488,-0.895660709851,0.165,0.0,0.0,0.983976907457,-0.178295949453,0,66.7882766724,66.6756286621,101.358688354,4.8943529129
1646712306369659877,124,1646712306369659877,r1000913c5/base_front_laser_link,0,1646712306369659877,v/m1vw10zy74w/map,-8.97908859396,-0.919899631039,0.165,0.0,0.0,-0.9762500603,0.216646762646,0,65.0750274658,66.6628265381,101.292861938,4.87667942047
1646712306684776954,125,1646712306684776954,r1000913c5/base_front_laser_link,0,1646712306684776954,v/m1vw10zy74w/map,-8.95643823666,-0.953256427868,0.165,0.0,0.0,-0.958848241705,0.283919089494,0,61.7628440857,66.6239395142,101.254066467,4.87670993805
1646712307078682294,126,1646712307078682294,r1000913c5/base_front_laser_link,0,1646712307078682294,v/m1vw10zy74w/map,-8.93309874983,-0.997014472251,0.165,0.0,0.0,-0.932088162374,0.362231497198,0,60.6161079407,66.5766296387,101.236091614,4.88648700714
1646712307235913315,127,1646712307235913315,r1000913c5/base_front_laser_link,0,1646712307235913315,v/m1vw10zy74w/map,-8.9172698547,-1.01304077084,0.165,0.0,0.0,-0.919375850998,0.393380279884,0,58.6239929199,66.514503479,101.267623901,4.9177069664
1646712307394760231,128,1646712307394760231,r1000913c5/base_front_laser_link,0,1646712307394760231,v/m1vw10zy74w/map,-8.90912447793,-1.02667530507,0.165,0.0,0.0,-0.906746971953,0.421675146119,0,62.1921691895,66.4809951782,101.220657349,4.91321992874
1646712307552828293,129,1646712307552828293,r1000913c5/base_front_laser_link,0,1646712307552828293,v/m1vw10zy74w/map,-8.88586026637,-1.04010336108,0.165,0.0,0.0,-0.89136118801,0.453293759618,0,61.7169418335,66.4443511963,101.180175781,4.91194343567
1646712307788610488,130,1646712307788610488,r1000913c5/base_front_laser_link,0,1646712307788610488,v/m1vw10zy74w/map,-8.85199808105,-1.05744742857,0.165,0.0,0.0,-0.867995701267,0.496571709405,0,60.7538642883,66.4009094238,101.155540466,4.91820907593
1646712307945630964,131,1646712307945630964,r1000913c5/base_front_laser_link,0,1646712307945630964,v/m1vw10zy74w/map,-8.82931355847,-1.0660206122,0.165,0.0,0.0,-0.850497583558,0.525978954296,0,62.6991462708,66.3728637695,101.10282135,4.90998411179
1646712308103829663,132,1646712308103829663,r1000913c5/base_front_laser_link,0,1646712308103829663,v/m1vw10zy74w/map,-8.80779528566,-1.06546084896,0.165,0.0,0.0,-0.833826381912,0.552026779086,0,66.4508590698,66.3734512329,101.047515869,4.89135503769
1646712308261170468,133,1646712308261170468,r1000913c5/base_front_laser_link,0,1646712308261170468,v/m1vw10zy74w/map,-8.78661419789,-1.0729800617,0.165,0.0,0.0,-0.814824755973,0.579707354666,0,69.0045623779,66.3930892944,101.027778625,4.87823009491
1646712308497995448,134,1646712308497995448,r1000913c5/base_front_laser_link,0,1646712308497995448,v/m1vw10zy74w/map,-8.75861122631,-1.07865404489,0.165,0.0,0.0,-0.789013031367,0.614376461408,0,71.5517654419,66.4313049316,101.071998596,4.8802318573
1646712308655802313,135,1646712308655802313,r1000913c5/base_front_laser_link,0,1646712308655802313,v/m1vw10zy74w/map,-8.7426560663,-1.08271610958,0.165,0.0,0.0,-0.772563819026,0.634937119352,0,70.079864502,66.4581298828,101.074661255,4.87217855453
1646712308813126633,136,1646712308813126633,r1000913c5/base_front_laser_link,0,1646712308813126633,v/m1vw10zy74w/map,-8.72643252363,-1.08853665762,0.165,0.0,0.0,-0.755434505105,0.655224166601,0,68.3705749512,66.4720916748,101.043037415,4.85698223114
1646712311019015849,137,1646712311019015849,r1000913c5/base_front_laser_link,0,1646712311019015849,v/m1vw10zy74w/map,-8.67899843492,-1.08817705437,0.165,0.0,0.0,-0.706707388435,0.707505948477,0,74.710975647,66.531791687,101.201133728,4.88978147507
1646712311176062372,138,1646712311176062372,r1000913c5/base_front_laser_link,0,1646712311176062372,v/m1vw10zy74w/map,-8.67914718411,-1.09204776687,0.165,0.0,0.0,-0.706891018801,0.707322477756,0,76.1158981323,66.6007385254,101.418899536,4.93938541412
1646712311334175711,139,1646712311334175711,r1000913c5/base_front_laser_link,0,1646712311334175711,v/m1vw10zy74w/map,-8.68246871998,-1.10421937691,0.165,0.0,0.0,-0.710395763029,0.703802429571,0,72.3570022583,66.6418533325,101.47857666,4.94557189941
1646712311649179447,140,1646712311649179447,r1000913c5/base_front_laser_link,0,1646712311649179447,v/m1vw10zy74w/map,-8.68762063584,-1.17573453654,0.165,0.0,0.0,-0.714744125289,0.699386041729,0,73.2938842773,66.6890335083,101.567886353,4.95961761475
1646712311807588780,141,1646712311807588780,r1000913c5/base_front_laser_link,0,1646712311807588780,v/m1vw10zy74w/map,-8.68911271235,-1.22188864787,0.165,0.0,0.0,-0.71525235067,0.69886627824,0,72.5869750977,66.7305679321,101.630737305,4.96672153473
1646712312043291956,142,1646712312043291956,r1000913c5/base_front_laser_link,0,1646712312043291956,v/m1vw10zy74w/map,-8.69107213017,-1.28945444341,0.165,0.0,0.0,-0.71563937555,0.698469959385,0,74.2339172363,66.7830429077,101.74949646,4.98881864548
1646712312200947135,143,1646712312200947135,r1000913c5/base_front_laser_link,0,1646712312200947135,v/m1vw10zy74w/map,-8.69260326895,-1.33431485274,0.165,0.0,0.0,-0.716082591121,0.698015560495,0,74.5883331299,66.8372421265,101.878387451,5.01371526718
1646712312437202121,144,1646712312437202121,r1000913c5/base_front_laser_link,0,1646712312437202121,v/m1vw10zy74w/map,-8.69848908958,-1.39948178698,0.165,0.0,0.0,-0.718570879764,0.695453730132,0,75.0057830811,66.8935775757,102.019927979,5.04211711884
1646712312595575694,145,1646712312595575694,r1000913c5/base_front_laser_link,0,1646712312595575694,v/m1vw10zy74w/map,-8.70495729698,-1.44448249079,0.165,0.0,0.0,-0.723436011512,0.690391437699,0,72.9051818848,66.934753418,102.082572937,5.04927206039
1646712312754224428,146,1646712312754224428,r1000913c5/base_front_laser_link,0,1646712312754224428,v/m1vw10zy74w/map,-8.70800994736,-1.48604655775,0.165,0.0,0.0,-0.726072691112,0.687617951497,0,74.5614471436,66.9866333008,102.199981689,5.07111549377
1646712312910181034,147,1646712312910181034,r1000913c5/base_front_laser_link,0,1646712312910181034,v/m1vw10zy74w/map,-8.71621086912,-1.53012540675,0.165,0.0,0.0,-0.731656864692,0.681673112532,0,75.8474884033,67.0465087891,102.36466217,5.10605287552
1646712313147142565,148,1646712313147142565,r1000913c5/base_front_laser_link,0,1646712313147142565,v/m1vw10zy74w/map,-8.71821527287,-1.59699887944,0.165,0.0,0.0,-0.733805824499,0.679359265728,0,69.1790084839,67.0608215332,102.336135864,5.09177160263
1646712313305128632,149,1646712313305128632,r1000913c5/base_front_laser_link,0,1646712313305128632,v/m1vw10zy74w/map,-8.72075177876,-1.64198975753,0.165,0.0,0.0,-0.732895084635,0.680341675129,0,69.6202697754,67.0778808594,102.314750671,5.07895708084
1646712313462184846,150,1646712313462184846,r1000913c5/base_front_laser_link,0,1646712313462184846,v/m1vw10zy74w/map,-8.71392704306,-1.69219000023,0.165,0.0,0.0,-0.726630879732,0.687028066836,0,72.7752761841,67.1156158447,102.365180969,5.08318853378
1646712313699164086,151,1646712313699164086,r1000913c5/base_front_laser_link,0,1646712313699164086,v/m1vw10zy74w/map,-8.71129603365,-1.76256017514,0.165,0.0,0.0,-0.720527352387,0.693426516988,0,71.3087234497,67.143196106,102.376396179,5.07773160934
1646712319140554006,152,1646712319140554006,r1000913c5/base_front_laser_link,0,1646712319140554006,v/m1vw10zy74w/map,-8.68984929094,-2.62666860979,0.165,0.0,0.0,-0.70388700315,0.710311964419,0,70.218421936,67.1632995605,102.364608765,5.06710386276
1646712322923075766,153,1646712322923075766,r1000913c5/base_front_laser_link,0,1646712322923075766,v/m1vw10zy74w/map,-8.69263529553,-2.82451997073,0.165,0.0,0.0,-0.706575644095,0.707637519619,0,68.7973556519,67.1739120483,102.330612183,5.05223369598
1646712323159868782,154,1646712323159868782,r1000913c5/base_front_laser_link,0,1646712323159868782,v/m1vw10zy74w/map,-8.69265882029,-2.81397040089,0.165,0.0,0.0,-0.706585992312,0.707627186779,0,69.2445220947,67.1872711182,102.30291748,5.03854942322
1646712323238855384,155,1646712323238855384,r1000913c5/base_front_laser_link,0,1646712323238855384,v/m1vw10zy74w/map,-8.69241512455,-2.8031971278,0.165,0.0,0.0,-0.706309197742,0.707903466008,0,72.3039474487,67.2200698853,102.336914062,5.03894996643
1646712323317961710,156,1646712323317961710,r1000913c5/base_front_laser_link,0,1646712323317961710,v/m1vw10zy74w/map,-8.69218674186,-2.79072398333,0.165,0.0,0.0,-0.706035577919,0.70817636413,0,71.4530563354,67.2470321655,102.349395752,5.0341219902
1646712323396814181,157,1646712323396814181,r1000913c5/base_front_laser_link,0,1646712323396814181,v/m1vw10zy74w/map,-8.69279561818,-2.7768145798,0.165,0.0,0.0,-0.706648379656,0.707564885738,0,71.7311325073,67.2754058838,102.367591858,5.03072834015
1646712323474968101,158,1646712323474968101,r1000913c5/base_front_laser_link,0,1646712323474968101,v/m1vw10zy74w/map,-8.69298086015,-2.75993859301,0.165,0.0,0.0,-0.706823607372,0.707389841644,0,69.0097122192,67.286315918,102.336326599,5.01666879654
1646712323712063587,159,1646712323712063587,r1000913c5/base_front_laser_link,0,1646712323712063587,v/m1vw10zy74w/map,-8.6926452867,-2.69536668229,0.165,0.0,0.0,-0.706422633585,0.707790267494,0,74.4893493652,67.3313369751,102.430892944,5.03318548203
1646712323790930139,160,1646712323790930139,r1000913c5/base_front_laser_link,0,1646712323790930139,v/m1vw10zy74w/map,-8.69315500001,-2.6710261422,0.165,0.0,0.0,-0.706926103645,0.707287412574,0,73.9353408813,67.3723526001,102.50541687,5.04435443878
1646712323948095258,161,1646712323948095258,r1000913c5/base_front_laser_link,0,1646712323948095258,v/m1vw10zy74w/map,-8.69424689717,-2.62387921374,0.165,0.0,0.0,-0.70815728843,0.706054710942,0,70.3729248047,67.39087677,102.493438721,5.03418731689
1646712324104827907,162,1646712324104827907,r1000913c5/base_front_laser_link,0,1646712324104827907,v/m1vw10zy74w/map,-8.69397499202,-2.57862539033,0.165,0.0,0.0,-0.707991143958,0.706221310976,0,68.7943496704,67.3994903564,102.458976746,5.01982927322
1646712324262032098,163,1646712324262032098,r1000913c5/base_front_laser_link,0,1646712324262032098,v/m1vw10zy74w/map,-8.69061057343,-2.5368984441,0.165,0.0,0.0,-0.708768119141,0.705441530738,0,72.7412490845,67.4320602417,102.497344971,5.02176094055
1646712324341009439,164,1646712324341009439,r1000913c5/base_front_laser_link,0,1646712324341009439,v/m1vw10zy74w/map,-8.69020935255,-2.51665294604,0.165,0.0,0.0,-0.709082711734,0.705125313629,0,70.8116455078,67.4525375366,102.492546082,5.0133357048
1646712324419996552,165,1646712324419996552,r1000913c5/base_front_laser_link,0,1646712324419996552,v/m1vw10zy74w/map,-8.69007519679,-2.49419426643,0.165,0.0,0.0,-0.70907357825,0.705134498254,0,76.1697692871,67.5050582886,102.636177063,5.04370737076
1646712324656130228,166,1646712324656130228,r1000913c5/base_front_laser_link,0,1646712324656130228,v/m1vw10zy74w/map,-8.6873920129,-2.41282407803,0.165,0.0,0.0,-0.710035803201,0.704165575822,0,78.2774810791,67.5695571899,102.860916138,5.09711885452
1646712324892804491,167,1646712324892804491,r1000913c5/base_front_laser_link,0,1646712324892804491,v/m1vw10zy74w/map,-8.68497832917,-2.34725554138,0.165,0.0,0.0,-0.709933988375,0.704268224578,0,73.6954803467,67.6060256958,102.917320251,5.10376548767
1646712325049976974,168,1646712325049976974,r1000913c5/base_front_laser_link,0,1646712325049976974,v/m1vw10zy74w/map,-8.68524053285,-2.30233586223,0.165,0.0,0.0,-0.710243376089,0.703956210799,0,71.5915679932,67.6296081543,102.922950745,5.09778022766
1646712325208853454,169,1646712325208853454,r1000913c5/base_front_laser_link,0,1646712325208853454,v/m1vw10zy74w/map,-8.68488410279,-2.25701274986,0.165,0.0,0.0,-0.710265615389,0.703933772166,0,71.1513137817,67.6503219604,102.919868469,5.0898475647
1646712325287933782,170,1646712325287933782,r1000913c5/base_front_laser_link,0,1646712325287933782,v/m1vw10zy74w/map,-8.68467387732,-2.23443629032,0.165,0.0,0.0,-0.710256941576,0.703942523892,0,68.5542449951,67.6556091309,102.881584167,5.07532596588
1646712325444087068,171,1646712325444087068,r1000913c5/base_front_laser_link,0,1646712325444087068,v/m1vw10zy74w/map,-8.68444868912,-2.1896380169,0.165,0.0,0.0,-0.710719283157,0.703475728472,0,65.1840286255,67.641242981,102.833152771,5.06397199631
1646712325603017314,172,1646712325603017314,r1000913c5/base_front_laser_link,0,1646712325603017314,v/m1vw10zy74w/map,-8.68399154322,-2.14464334016,0.165,0.0,0.0,-0.710756793215,0.703437830159,0,76.8949508667,67.694732666,102.988754272,5.0980091095
1646712325760906521,173,1646712325760906521,r1000913c5/base_front_laser_link,0,1646712325760906521,v/m1vw10zy74w/map,-8.68349568999,-2.09945674429,0.165,0.0,0.0,-0.710725972447,0.703468970239,0,77.7748565674,67.7526626587,103.173774719,5.14037227631
1646712325916850525,174,1646712325916850525,r1000913c5/base_front_laser_link,0,1646712325916850525,v/m1vw10zy74w/map,-8.68492612138,-2.05201953801,0.165,0.0,0.0,-0.710875984627,0.703317378202,0,74.6488723755,67.7920684814,103.248130798,5.15202140808
1646712325996111128,175,1646712325996111128,r1000913c5/base_front_laser_link,0,1646712325996111128,v/m1vw10zy74w/map,-8.6847175569,-2.02931986231,0.165,0.0,0.0,-0.710893659758,0.703299512666,0,77.614112854,67.8478775024,103.418937683,5.19035577774
1646712326075201205,176,1646712326075201205,r1000913c5/base_front_laser_link,0,1646712326075201205,v/m1vw10zy74w/map,-8.68446551896,-2.00692832284,0.165,0.0,0.0,-0.710881308808,0.70331199676,0,73.7428359985,67.8811798096,103.464744568,5.19452142715
1646712326154048930,177,1646712326154048930,r1000913c5/base_front_laser_link,0,1646712326154048930,v/m1vw10zy74w/map,-8.68419906629,-1.98453211269,0.165,0.0,0.0,-0.710852802413,0.703340808785,0,75.154838562,67.9220428467,103.547355652,5.20843887329
1646712326390091649,178,1646712326390091649,r1000913c5/base_front_laser_link,0,1646712326390091649,v/m1vw10zy74w/map,-8.68331525426,-1.92687989237,0.165,0.0,0.0,-0.707981730665,0.706230747734,0,72.957359314,67.9501724243,103.572387695,5.20740556717
1646712326469166143,179,1646712326469166143,r1000913c5/base_front_laser_link,0,1646712326469166143,v/m1vw10zy74w/map,-8.68325171342,-1.90430666828,0.165,0.0,0.0,-0.707973368286,0.706239130746,0,72.3470535278,67.9746017456,103.584114075,5.20317077637
1646712326626135933,180,1646712326626135933,r1000913c5/base_front_laser_link,0,1646712326626135933,v/m1vw10zy74w/map,-8.68425652154,-1.85215069386,0.165,0.0,0.0,-0.710634925377,0.703560944649,0,71.6493225098,67.9949035645,103.582550049,5.19588136673
1646712326705267378,181,1646712326705267378,r1000913c5/base_front_laser_link,0,1646712326705267378,v/m1vw10zy74w/map,-8.68505808836,-1.84864457644,0.165,0.0,0.0,-0.708155625068,0.706056379254,0,71.3009567261,68.0130691528,103.574966431,5.18730020523
1646712326784121974,182,1646712326784121974,r1000913c5/base_front_laser_link,0,1646712326784121974,v/m1vw10zy74w/map,-8.68499548537,-1.82621428621,0.165,0.0,0.0,-0.708160014203,0.706051977042,0,69.6740875244,68.0221405029,103.545608521,5.17448711395
1646712326942108978,183,1646712326942108978,r1000913c5/base_front_laser_link,0,1646712326942108978,v/m1vw10zy74w/map,-8.68484574974,-1.78112697673,0.165,0.0,0.0,-0.708143098225,0.706068943119,0,70.7699356079,68.0370788574,103.52999115,5.16430425644
1646712327020093660,184,1646712327020093660,r1000913c5/base_front_laser_link,0,1646712327020093660,v/m1vw10zy74w/map,-8.68475822833,-1.75923700324,0.165,0.0,0.0,-0.708117814647,0.706094300062,0,72.475402832,68.0610656738,103.542800903,5.16057825089
1646712327177982724,185,1646712327177982724,r1000913c5/base_front_laser_link,0,1646712327177982724,v/m1vw10zy74w/map,-8.68205396511,-1.70714235153,0.165,0.0,0.0,-0.709024515789,0.705183831359,0,74.6410293579,68.0964431763,103.603973389,5.16917657852
1646712327257122682,186,1646712327257122682,r1000913c5/base_front_laser_link,0,1646712327257122682,v/m1vw10zy74w/map,-8.68193593694,-1.68447567592,0.165,0.0,0.0,-0.709030102586,0.705178214089,0,71.0344467163,68.112159729,103.591369629,5.15973758698
1646712327336099084,187,1646712327336099084,r1000913c5/base_front_laser_link,0,1646712327336099084,v/m1vw10zy74w/map,-8.681808831,-1.66188153074,0.165,0.0,0.0,-0.709025934177,0.705182405243,0,71.5445480347,68.1304168701,103.58644104,5.15200805664
1646712327493125879,188,1646712327493125879,r1000913c5/base_front_laser_link,0,1646712327493125879,v/m1vw10zy74w/map,-8.68150656249,-1.61272084138,0.165,0.0,0.0,-0.708754929696,0.705454782131,0,71.7803268433,68.1497268677,103.585151672,5.1451420784
1646712327651083139,189,1646712327651083139,r1000913c5/base_front_laser_link,0,1646712327651083139,v/m1vw10zy74w/map,-8.68062559342,-1.57948502726,0.165,0.0,0.0,-0.709384846005,0.704821353435,0,72.4490280151,68.1723556519,103.595298767,5.14098310471
1646712327730097388,190,1646712327730097388,r1000913c5/base_front_laser_link,0,1646712327730097388,v/m1vw10zy74w/map,-8.68049162599,-1.55693020036,0.165,0.0,0.0,-0.70939736274,0.704808755435,0,71.7235565186,68.1909484863,103.592559814,5.13387060165
1646712327966140913,191,1646712327966140913,r1000913c5/base_front_laser_link,0,1646712327966140913,v/m1vw10zy74w/map,-8.68160502178,-1.48650055088,0.165,0.0,0.0,-0.709514121065,0.704691217491,0,71.2732315063,68.2070007324,103.582725525,5.12524318695
1646712328125176172,192,1646712328125176172,r1000913c5/base_front_laser_link,0,1646712328125176172,v/m1vw10zy74w/map,-8.68144449435,-1.44062894948,0.165,0.0,0.0,-0.709478938969,0.704726638605,0,73.2307662964,68.2330322266,103.606987,5.12465333939
1646712328204192556,193,1646712328204192556,r1000913c5/base_front_laser_link,0,1646712328204192556,v/m1vw10zy74w/map,-8.68121454161,-1.41821008615,0.165,0.0,0.0,-0.709392432794,0.704813717442,0,72.7990341187,68.2565689087,103.622146606,5.12186145782
1646712328360211256,194,1646712328360211256,r1000913c5/base_front_laser_link,0,1646712328360211256,v/m1vw10zy74w/map,-8.67795267164,-1.37550619383,0.165,0.0,0.0,-0.710196228718,0.704003776065,0,73.4982299805,68.2834472656,103.650695801,5.1224155426
1646712328439308136,195,1646712328439308136,r1000913c5/base_front_laser_link,0,1646712328439308136,v/m1vw10zy74w/map,-8.67680831588,-1.36158907928,0.165,0.0,0.0,-0.71035425322,0.703844325779,0,73.8983078003,68.3120956421,103.687034607,5.12498092651
1646712328597290839,196,1646712328597290839,r1000913c5/base_front_laser_link,0,1646712328597290839,v/m1vw10zy74w/map,-8.6764133759,-1.31618286677,0.165,0.0,0.0,-0.710380387813,0.703817948486,0,72.8814926147,68.3352890015,103.702026367,5.12224674225
1646712328756272582,197,1646712328756272582,r1000913c5/base_front_laser_link,0,1646712328756272582,v/m1vw10zy74w/map,-8.67598794847,-1.27104799195,0.165,0.0,0.0,-0.710373471786,0.70382492893,0,71.8391952515,68.3529815674,103.698867798,5.11529397964
1646712328992366438,198,1646712328992366438,r1000913c5/base_front_laser_link,0,1646712328992366438,v/m1vw10zy74w/map,-8.67816878304,-1.20093437408,0.165,0.0,0.0,-0.708057474125,0.706154808336,0,69.9459457397,68.3609924316,103.671821594,5.10360956192
1646712329150246460,199,1646712329150246460,r1000913c5/base_front_laser_link,0,1646712329150246460,v/m1vw10zy74w/map,-8.67804676354,-1.15569594619,0.165,0.0,0.0,-0.708057185169,0.70615509807,0,70.7251739502,68.3728103638,103.65335083,5.09351444244
1646712329306442193,200,1646712329306442193,r1000913c5/base_front_laser_link,0,1646712329306442193,v/m1vw10zy74w/map,-8.67926371955,-1.11509078924,0.165,0.0,0.0,-0.708744238466,0.705465523212,0,70.6640777588,68.3842086792,103.634216309,5.08333444595
1646712329465174609,201,1646712329465174609,r1000913c5/base_front_laser_link,0,1646712329465174609,v/m1vw10zy74w/map,-8.67906348743,-1.06994847702,0.165,0.0,0.0,-0.708754684458,0.705455028516,0,71.3316802979,68.3988037109,103.623535156,5.07491254807
1646712329543217245,202,1646712329543217245,r1000913c5/base_front_laser_link,0,1646712329543217245,v/m1vw10zy74w/map,-8.67898597139,-1.04772763699,0.165,0.0,0.0,-0.708782940408,0.705426639266,0,71.9851760864,68.4164657593,103.622238159,5.06858921051
1646712329622724924,203,1646712329622724924,r1000913c5/base_front_laser_link,0,1646712329622724924,v/m1vw10zy74w/map,-8.67890089806,-1.02514039808,0.165,0.0,0.0,-0.708806907833,0.70540255699,0,71.2441329956,68.4303283691,103.610221863,5.05996417999
1646712329779716820,204,1646712329779716820,r1000913c5/base_front_laser_link,0,1646712329779716820,v/m1vw10zy74w/map,-8.67827020394,-0.982066841186,0.165,0.0,0.0,-0.707444853783,0.706768546878,0,70.4607009888,68.4402313232,103.588851929,5.04953861237
1646712329937282401,205,1646712329937282401,r1000913c5/base_front_laser_link,0,1646712329937282401,v/m1vw10zy74w/map,-8.67822496882,-0.936894222095,0.165,0.0,0.0,-0.707442576095,0.706770826739,0,72.1001358032,68.4580001831,103.588973999,5.04365777969
1646712330095240460,206,1646712330095240460,r1000913c5/base_front_laser_link,0,1646712330095240460,v/m1vw10zy74w/map,-8.67885489129,-0.88788389837,0.165,0.0,0.0,-0.70781340486,0.706399450666,0,69.3230285645,68.4621810913,103.55745697,5.03176021576
1646712330252376279,207,1646712330252376279,r1000913c5/base_front_laser_link,0,1646712330252376279,v/m1vw10zy74w/map,-8.6796835709,-0.85682948785,0.165,0.0,0.0,-0.707318374263,0.706895124774,0,71.7023239136,68.4777526855,103.551605225,5.02461671829
1646712332695270092,208,1646712332695270092,r1000913c5/base_front_laser_link,0,1646712332695270092,v/m1vw10zy74w/map,-8.67271920133,-0.759402003243,0.165,0.0,0.0,-0.699311041871,0.714817505883,0,70.2925643921,68.4864425659,103.52872467,5.0140953064
1646712333012419087,209,1646712333012419087,r1000913c5/base_front_laser_link,0,1646712333012419087,v/m1vw10zy74w/map,-8.65669458089,-0.785824433403,0.165,0.0,0.0,-0.683156787262,0.730271732999,0,65.9373779297,68.4743041992,103.489837646,5.00517749786
1646712333248558272,210,1646712333248558272,r1000913c5/base_front_laser_link,0,1646712333248558272,v/m1vw10zy74w/map,-8.6351924023,-0.810881999627,0.165,0.0,0.0,-0.662057651915,0.749452910823,0,68.3734741211,68.4738235474,103.453575134,4.9932513237
1646712333326437502,211,1646712333326437502,r1000913c5/base_front_laser_link,0,1646712333326437502,v/m1vw10zy74w/map,-8.62712671923,-0.820179591784,0.165,0.0,0.0,-0.65441829312,0.756132724877,0,65.0912094116,68.4578704834,103.418327332,4.98681926727
1646712333485442589,212,1646712333485442589,r1000913c5/base_front_laser_link,0,1646712333485442589,v/m1vw10zy74w/map,-8.60662245045,-0.840661434676,0.165,0.0,0.0,-0.635165177349,0.772376331514,0,65.0063934326,68.4416656494,103.383651733,4.98066139221
1646712333564523437,213,1646712333564523437,r1000913c5/base_front_laser_link,0,1646712333564523437,v/m1vw10zy74w/map,-8.59476570282,-0.851351469675,0.165,0.0,0.0,-0.624195306479,0.781268340181,0,64.607963562,68.4237518311,103.351333618,4.97586202621
1646712333641465220,214,1646712333641465220,r1000913c5/base_front_laser_link,0,1646712333641465220,v/m1vw10zy74w/map,-8.58205857487,-0.862051633352,0.165,0.0,0.0,-0.612592984323,0.790398529577,0,65.7171936035,68.4111633301,103.314117432,4.96765327454
1646712333720438075,215,1646712333720438075,r1000913c5/base_front_laser_link,0,1646712333720438075,v/m1vw10zy74w/map,-8.56997507736,-0.864843146188,0.165,0.0,0.0,-0.602016177556,0.798483889606,0,64.0847167969,68.39112854,103.285598755,4.96482181549
1646712334115577158,216,1646712334115577158,r1000913c5/base_front_laser_link,0,1646712334115577158,v/m1vw10zy74w/map,-8.46805683967,-0.914301314276,0.165,0.0,0.0,-0.507726252765,0.861518457291,0,63.8082008362,68.370010376,103.259239197,4.96307659149
1646712334274539012,217,1646712334274539012,r1000913c5/base_front_laser_link,0,1646712334274539012,v/m1vw10zy74w/map,-8.41299790262,-0.923895176489,0.165,0.0,0.0,-0.45330625158,0.891354835225,0,63.8924865723,68.3494720459,103.232185364,4.96090507507
1646712334430615494,218,1646712334430615494,r1000913c5/base_front_laser_link,0,1646712334430615494,v/m1vw10zy74w/map,-8.35339480581,-0.923137729968,0.165,0.0,0.0,-0.393692494429,0.919242198678,0,65.3722305298,68.3358764648,103.196678162,4.95360088348
1646712334509389093,219,1646712334509389093,r1000913c5/base_front_laser_link,0,1646712334509389093,v/m1vw10zy74w/map,-8.32179024953,-0.92113430536,0.165,0.0,0.0,-0.360900838001,0.932604195321,0,69.677230835,68.3419723511,103.171295166,4.94310569763
1646712334746604083,220,1646712334746604083,r1000913c5/base_front_laser_link,0,1646712334746604083,v/m1vw10zy74w/map,-8.23090677493,-0.903810606286,0.165,0.0,0.0,-0.267509835678,0.963555129619,0,55.8451881409,68.2854309082,103.294387817,5.00298690796
1646712334903550853,221,1646712334903550853,r1000913c5/base_front_laser_link,0,1646712334903550853,v/m1vw10zy74w/map,-8.17071935646,-0.890450271913,0.165,0.0,0.0,-0.211719806394,0.977330406557,0,59.3281669617,68.2450790405,103.3282547,5.0277261734
1646712335139569934,222,1646712335139569934,r1000913c5/base_front_laser_link,0,1646712335139569934,v/m1vw10zy74w/map,-8.08737597827,-0.874257816931,0.165,0.0,0.0,-0.151573603112,0.988445973657,0,56.5989303589,68.192855835,103.422805786,5.07665061951
1646712335297694345,223,1646712335297694345,r1000913c5/base_front_laser_link,0,1646712335297694345,v/m1vw10zy74w/map,-8.02507355263,-0.866813956829,0.165,0.0,0.0,-0.115259898846,0.993335369207,0,58.3156547546,68.1487579346,103.472961426,5.10806655884
1646712335375725464,224,1646712335375725464,r1000913c5/base_front_laser_link,0,1646712335375725464,v/m1vw10zy74w/map,-7.98960531763,-0.849370404964,0.165,0.0,0.0,-0.0999675049536,0.994990702446,0,57.1901893616,68.1000518799,103.546295166,5.14874696732
1646712335454624712,225,1646712335454624712,r1000913c5/base_front_laser_link,0,1646712335454624712,v/m1vw10zy74w/map,-7.95799799872,-0.843570676086,0.165,0.0,0.0,-0.0845115005069,0.996422503902,0,58.4651870728,68.0574264526,103.588768005,5.17711591721
1646712335691411688,226,1646712335691411688,r1000913c5/base_front_laser_link,0,1646712335691411688,v/m1vw10zy74w/map,-7.86162693203,-0.821859384755,0.165,0.0,0.0,-0.0427368754529,0.999086362371,0,63.1770401001,68.0359268188,103.563308716,5.17579555511
1646712335769575979,227,1646712335769575979,r1000913c5/base_front_laser_link,0,1646712335769575979,v/m1vw10zy74w/map,-7.8290012016,-0.816543566997,0.165,0.0,0.0,-0.031100921505,0.999516249333,0,65.3192443848,68.0240097046,103.526557922,5.1675157547
1646712336006915390,228,1646712336006915390,r1000913c5/base_front_laser_link,0,1646712336006915390,v/m1vw10zy74w/map,-7.72162802031,-0.804284374488,0.165,0.0,0.0,-0.003360265032,0.999994354294,0,62.8054161072,68.0012207031,103.50428772,5.1676902771
1646712336242717648,229,1646712336242717648,r1000913c5/base_front_laser_link,0,1646712336242717648,v/m1vw10zy74w/map,-7.62170338405,-0.7900060068,0.165,0.0,0.0,0.0170492792782,0.999854650475,0,58.9816436768,67.9620056152,103.533744812,5.19057941437
1646712336399607129,230,1646712336399607129,r1000913c5/base_front_laser_link,0,1646712336399607129,v/m1vw10zy74w/map,-7.54629849294,-0.781733311417,0.165,0.0,0.0,0.024678923935,0.999695428975,0,60.2176132202,67.9284820557,103.541343689,5.20428752899
1646712336478578185,231,1646712336478578185,r1000913c5/base_front_laser_link,0,1646712336478578185,v/m1vw10zy74w/map,-7.51020144587,-0.777464572809,0.165,0.0,0.0,0.0280327204731,0.999607006069,0,60.3057060242,67.8956222534,103.546829224,5.21707010269
1646712336635777060,232,1646712336635777060,r1000913c5/base_front_laser_link,0,1646712336635777060,v/m1vw10zy74w/map,-7.43051846052,-0.769752776402,0.165,0.0,0.0,0.0324669388355,0.999472809977,0,60.9097824097,67.8656387329,103.543319702,5.22589254379
1646712336793745276,233,1646712336793745276,r1000913c5/base_front_laser_link,0,1646712336793745276,v/m1vw10zy74w/map,-7.33622534873,-0.757018920942,0.165,0.0,0.0,0.0334841440739,0.999439248827,0,66.0621795654,67.8579330444,103.50592804,5.2159986496
1646712337029648924,234,1646712337029648924,r1000913c5/base_front_laser_link,0,1646712337029648924,v/m1vw10zy74w/map,-7.21103166385,-0.744683512503,0.165,0.0,0.0,0.0305897894728,0.999532022889,0,58.4344596863,67.8178329468,103.540885925,5.24101638794
1646712337108840605,235,1646712337108840605,r1000913c5/base_front_laser_link,0,1646712337108840605,v/m1vw10zy74w/map,-7.16578348941,-0.742921458851,0.165,0.0,0.0,0.0291156492567,0.999576049617,0,58.8668632507,67.7799072266,103.56653595,5.26221036911
1646712337344729439,236,1646712337344729439,r1000913c5/base_front_laser_link,0,1646712337344729439,v/m1vw10zy74w/map,-7.04394896946,-0.734311269107,0.165,0.0,0.0,0.0252390258314,0.999681445049,0,58.3694381714,67.740196228,103.599723816,5.28650951385
1646712337503310192,237,1646712337503310192,r1000913c5/base_front_laser_link,0,1646712337503310192,v/m1vw10zy74w/map,-6.94426178158,-0.725299843852,0.165,0.0,0.0,0.0211833244892,0.999775608206,0,51.5242500305,67.6720657349,103.809196472,5.37904500961
1646712337581685172,238,1646712337581685172,r1000913c5/base_front_laser_link,0,1646712337581685172,v/m1vw10zy74w/map,-6.89530061955,-0.724897252628,0.165,0.0,0.0,0.0183130907539,0.999832301292,0,50.5607070923,67.6004714966,104.042449951,5.48066139221
