%time,field.header.seq,field.header.stamp,field.header.frame_id,field.pose.header.seq,field.pose.header.stamp,field.pose.header.frame_id,field.pose.pose.position.x,field.pose.pose.position.y,field.pose.pose.position.z,field.pose.pose.orientation.x,field.pose.pose.orientation.y,field.pose.pose.orientation.z,field.pose.pose.orientation.w,field.label,field.current_error,field.mean,field.threshold,field.std_dev
1646428159685131655,0,1646428159685131655,r1000913c5/base_front_laser_link,0,1646428159685131655,v/m1vw10zy74w/map,-2.78790384251,-2.25968753317,0.165,0.0,0.0,-0.648671998964,0.761068090094,0,59.3151054382,59.3151054382,nan,nan
1646428159842403396,1,1646428159842403396,r1000913c5/base_front_laser_link,0,1646428159842403396,v/m1vw10zy74w/map,-2.76345002451,-2.25492497356,0.165,0.0,0.0,-0.619895128558,0.784684668889,0,61.608455658,60.4617805481,85.3267059326,1.62164270878
1646428160000061457,2,1646428160000061457,r1000913c5/base_front_laser_link,0,1646428160000061457,v/m1vw10zy74w/map,-2.73953033418,-2.2487711435,0.165,0.0,0.0,-0.590512454325,0.807028525696,0,58.7018585205,59.8751411438,84.4714126587,1.532091856
1646428160237116191,3,1646428160237116191,r1000913c5/base_front_laser_link,0,1646428160237116191,v/m1vw10zy74w/map,-2.69167688514,-2.23020364129,0.165,0.0,0.0,-0.551815675143,0.833966102828,0,56.9360427856,59.1403656006,84.9300079346,1.92988145351
1646428160394107098,4,1646428160394107098,r1000913c5/base_front_laser_link,0,1646428160394107098,v/m1vw10zy74w/map,-2.67530766606,-2.22311070578,0.165,0.0,0.0,-0.525454232369,0.850821867188,0,56.9385528564,58.7000045776,84.5194854736,1.9398266077
1646428160552178500,5,1646428160552178500,r1000913c5/base_front_laser_link,0,1646428160552178500,v/m1vw10zy74w/map,-2.65443628687,-2.20949863862,0.165,0.0,0.0,-0.494978367942,0.868905297066,0,55.9852180481,58.2475395203,84.4239578247,2.05880641937
1646428160788159693,6,1646428160788159693,r1000913c5/base_front_laser_link,0,1646428160788159693,v/m1vw10zy74w/map,-2.62385447413,-2.1830030673,0.165,0.0,0.0,-0.448445711454,0.89381007148,0,61.4305343628,58.7022514343,85.3967514038,2.23149871826
1646428160946460393,7,1646428160946460393,r1000913c5/base_front_laser_link,0,1646428160946460393,v/m1vw10zy74w/map,-2.60476922592,-2.16226512227,0.165,0.0,0.0,-0.415440289771,0.909620451416,0,61.2793579102,59.0243911743,85.7982788086,2.2579638958
1646428161182145385,8,1646428161182145385,r1000913c5/base_front_laser_link,0,1646428161182145385,v/m1vw10zy74w/map,-2.57708000657,-2.13835188805,0.165,0.0,0.0,-0.365682681043,0.930739585913,0,56.0707511902,58.6962089539,85.6871948242,2.33032870293
1646428161340177642,9,1646428161340177642,r1000913c5/base_front_laser_link,0,1646428161340177642,v/m1vw10zy74w/map,-2.5611043517,-2.11590914543,0.165,0.0,0.0,-0.331726816261,0.943375492248,0,53.2588768005,58.1524772644,86.5221557617,2.78989362717
1646428161418358393,10,1646428161418358393,r1000913c5/base_front_laser_link,0,1646428161418358393,v/m1vw10zy74w/map,-2.55102986344,-2.11023028867,0.165,0.0,0.0,-0.314988398454,0.949095521452,0,52.5207099915,57.6404953003,87.0742950439,3.14459872246
1646428161576269473,11,1646428161576269473,r1000913c5/base_front_laser_link,0,1646428161576269473,v/m1vw10zy74w/map,-2.53816236405,-2.09477594617,0.165,0.0,0.0,-0.280915739176,0.959732435361,0,51.1258201599,57.0976066589,87.7153625488,3.53925085068
1646428161655080177,12,1646428161655080177,r1000913c5/base_front_laser_link,0,1646428161655080177,v/m1vw10zy74w/map,-2.53183063905,-2.08454700486,0.165,0.0,0.0,-0.263622347849,0.964625967779,0,52.359588623,56.7331428528,87.6365127563,3.63445591927
1646428161812233142,13,1646428161812233142,r1000913c5/base_front_laser_link,0,1646428161812233142,v/m1vw10zy74w/map,-2.51985129436,-2.06119753747,0.165,0.0,0.0,-0.227935962049,0.973676125416,0,50.1986465454,56.2663955688,87.979133606,3.90424728394
1646428161970240093,14,1646428161970240093,r1000913c5/base_front_laser_link,0,1646428161970240093,v/m1vw10zy74w/map,-2.50849487984,-2.0374131989,0.165,0.0,0.0,-0.192193472082,0.981357054944,0,53.9032325745,56.1088485718,87.543006897,3.81138467789
1646428162049326367,15,1646428162049326367,r1000913c5/base_front_laser_link,0,1646428162049326367,v/m1vw10zy74w/map,-2.50482580425,-2.02670282313,0.165,0.0,0.0,-0.174705795633,0.984620680756,0,53.2078704834,55.9275398254,87.1862106323,3.75289082527
1646428162127380105,16,1646428162127380105,r1000913c5/base_front_laser_link,0,1646428162127380105,v/m1vw10zy74w/map,-2.5001724411,-2.01502469847,0.165,0.0,0.0,-0.157319118583,0.987547819059,0,52.0315475464,55.6983642578,86.9620742798,3.75457000732
1646428162364158649,17,1646428162364158649,r1000913c5/base_front_laser_link,0,1646428162364158649,v/m1vw10zy74w/map,-2.50442507853,-1.97732692433,0.165,0.0,0.0,-0.104978676432,0.994474473023,0,43.7868995667,55.0366134644,88.8333435059,4.59890842438
1646428162521223430,18,1646428162521223430,r1000913c5/base_front_laser_link,0,1646428162521223430,v/m1vw10zy74w/map,-2.50307595838,-1.95803568432,0.165,0.0,0.0,-0.0703131798229,0.997524965474,0,46.4828529358,54.5864181519,89.2299346924,4.88117265701
1646428162759133845,19,1646428162759133845,r1000913c5/base_front_laser_link,0,1646428162759133845,v/m1vw10zy74w/map,-2.49716233931,-1.9303975655,0.165,0.0,0.0,-0.0160942640197,0.999870478945,0,49.5606651306,54.3351287842,88.9813842773,4.88208627701
1646428162915269250,20,1646428162915269250,r1000913c5/base_front_laser_link,0,1646428162915269250,v/m1vw10zy74w/map,-2.49570117116,-1.91310856651,0.165,0.0,0.0,0.018678524952,0.999825541135,0,48.0376205444,54.0352478027,88.8940429688,4.95293188095
1646428162995287924,21,1646428162995287924,r1000913c5/base_front_laser_link,0,1646428162995287924,v/m1vw10zy74w/map,-2.49643956282,-1.90111015745,0.165,0.0,0.0,0.0366213334556,0.999329213991,0,48.500831604,53.7836837769,88.7101898193,4.975502491
1646428163152272806,22,1646428163152272806,r1000913c5/base_front_laser_link,0,1646428163152272806,v/m1vw10zy74w/map,-2.49616867355,-1.86875316677,0.165,0.0,0.0,0.0704405531977,0.997515979053,0,52.5069313049,53.7281723022,88.3333511353,4.8683924675
1646428163388522715,23,1646428163388522715,r1000913c5/base_front_laser_link,0,1646428163388522715,v/m1vw10zy74w/map,-2.50825856383,-1.82936925902,0.165,0.0,0.0,0.123068285733,0.992398204879,0,52.7030830383,53.685459137,87.9833908081,4.76597738266
1646428163546467490,24,1646428163546467490,r1000913c5/base_front_laser_link,0,1646428163546467490,v/m1vw10zy74w/map,-2.51858756002,-1.80176815655,0.165,0.0,0.0,0.159316139232,0.987227617006,0,50.6055335999,53.5622634888,87.6806182861,4.70611715317
1646428163624575832,25,1646428163624575832,r1000913c5/base_front_laser_link,0,1646428163624575832,v/m1vw10zy74w/map,-2.53022234052,-1.78083692165,0.165,0.0,0.0,0.175104762108,0.98454980691,0,51.834602356,53.4958152771,87.3662109375,4.62346601486
1646428163940432447,26,1646428163940432447,r1000913c5/base_front_laser_link,0,1646428163940432447,v/m1vw10zy74w/map,-2.55221917632,-1.73034035396,0.165,0.0,0.0,0.244743378612,0.96958789113,0,51.4564399719,53.4202842712,87.0721969604,4.55063772202
1646428164018379141,27,1646428164018379141,r1000913c5/base_front_laser_link,0,1646428164018379141,v/m1vw10zy74w/map,-2.55794020554,-1.72001109137,0.165,0.0,0.0,0.261807611722,0.965120082914,0,50.0186157227,53.2987937927,86.8336105347,4.51160621643
1646428164176026368,28,1646428164176026368,r1000913c5/base_front_laser_link,0,1646428164176026368,v/m1vw10zy74w/map,-2.56184876574,-1.71651997598,0.165,0.0,0.0,0.297950757743,0.954581241153,0,50.6062164307,53.205947876,86.5812530518,4.45843505859
1646428164334422741,29,1646428164334422741,r1000913c5/base_front_laser_link,0,1646428164334422741,v/m1vw10zy74w/map,-2.57587740618,-1.69738691528,0.165,0.0,0.0,0.331597839755,0.943420835402,0,47.881816864,53.0284767151,86.4907836914,4.48743629456
1646428164728083437,30,1646428164728083437,r1000913c5/base_front_laser_link,0,1646428164728083437,v/m1vw10zy74w/map,-2.61396508792,-1.64173109044,0.165,0.0,0.0,0.412765025183,0.910837545332,0,49.8689956665,52.9265556335,86.2716217041,4.44835472107
1646428165595204809,31,1646428165595204809,r1000913c5/base_front_laser_link,0,1646428165595204809,v/m1vw10zy74w/map,-2.64689197849,-1.5863428567,0.165,0.0,0.0,0.497617213092,0.867396742693,0,54.4990577698,52.9756965637,86.1302185059,4.38483905792
1646428165909473216,32,1646428165909473216,r1000913c5/base_front_laser_link,0,1646428165909473216,v/m1vw10zy74w/map,-2.64851425261,-1.55212845335,0.165,0.0,0.0,0.520591766463,0.853805723037,0,55.7828445435,53.0607643127,86.0908432007,4.34335899353
1646428166224242089,33,1646428166224242089,r1000913c5/base_front_laser_link,0,1646428166224242089,v/m1vw10zy74w/map,-2.64912686684,-1.504598479,0.165,0.0,0.0,0.546179689075,0.837668041197,0,54.3852539062,53.0997200012,85.9489364624,4.28307151794
1646428166460452144,34,1646428166460452144,r1000913c5/base_front_laser_link,0,1646428166460452144,v/m1vw10zy74w/map,-2.64674834714,-1.46420017497,0.165,0.0,0.0,0.56281029528,0.826586094443,0,53.2802352905,53.1048774719,85.7640533447,4.21972560883
1646428166775488966,35,1646428166775488966,r1000913c5/base_front_laser_link,0,1646428166775488966,v/m1vw10zy74w/map,-2.63553011822,-1.39567611699,0.165,0.0,0.0,0.582679668193,0.812701916002,0,54.5882797241,53.1460800171,85.6451263428,4.16634893417
1646428166933654830,36,1646428166933654830,r1000913c5/base_front_laser_link,0,1646428166933654830,v/m1vw10zy74w/map,-2.63430134412,-1.3628153024,0.165,0.0,0.0,0.59013087464,0.807307593669,0,54.0262908936,53.1698722839,85.501739502,4.11062335968
1646428167169629600,37,1646428167169629600,r1000913c5/base_front_laser_link,0,1646428167169629600,v/m1vw10zy74w/map,-2.62643924681,-1.30544000637,0.165,0.0,0.0,0.601142965062,0.799141499083,0,53.9493637085,53.1903839111,85.3603820801,4.0566649437
1646428167327496397,38,1646428167327496397,r1000913c5/base_front_laser_link,0,1646428167327496397,v/m1vw10zy74w/map,-2.62265713184,-1.26311785709,0.165,0.0,0.0,0.610267647969,0.79219530284,0,54.3075218201,53.2190284729,85.2398071289,4.0069270134
1646428167563375820,39,1646428167563375820,r1000913c5/base_front_laser_link,0,1646428167563375820,v/m1vw10zy74w/map,-2.62468745258,-1.19101800771,0.165,0.0,0.0,0.629876288886,0.77669547488,0,59.9187469482,53.3865203857,85.6703948975,4.09462356567
1646428167721461916,40,1646428167721461916,r1000913c5/base_front_laser_link,0,1646428167721461916,v/m1vw10zy74w/map,-2.63107332321,-1.14095622623,0.165,0.0,0.0,0.647818354594,0.761794840788,0,58.0773162842,53.5009307861,85.8277816772,4.10894966125
1646428167878594152,41,1646428167878594152,r1000913c5/base_front_laser_link,0,1646428167878594152,v/m1vw10zy74w/map,-2.64379229568,-1.09301168581,0.165,0.0,0.0,0.668533317582,0.743682192394,0,56.3542900085,53.5688667297,85.8158950806,4.08234262466
1646428168036514464,42,1646428168036514464,r1000913c5/base_front_laser_link,0,1646428168036514464,v/m1vw10zy74w/map,-2.66458823003,-1.0373918568,0.165,0.0,0.0,0.695779726501,0.71825522775,0,54.9171447754,53.6002235413,85.7162857056,4.03868770599
1646428168115639355,43,1646428168115639355,r1000913c5/base_front_laser_link,0,1646428168115639355,v/m1vw10zy74w/map,-2.6783281405,-1.00877400686,0.165,0.0,0.0,0.710806759569,0.703387340341,0,55.6995735168,53.6479377747,85.6598739624,4.00397777557
1646428168273401652,44,1646428168273401652,r1000913c5/base_front_laser_link,0,1646428168273401652,v/m1vw10zy74w/map,-2.70878418053,-0.951780636542,0.165,0.0,0.0,0.74088138247,0.671635896233,0,59.2268409729,53.7719116211,85.9058380127,4.04464197159
1646428168589587924,45,1646428168589587924,r1000913c5/base_front_laser_link,0,1646428168589587924,v/m1vw10zy74w/map,-2.79430838118,-0.829795780453,0.165,0.0,0.0,0.783920437393,0.620861295168,0,61.1867332458,53.9331054688,86.3716430664,4.14617919922
1646428168667645537,46,1646428168667645537,r1000913c5/base_front_laser_link,0,1646428168667645537,v/m1vw10zy74w/map,-2.81313240422,-0.801476750221,0.165,0.0,0.0,0.794318127887,0.607502026095,0,61.619556427,54.0966453552,86.8507537842,4.25136947632
1646428168903681019,47,1646428168903681019,r1000913c5/base_front_laser_link,0,1646428168903681019,v/m1vw10zy74w/map,-2.89541031607,-0.717870762892,0.165,0.0,0.0,0.83243196496,0.554127263102,0,59.2633781433,54.204284668,87.0187911987,4.27150249481
1646428169062580494,48,1646428169062580494,r1000913c5/base_front_laser_link,0,1646428169062580494,v/m1vw10zy74w/map,-2.94784179618,-0.670485699096,0.165,0.0,0.0,0.860157017095,0.510029318709,0,58.5912322998,54.2938156128,87.1127624512,4.27298212051
1646428169376734492,49,1646428169376734492,r1000913c5/base_front_laser_link,0,1646428169376734492,v/m1vw10zy74w/map,-3.10369918032,-0.603497955208,0.165,0.0,0.0,0.916952068109,0.398997374415,0,65.3620529175,54.5151786804,88.0437774658,4.50953149796
1646428169534478276,50,1646428169534478276,r1000913c5/base_front_laser_link,0,1646428169534478276,v/m1vw10zy74w/map,-3.19672909862,-0.582961723213,0.165,0.0,0.0,0.943287762446,0.33197619978,0,64.0665512085,54.7024612427,88.6832199097,4.66025257111
1646428169772318624,51,1646428169772318624,r1000913c5/base_front_laser_link,0,1646428169772318624,v/m1vw10zy74w/map,-3.3475332051,-0.567527865263,0.165,0.0,0.0,0.973805623273,0.227382075111,0,68.16771698,54.9614105225,89.8949356079,4.97784090042
1646428169849625647,52,1646428169849625647,r1000913c5/base_front_laser_link,0,1646428169849625647,v/m1vw10zy74w/map,-3.39647480581,-0.570415189494,0.165,0.0,0.0,0.981094390456,0.193529834949,0,69.1362380981,55.2288589478,91.1298294067,5.30032444
1646428169929247277,53,1646428169929247277,r1000913c5/base_front_laser_link,0,1646428169929247277,v/m1vw10zy74w/map,-3.44304836337,-0.568667606743,0.165,0.0,0.0,0.986487797939,0.163834747589,0,66.6097793579,55.439617157,91.8608779907,5.47375488281
1646428170164704822,54,1646428170164704822,r1000913c5/base_front_laser_link,0,1646428170164704822,v/m1vw10zy74w/map,-3.59029117923,-0.592285276867,0.165,0.0,0.0,0.996319230559,0.0857204224104,0,66.0126113892,55.6318511963,92.4531784058,5.60710763931
1646428170323468909,55,1646428170323468909,r1000913c5/base_front_laser_link,0,1646428170323468909,v/m1vw10zy74w/map,-3.69700704782,-0.601589304445,0.165,0.0,0.0,0.998958030935,0.0456382781348,0,68.3675537109,55.8592758179,93.2914276123,5.81071615219
1646428170558678313,56,1646428170558678313,r1000913c5/base_front_laser_link,0,1646428170558678313,v/m1vw10zy74w/map,-3.84339835964,-0.633669995459,0.165,0.0,0.0,0.999999955425,-0.000298578726385,0,74.8321685791,56.1921348572,95.0412902832,6.28305339813
1646428170794514254,57,1646428170794514254,r1000913c5/base_front_laser_link,0,1646428170794514254,v/m1vw10zy74w/map,-3.94748320779,-0.726650041681,0.165,0.0,0.0,0.999949896524,0.010010216836,0,67.6029510498,56.3888702393,95.6050643921,6.40539836884
1646428170873702478,58,1646428170873702478,r1000913c5/base_front_laser_link,0,1646428170873702478,v/m1vw10zy74w/map,-4.00035594431,-0.72780514294,0.165,0.0,0.0,0.999958678706,0.00909070295428,0,71.3814315796,56.6429824829,96.5724487305,6.64315509796
1646428170951502740,59,1646428170951502740,r1000913c5/base_front_laser_link,0,1646428170951502740,v/m1vw10zy74w/map,-4.05372958396,-0.725109218214,0.165,0.0,0.0,0.999932851281,0.0115884825835,0,66.7049026489,56.8106803894,96.9511413574,6.71348571777
1646428171187688068,60,1646428171187688068,r1000913c5/base_front_laser_link,0,1646428171187688068,v/m1vw10zy74w/map,-4.21368965013,-0.724842411647,0.165,0.0,0.0,0.999803444653,0.0198260450116,0,67.3306655884,56.9831390381,97.3597412109,6.79219913483
1646428171345586214,61,1646428171345586214,r1000913c5/base_front_laser_link,0,1646428171345586214,v/m1vw10zy74w/map,-4.32665386491,-0.737240938943,0.165,0.0,0.0,0.999903655166,0.0138809360783,0,63.990524292,57.0961647034,97.4806442261,6.79482650757
1646428171424492192,62,1646428171424492192,r1000913c5/base_front_laser_link,0,1646428171424492192,v/m1vw10zy74w/map,-4.38502332577,-0.738183350295,0.165,0.0,0.0,0.999946259604,0.010367155084,0,67.30443573,57.2581977844,97.8424606323,6.86142158508
1646428171581636198,63,1646428171581636198,r1000913c5/base_front_laser_link,0,1646428171581636198,v/m1vw10zy74w/map,-4.54825019238,-0.666450778161,0.165,0.0,0.0,0.999862814704,-0.0165635675945,0,69.490272522,57.4493255615,98.3784255981,6.97636651993
1646428171896808048,64,1646428171896808048,r1000913c5/base_front_laser_link,0,1646428171896808048,v/m1vw10zy74w/map,-4.78351767527,-0.703002888026,0.165,0.0,0.0,0.999245737879,-0.0388324005334,0,72.380241394,57.6790313721,99.1743927002,7.16512012482
1646428172054655085,65,1646428172054655085,r1000913c5/base_front_laser_link,0,1646428172054655085,v/m1vw10zy74w/map,-4.90552498547,-0.710533325436,0.165,0.0,0.0,0.999331361881,-0.0365626744123,0,70.7659454346,57.8773193359,99.7473144531,7.28999853134
1646428172211686037,66,1646428172211686037,r1000913c5/base_front_laser_link,0,1646428172211686037,v/m1vw10zy74w/map,-4.98620522271,-0.794013063563,0.165,0.0,0.0,0.999698291305,-0.0245627026506,0,70.1059341431,58.0598335266,100.221450806,7.38720464706
1646428172370687713,67,1646428172370687713,r1000913c5/base_front_laser_link,0,1646428172370687713,v/m1vw10zy74w/map,-5.12049965587,-0.789429394321,0.165,0.0,0.0,0.999942488262,-0.0107247456434,0,66.3650512695,58.181968689,100.384132385,7.40072059631
1646428172527189587,68,1646428172527189587,r1000913c5/base_front_laser_link,0,1646428172527189587,v/m1vw10zy74w/map,-5.2576924096,-0.783313206427,0.165,0.0,0.0,0.999984938329,0.00548845291481,0,64.9532775879,58.2801055908,100.453681946,7.39119195938
1646428172685787715,69,1646428172685787715,r1000913c5/base_front_laser_link,0,1646428172685787715,v/m1vw10zy74w/map,-5.3953763769,-0.776836310127,0.165,0.0,0.0,0.99984692155,0.0174966701698,0,70.0028457642,58.4475746155,100.857627869,7.47001743317
1646428172763721681,70,1646428172763721681,r1000913c5/base_front_laser_link,0,1646428172763721681,v/m1vw10zy74w/map,-5.46420896148,-0.773528493432,0.165,0.0,0.0,0.999820584275,0.0189419972692,0,69.4084320068,58.6019515991,101.191001892,7.52968263626
1646428173000945641,71,1646428173000945641,r1000913c5/base_front_laser_link,0,1646428173000945641,v/m1vw10zy74w/map,-5.70496851156,-0.701099205527,0.165,0.0,0.0,0.999931611585,0.0116949627522,0,71.281539917,58.7780570984,101.651069641,7.62433815002
1646428173157797060,72,1646428173157797060,r1000913c5/base_front_laser_link,0,1646428173157797060,v/m1vw10zy74w/map,-5.81893524807,-0.753959013879,0.165,0.0,0.0,0.999930150183,0.0118192536039,0,70.3069915771,58.9359855652,102.007514954,7.69050931931
1646428173235780161,73,1646428173235780161,r1000913c5/base_front_laser_link,0,1646428173235780161,v/m1vw10zy74w/map,-5.88369067611,-0.745694093111,0.165,0.0,0.0,0.999913295599,0.0131681921457,0,71.32447052,59.1034011841,102.420120239,7.77224063873
1646428173393972022,74,1646428173393972022,r1000913c5/base_front_laser_link,0,1646428173393972022,v/m1vw10zy74w/map,-6.00252326214,-0.700724439816,0.165,0.0,0.0,0.999992128261,0.00396779741065,0,63.5882072449,59.1631965637,102.373886108,7.73689746857
1646428173472933991,75,1646428173472933991,r1000913c5/base_front_laser_link,0,1646428173472933991,v/m1vw10zy74w/map,-6.05054378676,-0.704881022774,0.165,0.0,0.0,0.999999221352,-0.00124791637564,0,64.3752288818,59.2317771912,102.356872559,7.70836496353
1646428173787804864,76,1646428173787804864,r1000913c5/base_front_laser_link,0,1646428173787804864,v/m1vw10zy74w/map,-6.26023609672,-0.705839575385,0.165,0.0,0.0,0.999910082062,-0.0134099884433,0,60.7989883423,59.2521286011,102.230827332,7.65956687927
1646428173866928507,77,1646428173866928507,r1000913c5/base_front_laser_link,0,1646428173866928507,v/m1vw10zy74w/map,-6.28310605786,-0.708365890559,0.165,0.0,0.0,0.999864260106,-0.016476084589,0,65.6388702393,59.3340110779,102.265861511,7.64395046234
1646428174023978138,78,1646428174023978138,r1000913c5/base_front_laser_link,0,1646428174023978138,v/m1vw10zy74w/map,-6.3577543358,-0.712534916144,0.165,0.0,0.0,0.999796248799,-0.0201856604546,0,65.4881973267,59.4119110107,102.290779114,7.62628984451
1646428174102951852,79,1646428174102951852,r1000913c5/base_front_laser_link,0,1646428174102951852,v/m1vw10zy74w/map,-6.39318576939,-0.717052304021,0.165,0.0,0.0,0.999797068147,-0.0201450372294,0,63.4064941406,59.4618453979,102.234893799,7.59101772308
1646428174418811819,80,1646428174418811819,r1000913c5/base_front_laser_link,0,1646428174418811819,v/m1vw10zy74w/map,-6.51212018116,-0.725679933514,0.165,0.0,0.0,0.999722277068,-0.0235662626308,0,60.2726593018,59.4718551636,102.103744507,7.54396247864
1646428174576678886,81,1646428174576678886,r1000913c5/base_front_laser_link,0,1646428174576678886,v/m1vw10zy74w/map,-6.56141940023,-0.72825857441,0.165,0.0,0.0,0.999713822297,-0.0239222387799,0,64.0641860962,59.5278587341,102.071006775,7.5143828392
1646428179775375890,82,1646428179775375890,r1000913c5/base_front_laser_link,0,1646428179775375890,v/m1vw10zy74w/map,-6.96093013598,-0.740176951858,0.165,0.0,0.0,0.999995230787,-0.00308843052179,0,61.6620063782,59.5535697937,101.969856262,7.47209596634
1646428179933193162,83,1646428179933193162,r1000913c5/base_front_laser_link,0,1646428179933193162,v/m1vw10zy74w/map,-6.99287349041,-0.73954573021,0.165,0.0,0.0,0.999997952085,-0.00202381474544,0,64.839805603,59.6165008545,101.964431763,7.44930934906
1646428180090097942,84,1646428180090097942,r1000913c5/base_front_laser_link,0,1646428180090097942,v/m1vw10zy74w/map,-7.02759485198,-0.739496604533,0.165,0.0,0.0,0.999998458661,-0.00175575519242,0,66.8315582275,59.701385498,102.039611816,7.44607448578
1646428180169230460,85,1646428180169230460,r1000913c5/base_front_laser_link,0,1646428180169230460,v/m1vw10zy74w/map,-7.04617867927,-0.739511831714,0.165,0.0,0.0,0.999998582738,-0.00168360410596,0,65.9187393188,59.7736816406,102.071014404,7.43244409561
1646428180484331786,86,1646428180484331786,r1000913c5/base_front_laser_link,0,1646428180484331786,v/m1vw10zy74w/map,-7.1271880164,-0.73976732802,0.165,0.0,0.0,0.999998578178,-0.0016863100974,0,66.9782180786,59.8564910889,102.144592285,7.42936706543
1646428180720268583,87,1646428180720268583,r1000913c5/base_front_laser_link,0,1646428180720268583,v/m1vw10zy74w/map,-7.19916545537,-0.728310375156,0.165,0.0,0.0,0.999976325705,-0.00688099046748,0,66.6593093872,59.933795929,102.19997406,7.42205858231
1646428180957302254,88,1646428180957302254,r1000913c5/base_front_laser_link,0,1646428180957302254,v/m1vw10zy74w/map,-7.27354591855,-0.72946042709,0.165,0.0,0.0,0.999975135519,-0.00705183261829,0,67.0657501221,60.0139312744,102.269096375,7.4183883667
1646428181193304917,89,1646428181193304917,r1000913c5/base_front_laser_link,0,1646428181193304917,v/m1vw10zy74w/map,-7.35209638321,-0.731280002599,0.165,0.0,0.0,0.999981561941,-0.00607254292927,0,64.8967666626,60.0681838989,102.25177002,7.39452838898
1646428181429270711,90,1646428181429270711,r1000913c5/base_front_laser_link,0,1646428181429270711,v/m1vw10zy74w/map,-7.43875207544,-0.732048573003,0.165,0.0,0.0,0.999983989426,-0.0056587005206,0,63.1014175415,60.1015167236,102.182128906,7.36020469666
1646428181666376692,91,1646428181666376692,r1000913c5/base_front_laser_link,0,1646428181666376692,v/m1vw10zy74w/map,-7.52811525246,-0.734409263162,0.165,0.0,0.0,0.999984951736,-0.00548600968196,0,65.660987854,60.161945343,102.18964386,7.34256505966
1646428181823318320,92,1646428181823318320,r1000913c5/base_front_laser_link,0,1646428181823318320,v/m1vw10zy74w/map,-7.59339226204,-0.734460121754,0.165,0.0,0.0,0.999989617951,-0.00455675209649,0,61.3005523682,60.1741867065,102.084701538,7.30350542068
1646428181981245099,93,1646428181981245099,r1000913c5/base_front_laser_link,0,1646428181981245099,v/m1vw10zy74w/map,-7.66600396074,-0.740387075332,0.165,0.0,0.0,0.999991526964,-0.00411655194114,0,61.9275741577,60.1928405762,101.991989136,7.26638364792
1646428182138407558,94,1646428182138407558,r1000913c5/base_front_laser_link,0,1646428182138407558,v/m1vw10zy74w/map,-7.73722619755,-0.740031030608,0.165,0.0,0.0,0.99999764035,-0.00217239351087,0,62.5177116394,60.2173118591,101.912002563,7.23156452179
1646428182217350751,95,1646428182217350751,r1000913c5/base_front_laser_link,0,1646428182217350751,v/m1vw10zy74w/map,-7.77392712871,-0.739557834625,0.165,0.0,0.0,0.999999197592,-0.00126681314791,0,65.4083480835,60.2713851929,101.910049438,7.21288728714
1646428182296286579,96,1646428182296286579,r1000913c5/base_front_laser_link,0,1646428182296286579,v/m1vw10zy74w/map,-7.81147819091,-0.738949877062,0.165,0.0,0.0,0.999999967655,-0.000254340359848,0,64.8210449219,60.3182907104,101.888519287,7.19007635117
1646428182453378223,97,1646428182453378223,r1000913c5/base_front_laser_link,0,1646428182453378223,v/m1vw10zy74w/map,-7.88103608712,-0.738360709086,0.165,0.0,0.0,0.999999352175,0.00113826645556,0,66.82081604,60.3846435547,101.933685303,7.18301439285
1646428182770069525,98,1646428182770069525,r1000913c5/base_front_laser_link,0,1646428182770069525,v/m1vw10zy74w/map,-8.03928860383,-0.740172179455,0.165,0.0,0.0,0.99999336181,0.00364367057996,0,69.7814788818,60.4795608521,102.104782104,7.20840740204
1646428182926320252,99,1646428182926320252,r1000913c5/base_front_laser_link,0,1646428182926320252,v/m1vw10zy74w/map,-8.12415134398,-0.738430198335,0.165,0.0,0.0,0.999986738558,0.00515002016471,0,66.0421676636,60.5351867676,102.115531921,7.19344854355
1646428183006168472,100,1646428183006168472,r1000913c5/base_front_laser_link,0,1646428183006168472,v/m1vw10zy74w/map,-8.16369238062,-0.737618762772,0.165,0.0,0.0,0.999989593839,0.00456204047019,0,66.0754318237,60.5900421143,102.125808716,7.17858982086
1646428183084379203,101,1646428183084379203,r1000913c5/base_front_laser_link,0,1646428183084379203,v/m1vw10zy74w/map,-8.20880913443,-0.73764734492,0.165,0.0,0.0,0.999988937751,0.00470365550375,0,63.6646080017,60.6201820374,102.068527222,7.14944791794
1646428183242314364,102,1646428183242314364,r1000913c5/base_front_laser_link,0,1646428183242314364,v/m1vw10zy74w/map,-8.31517592739,-0.735409887463,0.165,0.0,0.0,0.999991218839,0.00419073317073,0,65.2343521118,60.664981842,102.051467896,7.12882804871
1646428183399556555,103,1646428183399556555,r1000913c5/base_front_laser_link,0,1646428183399556555,v/m1vw10zy74w/map,-8.41020771625,-0.735411886436,0.165,0.0,0.0,0.99999571975,0.00292583011712,0,62.7963829041,60.6854743958,101.977119446,7.09721565247
1646428183477471655,104,1646428183477471655,r1000913c5/base_front_laser_link,0,1646428183477471655,v/m1vw10zy74w/map,-8.45434776054,-0.733954828175,0.165,0.0,0.0,0.999997511369,0.00223097629272,0,65.6288452148,60.7325553894,101.970962524,7.07946825027
1646428183635433873,105,1646428183635433873,r1000913c5/base_front_laser_link,0,1646428183635433873,v/m1vw10zy74w/map,-8.54381531515,-0.730987231133,0.165,0.0,0.0,0.999999788276,-0.000650729252604,0,65.7685928345,60.7800636292,101.967971802,7.06263446808
1646428183793325883,106,1646428183793325883,r1000913c5/base_front_laser_link,0,1646428183793325883,v/m1vw10zy74w/map,-8.63479389358,-0.731220753901,0.165,0.0,0.0,0.999999061348,-0.00137014711271,0,62.9044685364,60.7999191284,101.896644592,7.03224086761
1646428183950444711,107,1646428183950444711,r1000913c5/base_front_laser_link,0,1646428183950444711,v/m1vw10zy74w/map,-8.7385214824,-0.731033365339,0.165,0.0,0.0,0.999998524545,-0.00171782074739,0,60.0356369019,60.792842865,101.791908264,6.99968910217
1646428184029302320,108,1646428184029302320,r1000913c5/base_front_laser_link,0,1646428184029302320,v/m1vw10zy74w/map,-8.79731643154,-0.72998139986,0.165,0.0,0.0,0.999999518359,-0.000981469658628,0,59.184211731,60.7780838013,101.684822083,6.9689116478
1646428184107232396,109,1646428184107232396,r1000913c5/base_front_laser_link,0,1646428184107232396,v/m1vw10zy74w/map,-8.84102036653,-0.728495808979,0.165,0.0,0.0,0.999998481801,-0.00174252551701,0,56.2149276733,60.7365989685,101.588104248,6.95050096512
1646428184265431292,110,1646428184265431292,r1000913c5/base_front_laser_link,0,1646428184265431292,v/m1vw10zy74w/map,-8.96290875652,-0.721709035936,0.165,0.0,0.0,0.999999653787,-0.00083212105247,0,61.5967292786,60.7443504333,101.502304077,6.91931724548
1646428184344590436,111,1646428184344590436,r1000913c5/base_front_laser_link,0,1646428184344590436,v/m1vw10zy74w/map,-9.00980608982,-0.726925815445,0.165,0.0,0.0,0.999998235349,-0.00187864305856,0,62.2661857605,60.757938385,101.426673889,6.88957977295
1646428184501281141,112,1646428184501281141,r1000913c5/base_front_laser_link,0,1646428184501281141,v/m1vw10zy74w/map,-9.1243463228,-0.722563442997,0.165,0.0,0.0,0.999997633118,-0.00217572032022,0,63.0297050476,60.7780418396,101.36428833,6.86208200455
1646428184580446982,113,1646428184580446982,r1000913c5/base_front_laser_link,0,1646428184580446982,v/m1vw10zy74w/map,-9.18195948404,-0.723302810707,0.165,0.0,0.0,0.999995170361,-0.00310793416148,0,62.6403045654,60.7943763733,101.296012878,6.83387756348
1646428184737422853,114,1646428184737422853,r1000913c5/base_front_laser_link,0,1646428184737422853,v/m1vw10zy74w/map,-9.29892521239,-0.725768663387,0.165,0.0,0.0,0.999992728397,-0.00381354859898,0,61.8010253906,60.8031311035,101.216590881,6.80448579788
1646428184816519985,115,1646428184816519985,r1000913c5/base_front_laser_link,0,1646428184816519985,v/m1vw10zy74w/map,-9.35826204979,-0.726487772638,0.165,0.0,0.0,0.999993022671,-0.0037355868967,0,59.7508583069,60.7940597534,101.120681763,6.77554130554
1646428185052464136,116,1646428185052464136,r1000913c5/base_front_laser_link,0,1646428185052464136,v/m1vw10zy74w/map,-9.51677988555,-0.736085875012,0.165,0.0,0.0,0.999996986313,-0.00245506932012,0,55.5707626343,60.7494163513,101.040016174,6.76353359222
1646428185131273431,117,1646428185131273431,r1000913c5/base_front_laser_link,0,1646428185131273431,v/m1vw10zy74w/map,-9.56572236209,-0.734853175077,0.165,0.0,0.0,0.999999758109,-0.000695545017042,0,56.6972389221,60.7150764465,100.949745178,6.74489068985
1646428185210530574,118,1646428185210530574,r1000913c5/base_front_laser_link,0,1646428185210530574,v/m1vw10zy74w/map,-9.60611107579,-0.734774680472,0.165,0.0,0.0,0.999999978775,0.000206035978113,0,57.6419830322,60.689250946,100.85572052,6.72215557098
1646428185367547538,119,1646428185367547538,r1000913c5/base_front_laser_link,0,1646428185367547538,v/m1vw10zy74w/map,-9.68179195565,-0.732426398524,0.165,0.0,0.0,0.999998306533,-0.00184036180882,0,58.0432510376,60.6672019958,100.761825562,6.69820833206
1646428185525791903,120,1646428185525791903,r1000913c5/base_front_laser_link,0,1646428185525791903,v/m1vw10zy74w/map,-9.74985999222,-0.73362053532,0.165,0.0,0.0,0.999993181094,-0.00369293453421,0,59.7014274597,60.6592178345,100.671676636,6.67081832886
1646428185683611823,121,1646428185683611823,r1000913c5/base_front_laser_link,0,1646428185683611823,v/m1vw10zy74w/map,-9.81121996471,-0.73624465828,0.165,0.0,0.0,0.999988360868,-0.0048247413113,0,62.6950569153,60.675907135,100.613166809,6.64575242996
1646428185840543000,122,1646428185840543000,r1000913c5/base_front_laser_link,0,1646428185840543000,v/m1vw10zy74w/map,-9.87031475959,-0.737239703807,0.165,0.0,0.0,0.999985468947,-0.00539090849751,0,64.0731582642,60.7035255432,100.580162048,6.62554454803
1646428185919562968,123,1646428185919562968,r1000913c5/base_front_laser_link,0,1646428185919562968,v/m1vw10zy74w/map,-9.89508667663,-0.738429508583,0.165,0.0,0.0,0.999980242114,-0.0062861261237,0,61.7445068359,60.7119216919,100.50957489,6.59921836853
1646428186076615363,124,1646428186076615363,r1000913c5/base_front_laser_link,0,1646428186076615363,v/m1vw10zy74w/map,-9.94893075023,-0.738490683311,0.165,0.0,0.0,0.99998570105,-0.00534768139553,0,64.8934326172,60.7453727722,100.494934082,6.58318758011
1646428186234546121,125,1646428186234546121,r1000913c5/base_front_laser_link,0,1646428186234546121,v/m1vw10zy74w/map,-10.0007827112,-0.737504187257,0.165,0.0,0.0,0.999994894328,-0.00319551531834,0,59.0826339722,60.7321777344,100.407600403,6.55847501755
1646428186470578553,126,1646428186470578553,r1000913c5/base_front_laser_link,0,1646428186470578553,v/m1vw10zy74w/map,-10.0734956334,-0.734075531479,0.165,0.0,0.0,0.999997865064,0.0020663658101,0,60.4872512817,60.7302474976,100.327552795,6.53243350983
1646428186628532498,127,1646428186628532498,r1000913c5/base_front_laser_link,0,1646428186628532498,v/m1vw10zy74w/map,-10.1203242981,-0.73190623231,0.165,0.0,0.0,0.99998828983,0.00483944244765,0,63.1326713562,60.7490196228,100.279403687,6.51012849808
1646428186943542665,128,1646428186943542665,r1000913c5/base_front_laser_link,0,1646428186943542665,v/m1vw10zy74w/map,-10.2164050674,-0.731537541326,0.165,0.0,0.0,0.999981053919,0.00615563176139,0,62.5327987671,60.7628440857,100.222496033,6.48654985428
1646428187101399513,129,1646428187101399513,r1000913c5/base_front_laser_link,0,1646428187101399513,v/m1vw10zy74w/map,-10.2593595694,-0.732010612552,0.165,0.0,0.0,0.999988789954,0.00473497263539,0,61.6766586304,60.7698745728,100.155441284,6.4618563652
1646428187179715303,130,1646428187179715303,r1000913c5/base_front_laser_link,0,1646428187179715303,v/m1vw10zy74w/map,-10.2857485049,-0.729125722333,0.165,0.0,0.0,0.999995733815,0.00292101881137,0,64.2934036255,60.7967720032,100.129707336,6.44431257248
1646428187258575569,131,1646428187258575569,r1000913c5/base_front_laser_link,0,1646428187258575569,v/m1vw10zy74w/map,-10.3068713194,-0.729492157602,0.165,0.0,0.0,0.99999833376,0.00182550750089,0,64.4294128418,60.8242912292,100.106643677,6.42745065689
1646428187336921420,132,1646428187336921420,r1000913c5/base_front_laser_link,0,1646428187336921420,v/m1vw10zy74w/map,-10.3270632291,-0.730161147287,0.165,0.0,0.0,0.999999743397,0.000716383263942,0,67.5777664185,60.8750686646,100.164413452,6.42978048325
1646428187730586787,133,1646428187730586787,r1000913c5/base_front_laser_link,0,1646428187730586787,v/m1vw10zy74w/map,-10.4298866247,-0.738664740794,0.165,0.0,0.0,0.999944728746,-0.0105137744112,0,66.5905990601,60.9177246094,100.191413879,6.42456388474
1646428188045766369,134,1646428188045766369,r1000913c5/base_front_laser_link,0,1646428188045766369,v/m1vw10zy74w/map,-10.4713880523,-0.755857966614,0.165,0.0,0.0,0.99942968667,-0.0337683491297,0,69.4721069336,60.9810905457,100.309341431,6.44275188446
1646428188362481075,135,1646428188362481075,r1000913c5/base_front_laser_link,0,1646428188362481075,v/m1vw10zy74w/map,-10.4623975866,-0.777098149443,0.165,0.0,0.0,0.997533265481,-0.0701953293195,0,65.777015686,61.0163536072,100.3123703,6.4320063591
1646428188440603105,136,1646428188440603105,r1000913c5/base_front_laser_link,0,1646428188440603105,v/m1vw10zy74w/map,-10.4608780027,-0.788866953029,0.165,0.0,0.0,0.996130736246,-0.0878837658826,0,61.0125312805,61.0163269043,100.241271973,6.40831565857
1646428188676596282,137,1646428188676596282,r1000913c5/base_front_laser_link,0,1646428188676596282,v/m1vw10zy74w/map,-10.452840442,-0.827243972121,0.165,0.0,0.0,0.989268362582,-0.146109913405,0,55.922203064,60.9794120789,100.178192139,6.39959335327
1646428188991890243,138,1646428188991890243,r1000913c5/base_front_laser_link,0,1646428188991890243,v/m1vw10zy74w/map,-10.4408319032,-0.87156190597,0.165,0.0,0.0,0.976256343561,-0.216618447176,0,55.4147529602,60.9393768311,100.120803833,6.39380884171
1646428189071720542,139,1646428189071720542,r1000913c5/base_front_laser_link,0,1646428189071720542,v/m1vw10zy74w/map,-10.4391870309,-0.884074551065,0.165,0.0,0.0,0.972088407908,-0.234614848657,0,59.4885749817,60.9290161133,100.04486084,6.37194824219
1646428189150782289,140,1646428189150782289,r1000913c5/base_front_laser_link,0,1646428189150782289,v/m1vw10zy74w/map,-10.4244607806,-0.89053587861,0.165,0.0,0.0,0.968209495654,-0.250140705454,0,58.5767326355,60.9123306274,99.9690551758,6.3522400856
1646428189228475540,141,1646428189228475540,r1000913c5/base_front_laser_link,0,1646428189228475540,v/m1vw10zy74w/map,-10.4188058003,-0.900592584831,0.165,0.0,0.0,0.963753112141,-0.266795687445,0,58.7817993164,60.8973274231,99.8939285278,6.33219861984
1646428189307679709,142,1646428189307679709,r1000913c5/base_front_laser_link,0,1646428189307679709,v/m1vw10zy74w/map,-10.4125432183,-0.910460819966,0.165,0.0,0.0,0.958951154732,-0.283571301155,0,60.6857452393,60.8958473206,99.8255157471,6.30988788605
1646428189543974904,143,1646428189543974904,r1000913c5/base_front_laser_link,0,1646428189543974904,v/m1vw10zy74w/map,-10.3948217926,-0.937762896578,0.165,0.0,0.0,0.943412273326,-0.331622198498,0,60.5035018921,60.8931236267,99.7567367554,6.28787136078
1646428189701591696,144,1646428189701591696,r1000913c5/base_front_laser_link,0,1646428189701591696,v/m1vw10zy74w/map,-10.3898194059,-0.958078086216,0.165,0.0,0.0,0.931260548486,-0.364353936214,0,61.0540161133,60.8942337036,99.692276001,6.2660150528
1646428189779937927,145,1646428189779937927,r1000913c5/base_front_laser_link,0,1646428189779937927,v/m1vw10zy74w/map,-10.3815927971,-0.966678136834,0.165,0.0,0.0,0.92463452016,-0.380855621106,0,64.6059570312,60.9196548462,99.6754226685,6.25192165375
1646428189937814431,146,1646428189937814431,r1000913c5/base_front_laser_link,0,1646428189937814431,v/m1vw10zy74w/map,-10.3591787786,-0.984624077093,0.165,0.0,0.0,0.911118747641,-0.412143940508,0,64.0076522827,60.940662384,99.6476974487,6.23567771912
1646428190173617810,147,1646428190173617810,r1000913c5/base_front_laser_link,0,1646428190173617810,v/m1vw10zy74w/map,-10.3381612696,-1.01721150965,0.165,0.0,0.0,-0.890738278363,0.45451657776,0,69.2938842773,60.9971046448,99.7538528442,6.25224971771
1646428190330601676,148,1646428190330601676,r1000913c5/base_front_laser_link,0,1646428190330601676,v/m1vw10zy74w/map,-10.3189649998,-1.03244394366,0.165,0.0,0.0,-0.874428617899,0.485154194251,0,67.4268035889,61.0402565002,99.800201416,6.25331544876
1646428190489801242,149,1646428190489801242,r1000913c5/base_front_laser_link,0,1646428190489801242,v/m1vw10zy74w/map,-10.2975273613,-1.04818967799,0.165,0.0,0.0,-0.856572627762,0.516026485143,0,70.0028076172,61.1000061035,99.9253387451,6.27511167526
1646428190646817110,150,1646428190646817110,r1000913c5/base_front_laser_link,0,1646428190646817110,v/m1vw10zy74w/map,-10.2759299042,-1.05836326148,0.165,0.0,0.0,-0.837634383293,0.546231306248,0,63.489692688,61.1158332825,99.8873825073,6.25718259811
1646428190804597230,151,1646428190804597230,r1000913c5/base_front_laser_link,0,1646428190804597230,v/m1vw10zy74w/map,-10.2482542649,-1.05935520309,0.165,0.0,0.0,-0.818477396951,0.574538728616,0,67.5469207764,61.1581420898,99.932762146,6.25820589066
1646428190960694702,152,1646428190960694702,r1000913c5/base_front_laser_link,0,1646428190960694702,v/m1vw10zy74w/map,-10.225145972,-1.06722249615,0.165,0.0,0.0,-0.800069298924,0.599907590316,0,65.271736145,61.1850280762,99.9243621826,6.24644517899
1646428191275896146,153,1646428191275896146,r1000913c5/base_front_laser_link,0,1646428191275896146,v/m1vw10zy74w/map,-10.1794514896,-1.07578180364,0.165,0.0,0.0,-0.767249199251,0.64134909858,0,66.6793365479,61.2207069397,99.9458694458,6.24172067642
1646428193167087556,154,1646428193167087556,r1000913c5/base_front_laser_link,0,1646428193167087556,v/m1vw10zy74w/map,-10.1261685907,-1.06625432535,0.165,0.0,0.0,-0.716992209137,0.697081180377,0,67.6440963745,61.2621459961,99.990486145,6.24277925491
1646428193324882770,155,1646428193324882770,r1000913c5/base_front_laser_link,0,1646428193324882770,v/m1vw10zy74w/map,-10.1261755417,-1.06628956047,0.165,0.0,0.0,-0.716997883128,0.69707534427,0,68.1138534546,61.3060684204,100.046295166,6.24674272537
1646428193639956592,156,1646428193639956592,r1000913c5/base_front_laser_link,0,1646428193639956592,v/m1vw10zy74w/map,-10.1301698556,-1.08355574666,0.165,0.0,0.0,-0.720641748908,0.693307629938,0,70.6195907593,61.3653907776,100.178077698,6.27089691162
1646428193875902578,157,1646428193875902578,r1000913c5/base_front_laser_link,0,1646428193875902578,v/m1vw10zy74w/map,-10.132605411,-1.13733892223,0.165,0.0,0.0,-0.721142769267,0.692786479612,0,67.1524276733,61.402015686,100.205490112,6.26782560349
1646428194031807210,158,1646428194031807210,r1000913c5/base_front_laser_link,0,1646428194031807210,v/m1vw10zy74w/map,-10.135257252,-1.18428548055,0.165,0.0,0.0,-0.721953831828,0.691941229231,0,66.9043731689,61.4366226196,100.226158142,6.26317882538
1646428194270087443,159,1646428194270087443,r1000913c5/base_front_laser_link,0,1646428194270087443,v/m1vw10zy74w/map,-10.1399676478,-1.25417717204,0.165,0.0,0.0,-0.723620046147,0.690198543039,0,67.152633667,61.4723472595,100.251701355,6.25978422165
1646428194427090567,160,1646428194427090567,r1000913c5/base_front_laser_link,0,1646428194427090567,v/m1vw10zy74w/map,-10.143527802,-1.29883705561,0.165,0.0,0.0,-0.725026601566,0.68872086292,0,68.1882324219,61.5140609741,100.301856995,6.26259851456
1646428194584109200,161,1646428194584109200,r1000913c5/base_front_laser_link,0,1646428194584109200,v/m1vw10zy74w/map,-10.1399519315,-1.3414664732,0.165,0.0,0.0,-0.721779719764,0.692122847576,0,63.7750549316,61.5280189514,100.264953613,6.24564552307
1646428194741051179,162,1646428194741051179,r1000913c5/base_front_laser_link,0,1646428194741051179,v/m1vw10zy74w/map,-10.1411573477,-1.38593728457,0.165,0.0,0.0,-0.721607969244,0.692301912986,0,63.5832977295,61.5406265259,100.225883484,6.22841978073
1646428194978141992,163,1646428194978141992,r1000913c5/base_front_laser_link,0,1646428194978141992,v/m1vw10zy74w/map,-10.1431223527,-1.45315520102,0.165,0.0,0.0,-0.720861353748,0.69307929465,0,58.8572006226,61.5242652893,100.162719727,6.21281957626
1646428195056089525,164,1646428195056089525,r1000913c5/base_front_laser_link,0,1646428195056089525,v/m1vw10zy74w/map,-10.1368725376,-1.47126841586,0.165,0.0,0.0,-0.719074958662,0.694932517461,0,62.6986579895,61.5313835144,100.114952087,6.19452381134
1646428195135186520,165,1646428195135186520,r1000913c5/base_front_laser_link,0,1646428195135186520,v/m1vw10zy74w/map,-10.1369278394,-1.49492461749,0.165,0.0,0.0,-0.718814961,0.695201446951,0,61.7813606262,61.5328865051,100.060150146,6.17575454712
1646428195371900880,166,1646428195371900880,r1000913c5/base_front_laser_link,0,1646428195371900880,v/m1vw10zy74w/map,-10.1420079553,-1.56196998903,0.165,0.0,0.0,-0.721489254929,0.692425631401,0,64.3398132324,61.549697876,100.032562256,6.1609544754
1646428195529911448,167,1646428195529911448,r1000913c5/base_front_laser_link,0,1646428195529911448,v/m1vw10zy74w/map,-10.1357397393,-1.61003730711,0.165,0.0,0.0,-0.720275014796,0.693688621113,0,62.4374046326,61.5549812317,99.9835662842,6.14286279678
1646428195608017263,168,1646428195608017263,r1000913c5/base_front_laser_link,0,1646428195608017263,v/m1vw10zy74w/map,-10.137392111,-1.63215397351,0.165,0.0,0.0,-0.720255748901,0.693708624838,0,62.1007804871,61.5582084656,99.9323043823,6.1246972084
1646428195766167174,169,1646428195766167174,r1000913c5/base_front_laser_link,0,1646428195766167174,v/m1vw10zy74w/map,-10.1377003783,-1.67723662433,0.165,0.0,0.0,-0.718899092736,0.695114447025,0,58.8748435974,61.542427063,99.8724746704,6.11001682281
1646428195923310610,170,1646428195923310610,r1000913c5/base_front_laser_link,0,1646428195923310610,v/m1vw10zy74w/map,-10.1368336746,-1.72211396009,0.165,0.0,0.0,-0.716567536486,0.69751771709,0,61.6215629578,61.5428886414,99.8189544678,6.09202289581
1646428196002215098,171,1646428196002215098,r1000913c5/base_front_laser_link,0,1646428196002215098,v/m1vw10zy74w/map,-10.1340412906,-1.74604315115,0.165,0.0,0.0,-0.71363893425,0.700513719725,0,64.2802047729,61.5588035583,99.7921066284,6.07776880264
1646428201438529380,172,1646428201438529380,r1000913c5/base_front_laser_link,0,1646428201438529380,v/m1vw10zy74w/map,-10.1362672826,-2.65192239689,0.165,0.0,0.0,-0.704105012569,0.710095860624,0,67.9652633667,61.5958328247,99.8346862793,6.07961750031
1646428205219671834,173,1646428205219671834,r1000913c5/base_front_laser_link,0,1646428205219671834,v/m1vw10zy74w/map,-10.1420689478,-2.81600417183,0.165,0.0,0.0,-0.707938935845,0.706273646057,0,68.6493225098,61.6363716125,99.8930511475,6.0855588913
1646428205377618911,174,1646428205377618911,r1000913c5/base_front_laser_link,0,1646428205377618911,v/m1vw10zy74w/map,-10.142074252,-2.81591162548,0.165,0.0,0.0,-0.707944761318,0.706267806801,0,67.5090713501,61.6699295044,99.9227218628,6.08426380157
1646428205456648054,175,1646428205456648054,r1000913c5/base_front_laser_link,0,1646428205456648054,v/m1vw10zy74w/map,-10.1420588715,-2.81517468216,0.165,0.0,0.0,-0.707930373994,0.706282227992,0,67.7823486328,61.7046585083,99.9576339722,6.08432531357
1646428205534626967,176,1646428205534626967,r1000913c5/base_front_laser_link,0,1646428205534626967,v/m1vw10zy74w/map,-10.1420150118,-2.81277166081,0.165,0.0,0.0,-0.707890017224,0.706322676625,0,68.6140594482,61.7436943054,100.011306763,6.0892033577
1646428205771627647,177,1646428205771627647,r1000913c5/base_front_laser_link,0,1646428205771627647,v/m1vw10zy74w/map,-10.1416925187,-2.78649042007,0.165,0.0,0.0,-0.707608351979,0.706604854364,0,64.4852676392,61.759098053,99.985458374,6.07545375824
1646428205928688808,178,1646428205928688808,r1000913c5/base_front_laser_link,0,1646428205928688808,v/m1vw10zy74w/map,-10.1417428091,-2.75671223003,0.165,0.0,0.0,-0.707699121344,0.706513944412,0,67.3279418945,61.7902069092,100.008148193,6.07264566422
1646428206007700738,179,1646428206007700738,r1000913c5/base_front_laser_link,0,1646428206007700738,v/m1vw10zy74w/map,-10.1430314134,-2.7369957224,0.165,0.0,0.0,-0.709119439253,0.705088378059,0,68.1705474854,61.8256530762,100.048568726,6.07430362701
1646428206165738955,180,1646428206165738955,r1000913c5/base_front_laser_link,0,1646428206165738955,v/m1vw10zy74w/map,-10.1455010267,-2.69404117978,0.165,0.0,0.0,-0.71211051983,0.702067381059,0,71.7164840698,61.8802986145,100.185874939,6.10185813904
1646428206243658529,181,1646428206243658529,r1000913c5/base_front_laser_link,0,1646428206243658529,v/m1vw10zy74w/map,-10.1466398269,-2.67194464198,0.165,0.0,0.0,-0.713663658188,0.700488531656,0,74.464302063,61.9494438171,100.417617798,6.1560587883
1646428206480687865,182,1646428206480687865,r1000913c5/base_front_laser_link,0,1646428206480687865,v/m1vw10zy74w/map,-10.1462506784,-2.60046321707,0.165,0.0,0.0,-0.714778741474,0.699350663642,0,71.4171524048,62.0011787415,100.537841797,6.17888784409
1646428206637892693,183,1646428206637892693,r1000913c5/base_front_laser_link,0,1646428206637892693,v/m1vw10zy74w/map,-10.1457514409,-2.55208947678,0.165,0.0,0.0,-0.715398729156,0.698716436276,0,70.4619522095,62.0471611023,100.627571106,6.19347047806
1646428206716630783,184,1646428206716630783,r1000913c5/base_front_laser_link,0,1646428206716630783,v/m1vw10zy74w/map,-10.1448881778,-2.52425087323,0.165,0.0,0.0,-0.71749474714,0.696563915105,0,68.4506912231,62.0817756653,100.665374756,6.19453430176
1646428206875518744,185,1646428206875518744,r1000913c5/base_front_laser_link,0,1646428206875518744,v/m1vw10zy74w/map,-10.143011003,-2.4786708094,0.165,0.0,0.0,-0.717169087948,0.696899203108,0,67.1558303833,62.1090545654,100.675941467,6.18896245956
1646428206952787554,186,1646428206952787554,r1000913c5/base_front_laser_link,0,1646428206952787554,v/m1vw10zy74w/map,-10.1423268335,-2.45682388272,0.165,0.0,0.0,-0.717106806604,0.696963290226,0,64.3687744141,62.1211395264,100.644683838,6.17451477051
1646428207031693881,187,1646428207031693881,r1000913c5/base_front_laser_link,0,1646428207031693881,v/m1vw10zy74w/map,-10.1416787968,-2.43445275926,0.165,0.0,0.0,-0.71709525414,0.69697517638,0,65.5965270996,62.1396255493,100.629219055,6.1631975174
1646428207267862742,188,1646428207267862742,r1000913c5/base_front_laser_link,0,1646428207267862742,v/m1vw10zy74w/map,-10.1417497452,-2.36058210861,0.165,0.0,0.0,-0.715992286192,0.698108190836,0,65.203163147,62.155834198,100.608299255,6.15082216263
1646428207426532857,189,1646428207426532857,r1000913c5/base_front_laser_link,0,1646428207426532857,v/m1vw10zy74w/map,-10.1404357983,-2.3150158329,0.165,0.0,0.0,-0.715810575007,0.698294508576,0,67.236000061,62.1825714111,100.619338989,6.14558935165
1646428207505099437,190,1646428207505099437,r1000913c5/base_front_laser_link,0,1646428207505099437,v/m1vw10zy74w/map,-10.1397043823,-2.29255027089,0.165,0.0,0.0,-0.715623694025,0.698486026023,0,70.5758972168,62.2265167236,100.704742432,6.15940952301
1646428207584851599,191,1646428207584851599,r1000913c5/base_front_laser_link,0,1646428207584851599,v/m1vw10zy74w/map,-10.1391482414,-2.2698580777,0.165,0.0,0.0,-0.715617091367,0.698492790617,0,69.2529373169,62.2631111145,100.755584717,6.16415739059
1646428207740739216,192,1646428207740739216,r1000913c5/base_front_laser_link,0,1646428207740739216,v/m1vw10zy74w/map,-10.1395486605,-2.22558377879,0.165,0.0,0.0,-0.715655488895,0.698453449568,0,66.2480163574,62.2837600708,100.748077393,6.15477132797
1646428207977764782,193,1646428207977764782,r1000913c5/base_front_laser_link,0,1646428207977764782,v/m1vw10zy74w/map,-10.1377147263,-2.15720111597,0.165,0.0,0.0,-0.71544838591,0.698665590321,0,61.8421516418,62.2814826965,100.698143005,6.13888788223
1646428208055912125,194,1646428208055912125,r1000913c5/base_front_laser_link,0,1646428208055912125,v/m1vw10zy74w/map,-10.1372046816,-2.13474267148,0.165,0.0,0.0,-0.71547358573,0.69863978424,0,61.3469390869,62.2766914368,100.64692688,6.12341117859
1646428208134913112,195,1646428208134913112,r1000913c5/base_front_laser_link,0,1646428208134913112,v/m1vw10zy74w/map,-10.1361552237,-2.12063369793,0.165,0.0,0.0,-0.714964857459,0.699160391183,0,63.0359077454,62.2805633545,100.604354858,6.10793066025
1646428208213872409,196,1646428208213872409,r1000913c5/base_front_laser_link,0,1646428208213872409,v/m1vw10zy74w/map,-10.1361730897,-2.10257062799,0.165,0.0,0.0,-0.714581471843,0.699552228285,0,63.0493736267,62.2844657898,100.562194824,6.09257555008
1646428208371842049,197,1646428208371842049,r1000913c5/base_front_laser_link,0,1646428208371842049,v/m1vw10zy74w/map,-10.1352800992,-2.05753366904,0.165,0.0,0.0,-0.714654121871,0.699478009728,0,62.703453064,62.2865829468,100.518081665,6.07716560364
1646428208529799803,198,1646428208529799803,r1000913c5/base_front_laser_link,0,1646428208529799803,v/m1vw10zy74w/map,-10.1342937818,-2.01253135767,0.165,0.0,0.0,-0.714631341919,0.699501283163,0,62.8401031494,62.2893638611,100.475143433,6.0619263649
1646428208765588640,199,1646428208765588640,r1000913c5/base_front_laser_link,0,1646428208765588640,v/m1vw10zy74w/map,-10.132195006,-1.9464025886,0.165,0.0,0.0,-0.715982686291,0.698118036532,0,62.5412368774,62.2906227112,100.430732727,6.04670286179
1646428208923733609,200,1646428208923733609,r1000913c5/base_front_laser_link,0,1646428208923733609,v/m1vw10zy74w/map,-10.1310923468,-1.90124214185,0.165,0.0,0.0,-0.716026228933,0.698073376859,0,59.6110725403,62.2772941589,100.380874634,6.03452730179
1646428209080307996,201,1646428209080307996,r1000913c5/base_front_laser_link,0,1646428209080307996,v/m1vw10zy74w/map,-10.130240509,-1.87133512414,0.165,0.0,0.0,-0.716188292064,0.697907107222,0,60.7095108032,62.26953125,100.331054688,6.02050828934
1646428209158757334,202,1646428209158757334,r1000913c5/base_front_laser_link,0,1646428209158757334,v/m1vw10zy74w/map,-10.1293227384,-1.85010390538,0.165,0.0,0.0,-0.716637576069,0.697445757436,0,60.2610931396,62.2596359253,100.281364441,6.00724172592
1646428209317741210,203,1646428209317741210,r1000913c5/base_front_laser_link,0,1646428209317741210,v/m1vw10zy74w/map,-10.1282119699,-1.80457278925,0.165,0.0,0.0,-0.716782854075,0.697296450661,0,58.5895309448,62.241645813,100.235450745,5.99793386459
1646428209474990324,204,1646428209474990324,r1000913c5/base_front_laser_link,0,1646428209474990324,v/m1vw10zy74w/map,-10.1272650994,-1.76005833999,0.165,0.0,0.0,-0.717092479585,0.696978031018,0,58.2304611206,62.2220802307,100.191390991,5.98976993561
1646428209631877058,205,1646428209631877058,r1000913c5/base_front_laser_link,0,1646428209631877058,v/m1vw10zy74w/map,-10.1283639576,-1.73697876981,0.165,0.0,0.0,-0.716740106523,0.697340390127,0,59.9471206665,62.2110366821,100.14276886,5.97724485397
1646428209868666070,206,1646428209868666070,r1000913c5/base_front_laser_link,0,1646428209868666070,v/m1vw10zy74w/map,-10.1266174614,-1.669486288,0.165,0.0,0.0,-0.716866059047,0.697210910261,0,58.1038665771,62.1911964417,100.099845886,5.96954917908
1646428210025894562,207,1646428210025894562,r1000913c5/base_front_laser_link,0,1646428210025894562,v/m1vw10zy74w/map,-10.1252791777,-1.62181696747,0.165,0.0,0.0,-0.718795639993,0.695221423669,0,63.7095108032,62.1984939575,100.066619873,5.95604276657
1646428210182999605,208,1646428210182999605,r1000913c5/base_front_laser_link,0,1646428210182999605,v/m1vw10zy74w/map,-10.1279239981,-1.5948119676,0.165,0.0,0.0,-0.718891842494,0.695121945269,0,62.4898071289,62.1998901367,100.025115967,5.9417424202
1646428210261877392,209,1646428210261877392,r1000913c5/base_front_laser_link,0,1646428210261877392,v/m1vw10zy74w/map,-10.1271973174,-1.57247278015,0.165,0.0,0.0,-0.718918360131,0.695094519807,0,63.8826217651,62.207901001,99.9938430786,5.928647995
1646428210421020343,210,1646428210421020343,r1000913c5/base_front_laser_link,0,1646428210421020343,v/m1vw10zy74w/map,-10.125747231,-1.52784148255,0.165,0.0,0.0,-0.718978375775,0.695032441809,0,65.9919967651,62.2258377075,99.9865875244,5.92024946213
1646428210576922448,211,1646428210576922448,r1000913c5/base_front_laser_link,0,1646428210576922448,v/m1vw10zy74w/map,-10.120937388,-1.48533274339,0.165,0.0,0.0,-0.717754709743,0.69629604095,0,64.4787216187,62.2364616394,99.961151123,5.90823030472
1646428210735934032,212,1646428210735934032,r1000913c5/base_front_laser_link,0,1646428210735934032,v/m1vw10zy74w/map,-10.1196398561,-1.4396461984,0.165,0.0,0.0,-0.717856100854,0.696191509907,0,65.5622024536,62.2520751953,99.9481277466,5.8986825943
1646428210971050090,213,1646428210971050090,r1000913c5/base_front_laser_link,0,1646428210971050090,v/m1vw10zy74w/map,-10.1139714225,-1.36126133226,0.165,0.0,0.0,-0.716543921331,0.697541976373,0,62.4149475098,62.2528381348,99.9073257446,5.88482999802
1646428211128085803,214,1646428211128085803,r1000913c5/base_front_laser_link,0,1646428211128085803,v/m1vw10zy74w/map,-10.1123823615,-1.31505053203,0.165,0.0,0.0,-0.716405421976,0.697684220377,0,65.8329086304,62.2694892883,99.8979034424,5.87613916397
1646428211285977656,215,1646428211285977656,r1000913c5/base_front_laser_link,0,1646428211285977656,v/m1vw10zy74w/map,-10.1111450281,-1.2697985052,0.165,0.0,0.0,-0.716361639178,0.697729175192,0,65.0015258789,62.2821388245,99.8783493042,5.86540412903
1646428211365000385,216,1646428211365000385,r1000913c5/base_front_laser_link,0,1646428211365000385,v/m1vw10zy74w/map,-10.1105385516,-1.24711960327,0.165,0.0,0.0,-0.716352125254,0.697738943047,0,65.7618179321,62.2981719971,99.8679046631,5.85657691956
1646428211445139196,217,1646428211445139196,r1000913c5/base_front_laser_link,0,1646428211445139196,v/m1vw10zy74w/map,-10.1088720837,-1.21594016538,0.165,0.0,0.0,-0.71549596404,0.698616865988,0,61.898349762,62.2963371277,99.8257293701,5.84312963486
1646428211522036864,218,1646428211522036864,r1000913c5/base_front_laser_link,0,1646428211522036864,v/m1vw10zy74w/map,-10.1082713256,-1.19364009186,0.165,0.0,0.0,-0.715413625698,0.698701183744,0,63.3486633301,62.3011436462,99.7915802002,5.83014631271
1646428211680034806,219,1646428211680034806,r1000913c5/base_front_laser_link,0,1646428211680034806,v/m1vw10zy74w/map,-10.1071180774,-1.14814232529,0.165,0.0,0.0,-0.715347289569,0.698769100137,0,65.0659179688,62.313709259,99.7731323242,5.81980609894
1646428211837088508,220,1646428211837088508,r1000913c5/base_front_laser_link,0,1646428211837088508,v/m1vw10zy74w/map,-10.1060525172,-1.10348489608,0.165,0.0,0.0,-0.715326347551,0.698790538359,0,62.8293380737,62.3160438538,99.7360458374,5.80666780472
1646428211916157118,221,1646428211916157118,r1000913c5/base_front_laser_link,0,1646428211916157118,v/m1vw10zy74w/map,-10.1026951525,-1.08439808809,0.165,0.0,0.0,-0.713896060468,0.700251679647,0,63.0167427063,62.3191986084,99.7003173828,5.79370641708
1646428212073974533,222,1646428212073974533,r1000913c5/base_front_laser_link,0,1646428212073974533,v/m1vw10zy74w/map,-10.1014798335,-1.04007025548,0.165,0.0,0.0,-0.713678742609,0.700473163189,0,61.7597236633,62.3166923523,99.6589813232,5.78076410294
1646428212388928767,223,1646428212388928767,r1000913c5/base_front_laser_link,0,1646428212388928767,v/m1vw10zy74w/map,-10.0970819099,-0.947260341436,0.165,0.0,0.0,-0.715441382766,0.698672761617,0,62.7491722107,62.3186225891,99.6222076416,5.76786088943
1646428212467164504,224,1646428212467164504,r1000913c5/base_front_laser_link,0,1646428212467164504,v/m1vw10zy74w/map,-10.0974491686,-0.917793425346,0.165,0.0,0.0,-0.715201068281,0.698918759177,0,64.2772598267,62.3273277283,99.5966873169,5.75645256042
1646428212546176004,225,1646428212546176004,r1000913c5/base_front_laser_link,0,1646428212546176004,v/m1vw10zy74w/map,-10.0968979043,-0.895249303116,0.165,0.0,0.0,-0.715166515863,0.698954114795,0,64.680015564,62.3377380371,99.5750732422,5.7457780838
1646428212625130741,226,1646428212625130741,r1000913c5/base_front_laser_link,0,1646428212625130741,v/m1vw10zy74w/map,-10.0963518705,-0.872724093978,0.165,0.0,0.0,-0.715134439201,0.698986933975,0,62.6975059509,62.3393211365,99.5386276245,5.73310184479
1646428215539259204,227,1646428215539259204,r1000913c5/base_front_laser_link,0,1646428215539259204,v/m1vw10zy74w/map,-10.0935442064,-0.755550616873,0.165,0.0,0.0,-0.712979214965,0.701185167433,0,63.5772895813,62.3447532654,99.5078964233,5.72104740143
1646428215855140122,228,1646428215855140122,r1000913c5/base_front_laser_link,0,1646428215855140122,v/m1vw10zy74w/map,-10.0859768802,-0.792649555674,0.165,0.0,0.0,-0.704672182913,0.709533025749,0,60.3295783997,62.3359527588,99.4660720825,5.71004056931
1646428215933346587,229,1646428215933346587,r1000913c5/base_front_laser_link,0,1646428215933346587,v/m1vw10zy74w/map,-10.0813571108,-0.803189779732,0.165,0.0,0.0,-0.699887028717,0.714253559343,0,66.1047210693,62.3523368835,99.461265564,5.70297622681
1646428216012158013,230,1646428216012158013,r1000913c5/base_front_laser_link,0,1646428216012158013,v/m1vw10zy74w/map,-10.0748137454,-0.81471525514,0.165,0.0,0.0,-0.693200593218,0.720744710395,0,63.2067680359,62.3560371399,99.428565979,5.69084262848
1646428216091181848,231,1646428216091181848,r1000913c5/base_front_laser_link,0,1646428216091181848,v/m1vw10zy74w/map,-10.0664435681,-0.826575927368,0.165,0.0,0.0,-0.684737554231,0.728789737733,0,65.0703964233,62.3677368164,99.4116592407,5.68130731583
1646428216248393060,232,1646428216248393060,r1000913c5/base_front_laser_link,0,1646428216248393060,v/m1vw10zy74w/map,-10.0459401046,-0.851505920791,0.165,0.0,0.0,-0.664535926237,0.747256316628,0,62.5608406067,62.3685646057,99.3757553101,5.66906356812
1646428216485467915,233,1646428216485467915,r1000913c5/base_front_laser_link,0,1646428216485467915,v/m1vw10zy74w/map,-10.0067006559,-0.89084086825,0.165,0.0,0.0,-0.627500810043,0.778615908774,0,64.5677261353,62.3779640198,99.354095459,5.65871191025
1646428216564092329,234,1646428216564092329,r1000913c5/base_front_laser_link,0,1646428216564092329,v/m1vw10zy74w/map,-9.99020766459,-0.905096654226,0.165,0.0,0.0,-0.612391740735,0.790554461046,0,63.9442329407,62.3846282959,99.3272247314,5.64753198624
1646428216721252284,235,1646428216721252284,r1000913c5/base_front_laser_link,0,1646428216721252284,v/m1vw10zy74w/map,-9.95048342398,-0.933203386445,0.165,0.0,0.0,-0.578830987799,0.815447538205,0,61.7882385254,62.3821029663,99.2890090942,5.63563680649
1646428216879314350,236,1646428216879314350,r1000913c5/base_front_laser_link,0,1646428216879314350,v/m1vw10zy74w/map,-9.90332825096,-0.955625121967,0.165,0.0,0.0,-0.534598579579,0.845106122751,0,61.4524459839,62.3781776428,99.2502059937,5.62400817871
1646428217037496328,237,1646428217037496328,r1000913c5/base_front_laser_link,0,1646428217037496328,v/m1vw10zy74w/map,-9.85449152487,-0.964867888946,0.165,0.0,0.0,-0.489095017743,0.872230510599,0,66.4584503174,62.395324707,99.2504043579,5.61835956573
