%time,field.header.seq,field.header.stamp,field.header.frame_id,field.pose.header.seq,field.pose.header.stamp,field.pose.header.frame_id,field.pose.pose.position.x,field.pose.pose.position.y,field.pose.pose.position.z,field.pose.pose.orientation.x,field.pose.pose.orientation.y,field.pose.pose.orientation.z,field.pose.pose.orientation.w,field.label,field.current_error,field.mean,field.threshold,field.std_dev
1646253018780796694,0,1646253018780796694,r1000913c5/base_front_laser_link,0,1646253018780796694,v/m1vw10zy74w/map,-2.84123044326,-2.4722553677,0.165,0.0,0.0,0.70293618881,-0.711252918772,0,60.9176521301,60.9176521301,nan,nan
1646253018938914525,1,1646253018938914525,r1000913c5/base_front_laser_link,0,1646253018938914525,v/m1vw10zy74w/map,-2.84107727144,-2.42653487429,0.165,0.0,0.0,0.702152067857,-0.712027017468,0,62.1164321899,61.5170402527,84.0600357056,0.847663760185
1646253019017006814,2,1646253019017006814,r1000913c5/base_front_laser_link,0,1646253019017006814,v/m1vw10zy74w/map,-2.84121866478,-2.39589094881,0.165,0.0,0.0,0.702566819787,-0.711617779242,0,62.3858757019,61.8066520691,84.1514434814,0.781595945358
1646253020669966230,3,1646253020669966230,r1000913c5/base_front_laser_link,0,1646253020669966230,v/m1vw10zy74w/map,-2.84184951056,-2.2868809738,0.165,0.0,0.0,0.699654505291,-0.714481331614,0,59.3981666565,61.2045326233,85.2931976318,1.36288738251
1646253021220180093,4,1646253021220180093,r1000913c5/base_front_laser_link,0,1646253021220180093,v/m1vw10zy74w/map,-2.82574360585,-2.28847723336,0.165,0.0,0.0,0.682336869954,-0.731037889511,0,62.608921051,61.485408783,85.4963989258,1.33699584007
1646253021457024793,5,1646253021457024793,r1000913c5/base_front_laser_link,0,1646253021457024793,v/m1vw10zy74w/map,-2.79526290861,-2.28392198277,0.165,0.0,0.0,0.648031249663,-0.761613746895,0,62.186630249,61.6022796631,85.2911758423,1.22963321209
1646253021693374265,6,1646253021693374265,r1000913c5/base_front_laser_link,0,1646253021693374265,v/m1vw10zy74w/map,-2.75917790448,-2.27610816921,0.165,0.0,0.0,0.60504165442,-0.796193818374,0,61.6559906006,61.6099510193,84.9779891968,1.12267994881
1646253021929196629,7,1646253021929196629,r1000913c5/base_front_laser_link,0,1646253021929196629,v/m1vw10zy74w/map,-2.72816370206,-2.26901888241,0.165,0.0,0.0,0.562934631041,-0.826501422367,0,60.5094909668,61.4723968506,84.8018951416,1.10983264446
1646253022165390802,8,1646253022165390802,r1000913c5/base_front_laser_link,0,1646253022165390802,v/m1vw10zy74w/map,-2.6964366561,-2.25113461093,0.165,0.0,0.0,0.521324867434,-0.853358296728,0,57.3287887573,61.0119934082,86.1955566406,1.72785496712
1646253022243941475,9,1646253022243941475,r1000913c5/base_front_laser_link,0,1646253022243941475,v/m1vw10zy74w/map,-2.68611770966,-2.24532729355,0.165,0.0,0.0,0.505924520933,-0.862577752506,0,54.3434028625,60.3451347351,88.3393173218,2.66472744942
1646253022322200657,10,1646253022322200657,r1000913c5/base_front_laser_link,0,1646253022322200657,v/m1vw10zy74w/map,-2.67587712559,-2.23936287543,0.165,0.0,0.0,0.490577298767,-0.871397678408,0,54.990032196,59.8583068848,88.8571624756,2.99961805344
1646253022636941318,11,1646253022636941318,r1000913c5/base_front_laser_link,0,1646253022636941318,v/m1vw10zy74w/map,-2.63905422755,-2.21380314202,0.165,0.0,0.0,0.427660278192,-0.903939536948,0,50.7979850769,59.1032791138,90.730178833,3.87563157082
1646253022716122790,12,1646253022716122790,r1000913c5/base_front_laser_link,0,1646253022716122790,v/m1vw10zy74w/map,-2.63182121631,-2.2039922947,0.165,0.0,0.0,0.410790257994,-0.911729874435,0,52.2528305054,58.5763244629,91.0826568604,4.16877746582
1646253022793843922,13,1646253022793843922,r1000913c5/base_front_laser_link,0,1646253022793843922,v/m1vw10zy74w/map,-2.62320942494,-2.19610279769,0.165,0.0,0.0,0.394825917212,-0.918755949694,0,50.6295814514,58.0086975098,91.6092071533,4.53350305557
1646253023031192076,14,1646253023031192076,r1000913c5/base_front_laser_link,0,1646253023031192076,v/m1vw10zy74w/map,-2.59222237468,-2.17142311364,0.165,0.0,0.0,0.345447757851,-0.938437982285,0,52.2698173523,57.6261062622,91.4652633667,4.61305236816
1646253023188347436,15,1646253023188347436,r1000913c5/base_front_laser_link,0,1646253023188347436,v/m1vw10zy74w/map,-2.58362391773,-2.14812118488,0.165,0.0,0.0,0.310975867669,-0.950417807981,0,50.6624298096,57.1908760071,91.544670105,4.78459692001
1646253023267297309,16,1646253023267297309,r1000913c5/base_front_laser_link,0,1646253023267297309,v/m1vw10zy74w/map,-2.57342583285,-2.14013630762,0.165,0.0,0.0,0.293936973168,-0.955824803928,0,50.939365387,56.8231391907,91.4465637207,4.87447452545
1646253023581200537,17,1646253023581200537,r1000913c5/base_front_laser_link,0,1646253023581200537,v/m1vw10zy74w/map,-2.55398704906,-2.08862745574,0.165,0.0,0.0,0.225106367507,-0.974334194878,0,48.8111839294,56.3780326843,91.6541976929,5.09205436707
1646253023817923004,18,1646253023817923004,r1000913c5/base_front_laser_link,0,1646253023817923004,v/m1vw10zy74w/map,-2.53835080615,-2.05739779334,0.165,0.0,0.0,0.170877417665,-0.985292295784,0,47.910861969,55.9323921204,91.8809509277,5.31618595123
1646253023976084963,19,1646253023976084963,r1000913c5/base_front_laser_link,0,1646253023976084963,v/m1vw10zy74w/map,-2.53130461111,-2.03302491178,0.165,0.0,0.0,0.135438209245,-0.990785794951,0,46.0331878662,55.4374313354,92.3213500977,5.62797260284
1646253024132159737,20,1646253024132159737,r1000913c5/base_front_laser_link,0,1646253024132159737,v/m1vw10zy74w/map,-2.52780153068,-2.01301624517,0.165,0.0,0.0,0.100715283182,-0.994915288722,0,47.7268638611,55.0702629089,92.2834320068,5.73772239685
1646253024368051599,21,1646253024368051599,r1000913c5/base_front_laser_link,0,1646253024368051599,v/m1vw10zy74w/map,-2.5210070439,-1.97114498276,0.165,0.0,0.0,0.0481336416262,-0.998840904521,0,51.0477561951,54.8874206543,91.8816299438,5.66473770142
1646253024525300982,22,1646253024525300982,r1000913c5/base_front_laser_link,0,1646253024525300982,v/m1vw10zy74w/map,-2.51584323313,-1.95082748706,0.165,0.0,0.0,0.0127373795054,-0.999918876291,0,51.8470153809,54.75522995,91.4672927856,5.57068824768
1646253024762299893,23,1646253024762299893,r1000913c5/base_front_laser_link,0,1646253024762299893,v/m1vw10zy74w/map,-2.51561133364,-1.9171200628,0.165,0.0,0.0,-0.0408970377524,-0.999163366173,0,51.6283111572,54.6249389648,91.0814437866,5.48550128937
1646253024919239479,24,1646253024919239479,r1000913c5/base_front_laser_link,0,1646253024919239479,v/m1vw10zy74w/map,-2.53019332249,-1.81397382054,0.165,0.0,0.0,-0.074238944595,-0.997240482083,0,51.9428024292,54.5176544189,90.7078475952,5.39673042297
1646253025156219347,25,1646253025156219347,r1000913c5/base_front_laser_link,0,1646253025156219347,v/m1vw10zy74w/map,-2.5229144646,-1.85237691659,0.165,0.0,0.0,-0.129249543984,-0.99161209925,0,53.0650978088,54.4617881775,90.3478775024,5.29536247253
1646253025313346382,26,1646253025313346382,r1000913c5/base_front_laser_link,0,1646253025313346382,v/m1vw10zy74w/map,-2.52876555464,-1.82728843737,0.165,0.0,0.0,-0.165015621022,-0.98629095343,0,52.0364570618,54.3719596863,90.0123596191,5.21346569061
1646253025392283456,27,1646253025392283456,r1000913c5/base_front_laser_link,0,1646253025392283456,v/m1vw10zy74w/map,-2.5379928209,-1.80958748459,0.165,0.0,0.0,-0.183007598227,-0.983111498758,0,52.195690155,54.2942352295,89.6917800903,5.13251399994
1646253025471168716,28,1646253025471168716,r1000913c5/base_front_laser_link,0,1646253025471168716,v/m1vw10zy74w/map,-2.54243173785,-1.79859519083,0.165,0.0,0.0,0.200383197135,0.979717599263,0,49.5810890198,54.1317138672,89.4780807495,5.1154551506
1646253025550199907,29,1646253025550199907,r1000913c5/base_front_laser_link,0,1646253025550199907,v/m1vw10zy74w/map,-2.54723745912,-1.78761823745,0.165,0.0,0.0,0.217887553965,0.975973879685,0,49.6175193787,53.9812393188,89.2620544434,5.09360456467
1646253025629170960,30,1646253025629170960,r1000913c5/base_front_laser_link,0,1646253025629170960,v/m1vw10zy74w/map,-2.55369527114,-1.78138352126,0.165,0.0,0.0,0.234039152767,0.972227172513,0,48.4839782715,53.8039093018,89.1170883179,5.10439157486
1646253025945214845,31,1646253025945214845,r1000913c5/base_front_laser_link,0,1646253025945214845,v/m1vw10zy74w/map,-2.57825208942,-1.74111265353,0.165,0.0,0.0,0.301717490271,0.953397375738,0,48.943572998,53.6520233154,88.9351196289,5.0943646431
1646253026101282055,32,1646253026101282055,r1000913c5/base_front_laser_link,0,1646253026101282055,v/m1vw10zy74w/map,-2.59237718146,-1.72243663734,0.165,0.0,0.0,0.334876682795,0.942261963214,0,48.6634902954,53.5008583069,88.7671813965,5.08877563477
1646253027283262582,33,1646253027283262582,r1000913c5/base_front_laser_link,0,1646253027283262582,v/m1vw10zy74w/map,-2.66811274215,-1.5581433989,0.165,0.0,0.0,0.478795655649,0.87792637512,0,47.5625,53.3261985779,88.6667633057,5.11352157593
1646253027518506363,34,1646253027518506363,r1000913c5/base_front_laser_link,0,1646253027518506363,v/m1vw10zy74w/map,-2.66516441173,-1.52864880769,0.165,0.0,0.0,0.492919754366,0.870074775956,0,49.5793304443,53.2191467285,88.4513931274,5.07741594315
1646253027676421528,35,1646253027676421528,r1000913c5/base_front_laser_link,0,1646253027676421528,v/m1vw10zy74w/map,-2.66252260739,-1.50860297901,0.165,0.0,0.0,0.503059083588,0.864252022514,0,49.6718673706,53.1206092834,88.2380828857,5.03915786743
1646253027913500792,36,1646253027913500792,r1000913c5/base_front_laser_link,0,1646253027913500792,v/m1vw10zy74w/map,-2.65662115768,-1.47367335901,0.165,0.0,0.0,0.517900534839,0.855440843082,0,50.3577575684,53.0459365845,88.0141220093,4.98939418793
1646253028149357104,37,1646253028149357104,r1000913c5/base_front_laser_link,0,1646253028149357104,v/m1vw10zy74w/map,-2.64810744236,-1.43429444104,0.165,0.0,0.0,0.532091432154,0.846686900707,0,50.7986106873,52.9867973328,87.7917785645,4.93499231339
1646253028385536069,38,1646253028385536069,r1000913c5/base_front_laser_link,0,1646253028385536069,v/m1vw10zy74w/map,-2.6388892023,-1.38825365813,0.165,0.0,0.0,0.545936517944,0.837826544325,0,50.1719779968,52.9146232605,87.5859451294,4.89044046402
1646253028542519919,39,1646253028542519919,r1000913c5/base_front_laser_link,0,1646253028542519919,v/m1vw10zy74w/map,-2.63172126383,-1.3536907377,0.165,0.0,0.0,0.554758516908,0.83201141093,0,46.8599243164,52.763256073,87.5272979736,4.92134666443
1646253028701604136,40,1646253028701604136,r1000913c5/base_front_laser_link,0,1646253028701604136,v/m1vw10zy74w/map,-2.62407443097,-1.31588378929,0.165,0.0,0.0,0.563559859586,0.826075229421,0,52.4914970398,52.7566261292,87.3355026245,4.85962581635
1646253028936645635,41,1646253028936645635,r1000913c5/base_front_laser_link,0,1646253028936645635,v/m1vw10zy74w/map,-2.62613117489,-1.25929421544,0.165,0.0,0.0,0.581218696914,0.813747397144,0,50.4535102844,52.701789856,87.1411895752,4.81313371658
1646253029093543416,42,1646253029093543416,r1000913c5/base_front_laser_link,0,1646253029093543416,v/m1vw10zy74w/map,-2.62447588706,-1.21379286753,0.165,0.0,0.0,0.596307765424,0.802755908664,0,50.9095077515,52.6601104736,86.9501266479,4.76333761215
1646253029329568755,43,1646253029329568755,r1000913c5/base_front_laser_link,0,1646253029329568755,v/m1vw10zy74w/map,-2.63080695372,-1.13886666042,0.165,0.0,0.0,0.626216965109,0.779648839292,0,52.8413734436,52.6642303467,86.7873382568,4.70770359039
1646253029487601819,44,1646253029487601819,r1000913c5/base_front_laser_link,0,1646253029487601819,v/m1vw10zy74w/map,-2.64488364845,-1.08676284676,0.165,0.0,0.0,0.64928209963,0.760547667869,0,54.161277771,52.6974983215,86.675239563,4.65924692154
1646253029724542403,45,1646253029724542403,r1000913c5/base_front_laser_link,0,1646253029724542403,v/m1vw10zy74w/map,-2.6561315173,-1.0810538864,0.165,0.0,0.0,0.68911229527,0.724654569093,0,52.834022522,52.700466156,86.5221557617,4.6072306633
1646253029881242892,46,1646253029881242892,r1000913c5/base_front_laser_link,0,1646253029881242892,v/m1vw10zy74w/map,-2.69031261126,-0.942558304582,0.165,0.0,0.0,0.715477362633,0.698635916311,0,51.0643348694,52.6656532288,86.3550186157,4.56312179565
1646253030039346038,47,1646253030039346038,r1000913c5/base_front_laser_link,0,1646253030039346038,v/m1vw10zy74w/map,-2.71615592004,-0.878055880877,0.165,0.0,0.0,0.737858818838,0.674955082552,0,52.8991699219,52.6705207825,86.2138519287,4.51444292068
1646253030274884522,48,1646253030274884522,r1000913c5/base_front_laser_link,0,1646253030274884522,v/m1vw10zy74w/map,-2.75152638672,-0.858841900103,0.165,0.0,0.0,0.763505691645,0.645801098501,0,54.6997756958,52.711933136,86.1416320801,4.4765663147
1646253030511715487,49,1646253030511715487,r1000913c5/base_front_laser_link,0,1646253030511715487,v/m1vw10zy74w/map,-2.80503795304,-0.758395744229,0.165,0.0,0.0,0.795269127831,0.606256558166,0,57.0920066833,52.799533844,86.2207641602,4.47374296188
1646253030668650025,50,1646253030668650025,r1000913c5/base_front_laser_link,0,1646253030668650025,v/m1vw10zy74w/map,-2.85556814008,-0.69893775518,0.165,0.0,0.0,0.821777789756,0.569808094242,0,58.8274230957,52.9177284241,86.4432220459,4.50849723816
1646253030826757279,51,1646253030826757279,r1000913c5/base_front_laser_link,0,1646253030826757279,v/m1vw10zy74w/map,-2.91932805124,-0.631560095985,0.165,0.0,0.0,0.850314117942,0.526275498982,0,56.2111244202,52.9810638428,86.4431991577,4.48737955093
1646253031063464706,52,1646253031063464706,r1000913c5/base_front_laser_link,0,1646253031063464706,v/m1vw10zy74w/map,-3.03315311307,-0.57309518078,0.165,0.0,0.0,0.895105404714,0.44585458891,0,63.5221138,53.1799507141,87.2018051147,4.67395114899
1646253031221456524,53,1646253031221456524,r1000913c5/base_front_laser_link,0,1646253031221456524,v/m1vw10zy74w/map,-3.12286639457,-0.54307941215,0.165,0.0,0.0,0.923582226432,0.383400405606,0,66.5146179199,53.4268875122,88.3446044922,4.97257184982
1646253031377637454,54,1646253031377637454,r1000913c5/base_front_laser_link,0,1646253031377637454,v/m1vw10zy74w/map,-3.21829970941,-0.521937038321,0.165,0.0,0.0,0.94980335556,0.312847543968,0,70.40990448,53.7356719971,90.0333251953,5.43255233765
1646253031456644241,55,1646253031456644241,r1000913c5/base_front_laser_link,0,1646253031456644241,v/m1vw10zy74w/map,-3.26998227799,-0.513817319419,0.165,0.0,0.0,0.960570731578,0.278035734457,0,71.5137481689,54.0531349182,91.7047576904,5.88387298584
1646253031614512334,56,1646253031614512334,r1000913c5/base_front_laser_link,0,1646253031614512334,v/m1vw10zy74w/map,-3.37472547127,-0.503679146018,0.165,0.0,0.0,0.978645008722,0.205557648616,0,67.6015548706,54.2908287048,92.5938034058,6.10099077225
1646253031928852015,57,1646253031928852015,r1000913c5/base_front_laser_link,0,1646253031928852015,v/m1vw10zy74w/map,-3.57869282284,-0.54434535743,0.165,0.0,0.0,0.997071539243,0.0764744769993,0,71.0427932739,54.5796546936,93.8842544556,6.4348654747
1646253032165598958,58,1646253032165598958,r1000913c5/base_front_laser_link,0,1646253032165598958,v/m1vw10zy74w/map,-3.72562121741,-0.577987949968,0.165,0.0,0.0,0.999868219598,0.0162340210184,0,70.2970504761,54.8460502625,94.9439544678,6.69930028915
1646253032322545234,59,1646253032322545234,r1000913c5/base_front_laser_link,0,1646253032322545234,v/m1vw10zy74w/map,-3.82293186644,-0.60046750126,0.165,0.0,0.0,0.999989567116,-0.00456789437442,0,75.2602157593,55.1862869263,96.6243438721,7.14601802826
1646253032637671664,60,1646253032637671664,r1000913c5/base_front_laser_link,0,1646253032637671664,v/m1vw10zy74w/map,-4.02885082636,-0.661706167936,0.165,0.0,0.0,0.99964240648,-0.0267405902379,0,59.4413375854,55.2560424805,96.5774307251,7.10712957382
1646253032795151602,61,1646253032795151602,r1000913c5/base_front_laser_link,0,1646253032795151602,v/m1vw10zy74w/map,-4.13771619023,-0.673035504119,0.165,0.0,0.0,0.999489766495,-0.0319406742618,0,63.0757331848,55.3821678162,96.7369155884,7.11825037003
1646253032952491979,62,1646253032952491979,r1000913c5/base_front_laser_link,0,1646253032952491979,v/m1vw10zy74w/map,-4.24573680298,-0.688647480406,0.165,0.0,0.0,0.999418672898,-0.0340927596783,0,56.5589294434,55.400844574,96.587348938,7.06216812134
1646253033110830863,63,1646253033110830863,r1000913c5/base_front_laser_link,0,1646253033110830863,v/m1vw10zy74w/map,-4.33958384175,-0.693983273511,0.165,0.0,0.0,0.999412313611,-0.0342786727205,0,60.0960006714,55.4742088318,96.5655136108,7.03043460846
1646253033346678473,64,1646253033346678473,r1000913c5/base_front_laser_link,0,1646253033346678473,v/m1vw10zy74w/map,-4.52702017691,-0.715034626322,0.165,0.0,0.0,0.999251747045,-0.0386774615043,0,65.0617370605,55.6217079163,96.8495178223,7.07593631744
1646253033584562449,65,1646253033584562449,r1000913c5/base_front_laser_link,0,1646253033584562449,v/m1vw10zy74w/map,-4.71454504705,-0.727194655217,0.165,0.0,0.0,0.999377260617,-0.0352858464877,0,72.6062088013,55.8790473938,97.8568649292,7.3259396553
1646253033740696608,66,1646253033740696608,r1000913c5/base_front_laser_link,0,1646253033740696608,v/m1vw10zy74w/map,-4.83863278481,-0.733765404208,0.165,0.0,0.0,0.999604740046,-0.0281134074191,0,68.6801300049,56.070110321,98.3797073364,7.43653202057
1646253033976609547,67,1646253033976609547,r1000913c5/base_front_laser_link,0,1646253033976609547,v/m1vw10zy74w/map,-5.01488068736,-0.74534113158,0.165,0.0,0.0,0.999885600688,-0.0151256582363,0,70.495262146,56.282245636,99.0381240845,7.58529376984
1646253034134789894,68,1646253034134789894,r1000913c5/base_front_laser_link,0,1646253034134789894,v/m1vw10zy74w/map,-5.14805733562,-0.731203615029,0.165,0.0,0.0,0.999923282704,-0.0123866342002,0,61.0886611938,56.3519020081,99.0064468384,7.55151367188
1646253034370849916,69,1646253034370849916,r1000913c5/base_front_laser_link,0,1646253034370849916,v/m1vw10zy74w/map,-5.35205032354,-0.736463830418,0.165,0.0,0.0,0.999939681886,-0.0109832868458,0,59.4328804016,56.3959159851,98.9128112793,7.50563192368
1646253034528589669,70,1646253034528589669,r1000913c5/base_front_laser_link,0,1646253034528589669,v/m1vw10zy74w/map,-5.49470250121,-0.738521538526,0.165,0.0,0.0,0.999969552757,-0.00780343249285,0,59.3919029236,56.4381141663,98.8190307617,7.46030521393
1646253034686615234,71,1646253034686615234,r1000913c5/base_front_laser_link,0,1646253034686615234,v/m1vw10zy74w/map,-5.63477857678,-0.748957843131,0.165,0.0,0.0,0.999987466297,-0.00500672042151,0,63.674861908,56.5386238098,98.9081726074,7.45651626587
1646253034922839529,72,1646253034922839529,r1000913c5/base_front_laser_link,0,1646253034922839529,v/m1vw10zy74w/map,-5.85530225918,-0.744216946117,0.165,0.0,0.0,0.99999754202,0.00221719524493,0,59.4397315979,56.5783653259,98.8153686523,7.41233491898
1646253035080844661,73,1646253035080844661,r1000913c5/base_front_laser_link,0,1646253035080844661,v/m1vw10zy74w/map,-6.01007671538,-0.745563015319,0.165,0.0,0.0,0.999982210493,0.00596478818242,0,58.4070205688,56.6030769348,98.6964569092,7.36445903778
1646253035159860630,74,1646253035159860630,r1000913c5/base_front_laser_link,0,1646253035159860630,v/m1vw10zy74w/map,-6.08741281777,-0.74385137403,0.165,0.0,0.0,0.999970777135,0.00764492483517,0,56.8968925476,56.6069946289,98.550819397,7.31460857391
1646253035474742176,75,1646253035474742176,r1000913c5/base_front_laser_link,0,1646253035474742176,v/m1vw10zy74w/map,-6.39500080203,-0.740374974654,0.165,0.0,0.0,0.999994310496,0.0033732736133,0,61.5119819641,56.6715316772,98.5338363647,7.28743314743
1646253035632901324,76,1646253035632901324,r1000913c5/base_front_laser_link,0,1646253035632901324,v/m1vw10zy74w/map,-6.54548833353,-0.688160705241,0.165,0.0,0.0,0.999999698401,-0.000776658676826,0,60.1657333374,56.7169113159,98.4677352905,7.25027418137
1646253035868839536,77,1646253035868839536,r1000913c5/base_front_laser_link,0,1646253035868839536,v/m1vw10zy74w/map,-6.79868544328,-0.671667424672,0.165,0.0,0.0,0.999810346155,-0.0194748997605,0,60.3629684448,56.7636566162,98.408241272,7.21486139297
1646253036026827946,78,1646253036026827946,r1000913c5/base_front_laser_link,0,1646253036026827946,v/m1vw10zy74w/map,-6.96477596597,-0.689718533588,0.165,0.0,0.0,0.999589089195,-0.0286644860948,0,62.1339187622,56.8316345215,98.4132766724,7.19388103485
1646253036104615865,79,1646253036104615865,r1000913c5/base_front_laser_link,0,1646253036104615865,v/m1vw10zy74w/map,-7.04861468857,-0.697386388986,0.165,0.0,0.0,0.999522266271,-0.0309069446798,0,61.6627464294,56.8920249939,98.3977737427,7.16858291626
1646253036342070773,80,1646253036342070773,r1000913c5/base_front_laser_link,0,1646253036342070773,v/m1vw10zy74w/map,-7.30301311492,-0.703874425861,0.165,0.0,0.0,0.999571121357,-0.0292843533273,0,59.8329124451,56.9283294678,98.3217163086,7.13112878799
1646253036419891919,81,1646253036419891919,r1000913c5/base_front_laser_link,0,1646253036419891919,v/m1vw10zy74w/map,-7.39039984934,-0.709044322279,0.165,0.0,0.0,0.999569780628,-0.0293300810713,0,59.1030464172,56.9548530579,98.227973938,7.0910410881
1646253036499817441,82,1646253036499817441,r1000913c5/base_front_laser_link,0,1646253036499817441,v/m1vw10zy74w/map,-7.47940980751,-0.707261532382,0.165,0.0,0.0,0.999591756029,-0.02857133668,0,61.1274375916,57.0051231384,98.1927337646,7.06253623962
1646253036577789465,83,1646253036577789465,r1000913c5/base_front_laser_link,0,1646253036577789465,v/m1vw10zy74w/map,-7.56897925568,-0.711978639462,0.165,0.0,0.0,0.999601884488,-0.028214757261,0,57.6846923828,57.0132141113,98.0739746094,7.02025365829
1646253036736494247,84,1646253036736494247,r1000913c5/base_front_laser_link,0,1646253036736494247,v/m1vw10zy74w/map,-7.74018246654,-0.707810585148,0.165,0.0,0.0,0.999765698339,-0.0216459794154,0,59.3141174316,57.0402832031,97.9886932373,6.98280239105
1646253037130233555,85,1646253037130233555,r1000913c5/base_front_laser_link,0,1646253037130233555,v/m1vw10zy74w/map,-8.11115776784,-0.732839219128,0.165,0.0,0.0,0.99998780842,-0.00493791560263,0,69.0293655396,57.1796913147,98.3625946045,7.06096744537
1646253037287294986,86,1646253037287294986,r1000913c5/base_front_laser_link,0,1646253037287294986,v/m1vw10zy74w/map,-8.20856250633,-0.736621362491,0.165,0.0,0.0,0.999995137254,-0.00311856819358,0,64.4953384399,57.2637786865,98.454208374,7.06347513199
1646253037444091799,87,1646253037444091799,r1000913c5/base_front_laser_link,0,1646253037444091799,v/m1vw10zy74w/map,-8.29477588803,-0.736792384179,0.165,0.0,0.0,0.999999547464,-0.000951352694565,0,62.1888580322,57.3197479248,98.4468307495,7.04236078262
1646253037522734954,88,1646253037522734954,r1000913c5/base_front_laser_link,0,1646253037522734954,v/m1vw10zy74w/map,-8.32984699035,-0.737696175223,0.165,0.0,0.0,0.999999223353,-0.00124631218366,0,63.7358055115,57.3918380737,98.4973907471,7.03518342972
1646253037601768006,89,1646253037601768006,r1000913c5/base_front_laser_link,0,1646253037601768006,v/m1vw10zy74w/map,-8.36058355182,-0.735271371168,0.165,0.0,0.0,0.999995450249,-0.00301653473001,0,66.7098693848,57.4953689575,98.6878662109,7.06416511536
1646253037838105999,90,1646253037838105999,r1000913c5/base_front_laser_link,0,1646253037838105999,v/m1vw10zy74w/map,-8.44686968703,-0.732421021732,0.165,0.0,0.0,0.999994914651,-0.00318914916936,0,61.1855926514,57.5359230042,98.6422805786,7.03545284271
1646253038074060767,91,1646253038074060767,r1000913c5/base_front_laser_link,0,1646253038074060767,v/m1vw10zy74w/map,-8.53184197498,-0.728800596687,0.165,0.0,0.0,0.999994815983,-0.00321993907114,0,59.1484069824,57.5534477234,98.5495758057,6.99870920181
1646253038151954413,92,1646253038151954413,r1000913c5/base_front_laser_link,0,1646253038151954413,v/m1vw10zy74w/map,-8.55702508715,-0.729196642753,0.165,0.0,0.0,0.999993676138,-0.00355635820515,0,54.7233810425,57.5230178833,98.4232788086,6.96675252914
1646253038389533641,93,1646253038389533641,r1000913c5/base_front_laser_link,0,1646253038389533641,v/m1vw10zy74w/map,-8.63067758617,-0.724837292882,0.165,0.0,0.0,0.999972251125,-0.00744962945844,0,56.02576828,57.5070915222,98.2998428345,6.93091630936
1646253038546928058,94,1646253038546928058,r1000913c5/base_front_laser_link,0,1646253038546928058,v/m1vw10zy74w/map,-8.67719039174,-0.736668749721,0.165,0.0,0.0,0.999732503811,-0.0231283554067,0,60.3001708984,57.536491394,98.2362060547,6.8999042511
1646253038703021660,95,1646253038703021660,r1000913c5/base_front_laser_link,0,1646253038703021660,v/m1vw10zy74w/map,-8.72473928069,-0.750254362457,0.165,0.0,0.0,0.999208519393,-0.0397785717642,0,59.7954788208,57.5600204468,98.1621170044,6.86736440659
1646253039018774475,96,1646253039018774475,r1000913c5/base_front_laser_link,0,1646253039018774475,v/m1vw10zy74w/map,-8.80989971013,-0.78292745866,0.165,0.0,0.0,0.997178928646,-0.0750612034608,0,60.7120780945,57.5925178528,98.1095046997,6.83899593353
1646253039097161397,97,1646253039097161397,r1000913c5/base_front_laser_link,0,1646253039097161397,v/m1vw10zy74w/map,-8.83442710505,-0.776825365654,0.165,0.0,0.0,0.996809257717,-0.0798204468201,0,63.9089393616,57.6569709778,98.1574859619,6.83350515366
1646253039177186437,98,1646253039177186437,r1000913c5/base_front_laser_link,0,1646253039177186437,v/m1vw10zy74w/map,-8.85153509088,-0.793994101192,0.165,0.0,0.0,0.996078387482,-0.088475115093,0,66.4531021118,57.7458190918,98.3131866455,6.8557882309
1646253039411071000,99,1646253039411071000,r1000913c5/base_front_laser_link,0,1646253039411071000,v/m1vw10zy74w/map,-8.90552100607,-0.827248273921,0.165,0.0,0.0,0.992718823636,-0.120454710155,0,65.4762268066,57.8231239319,98.4173431396,6.86473989487
1646253039490077366,100,1646253039490077366,r1000913c5/base_front_laser_link,0,1646253039490077366,v/m1vw10zy74w/map,-8.93048544286,-0.820015115103,0.165,0.0,0.0,0.99129597778,-0.13165213419,0,66.505241394,57.9090881348,98.5633239746,6.88474702835
1646253039727054373,101,1646253039727054373,r1000913c5/base_front_laser_link,0,1646253039727054373,v/m1vw10zy74w/map,-8.97436611265,-0.870402032925,0.165,0.0,0.0,0.983072940946,-0.183214608531,0,69.3841629028,58.0215873718,98.8540725708,6.94416236877
1646253039805830962,102,1646253039805830962,r1000913c5/base_front_laser_link,0,1646253039805830962,v/m1vw10zy74w/map,-8.97765255985,-0.887583013867,0.165,0.0,0.0,0.978886096078,-0.2044064845,0,71.4837799072,58.1522865295,99.2608947754,7.03620290756
1646253039884158421,103,1646253039884158421,r1000913c5/base_front_laser_link,0,1646253039884158421,v/m1vw10zy74w/map,-8.98478692739,-0.898396724913,0.165,0.0,0.0,0.976119181842,-0.217235685004,0,67.6818161011,58.2439193726,99.4360427856,7.06404161453
1646253040042045558,104,1646253040042045558,r1000913c5/base_front_laser_link,0,1646253040042045558,v/m1vw10zy74w/map,-8.9756352643,-0.917336952596,0.165,0.0,0.0,0.968917136214,-0.24738549503,0,69.1833724976,58.3481025696,99.6798934937,7.11059761047
1646253040121142409,105,1646253040121142409,r1000913c5/base_front_laser_link,0,1646253040121142409,v/m1vw10zy74w/map,-8.9696867627,-0.926782966771,0.165,0.0,0.0,0.964701197574,-0.263346918339,0,65.3898696899,58.4145355225,99.7434310913,7.10963201523
1646253040278268892,106,1646253040278268892,r1000913c5/base_front_laser_link,0,1646253040278268892,v/m1vw10zy74w/map,-8.96411228656,-0.94224906859,0.165,0.0,0.0,0.955994349049,-0.293385079012,0,64.0704956055,58.4673957825,99.7587280273,7.09711074829
1646253040437429379,107,1646253040437429379,r1000913c5/base_front_laser_link,0,1646253040437429379,v/m1vw10zy74w/map,-8.95485377806,-0.957355564577,0.165,0.0,0.0,0.945349332997,-0.326059256274,0,62.4279518127,58.5040664673,99.7264938354,7.07414150238
1646253040594809571,108,1646253040594809571,r1000913c5/base_front_laser_link,0,1646253040594809571,v/m1vw10zy74w/map,-8.94009393652,-0.974932747828,0.165,0.0,0.0,0.933204945942,-0.359344582356,0,62.8251647949,58.5437088013,99.7041168213,7.05346822739
1646253040674103177,109,1646253040674103177,r1000913c5/base_front_laser_link,0,1646253040674103177,v/m1vw10zy74w/map,-8.93253246027,-0.979072015432,0.165,0.0,0.0,0.928229333434,-0.372008473765,0,60.9640884399,58.5657119751,99.6402053833,7.02483034134
1646253040751948979,110,1646253040751948979,r1000913c5/base_front_laser_link,0,1646253040751948979,v/m1vw10zy74w/map,-8.9242729066,-0.986945779814,0.165,0.0,0.0,0.921732739026,-0.387825679666,0,61.7028846741,58.5939750671,99.591468811,6.99916315079
1646253040910076925,111,1646253040910076925,r1000913c5/base_front_laser_link,0,1646253040910076925,v/m1vw10zy74w/map,-8.90999207708,-1.0018030954,0.165,0.0,0.0,0.907681892369,-0.419658887986,0,64.7007217407,58.6484985352,99.6227493286,6.99141740799
1646253040989107942,112,1646253040989107942,r1000913c5/base_front_laser_link,0,1646253040989107942,v/m1vw10zy74w/map,-8.90100165629,-1.00955796426,0.165,0.0,0.0,0.900825897793,-0.434180494571,0,62.9050483704,58.6861686707,99.6011047363,6.97164440155
1646253041066118120,113,1646253041066118120,r1000913c5/base_front_laser_link,0,1646253041066118120,v/m1vw10zy74w/map,-8.89184968657,-1.01654299966,0.165,0.0,0.0,0.893229098805,-0.449601798315,0,66.0110702515,58.7504234314,99.6740722656,6.97455024719
1646253041303045483,114,1646253041303045483,r1000913c5/base_front_laser_link,0,1646253041303045483,v/m1vw10zy74w/map,-8.86027661571,-1.03366575646,0.165,0.0,0.0,0.869880437335,-0.493262632622,0,62.4241447449,58.7823677063,99.6393814087,6.95233821869
1646253041381293714,115,1646253041381293714,r1000913c5/base_front_laser_link,0,1646253041381293714,v/m1vw10zy74w/map,-8.85000274794,-1.0394601167,0.165,0.0,0.0,0.861059287807,-0.508504575083,0,63.2228889465,58.8206481934,99.623588562,6.9343123436
1646253041538156239,116,1646253041538156239,r1000913c5/base_front_laser_link,0,1646253041538156239,v/m1vw10zy74w/map,-8.83009249886,-1.05045987251,0.165,0.0,0.0,0.844043624086,-0.536274519849,0,64.7080764771,58.870967865,99.6483078003,6.92577934265
1646253041617332115,117,1646253041617332115,r1000913c5/base_front_laser_link,0,1646253041617332115,v/m1vw10zy74w/map,-8.81933795819,-1.05519498473,0.165,0.0,0.0,0.834504887062,-0.551000538538,0,62.0616950989,58.8980064392,99.6051177979,6.90237092972
1646253041776462489,118,1646253041776462489,r1000913c5/base_front_laser_link,0,1646253041776462489,v/m1vw10zy74w/map,-8.79742635242,-1.06525209012,0.165,0.0,0.0,0.816136446314,-0.577859239778,0,60.9174003601,58.9149780273,99.5416412354,6.87555408478
1646253041854145856,119,1646253041854145856,r1000913c5/base_front_laser_link,0,1646253041854145856,v/m1vw10zy74w/map,-8.78734384503,-1.06881160533,0.165,0.0,0.0,0.806905795686,-0.590680147701,0,63.778213501,58.9555053711,99.5384521484,6.86098241806
1646253041933183402,120,1646253041933183402,r1000913c5/base_front_laser_link,0,1646253041933183402,v/m1vw10zy74w/map,-8.77746851091,-1.07171963652,0.165,0.0,0.0,0.797731281484,-0.603013103127,0,62.73645401,58.9867515564,99.5096817017,6.84097576141
1646253042091250289,121,1646253042091250289,r1000913c5/base_front_laser_link,0,1646253042091250289,v/m1vw10zy74w/map,-8.7621034272,-1.076680482,0.165,0.0,0.0,0.782097862744,-0.623155625098,0,60.7791519165,59.0014457703,99.4451904297,6.8145813942
1646253042249118113,122,1646253042249118113,r1000913c5/base_front_laser_link,0,1646253042249118113,v/m1vw10zy74w/map,-8.74313474955,-1.0814556883,0.165,0.0,0.0,0.764426304538,-0.644711117424,0,63.3648338318,59.0369186401,99.4308853149,6.79798984528
1646253042326293685,123,1646253042326293685,r1000913c5/base_front_laser_link,0,1646253042326293685,v/m1vw10zy74w/map,-8.73609758199,-1.08180893385,0.165,0.0,0.0,0.755890287997,-0.654698306483,0,62.0668907166,59.0613555908,99.3886489868,6.77576494217
1646253042484379295,124,1646253042484379295,r1000913c5/base_front_laser_link,0,1646253042484379295,v/m1vw10zy74w/map,-8.7207476911,-1.08365825558,0.165,0.0,0.0,0.74057231227,-0.671976673925,0,57.6221809387,59.0498390198,99.2986907959,6.74961566925
1646253044531245108,125,1646253044531245108,r1000913c5/base_front_laser_link,0,1646253044531245108,v/m1vw10zy74w/map,-8.68490045229,-1.07479285452,0.165,0.0,0.0,0.708696708659,-0.705513270701,0,63.130569458,59.0822257996,99.2793807983,6.73238515854
1646253044767579030,126,1646253044767579030,r1000913c5/base_front_laser_link,0,1646253044767579030,v/m1vw10zy74w/map,-8.68488564578,-1.07584231696,0.165,0.0,0.0,0.708680091455,-0.705529962493,0,63.6940422058,59.1185417175,99.272819519,6.71809196472
1646253045082491559,127,1646253045082491559,r1000913c5/base_front_laser_link,0,1646253045082491559,v/m1vw10zy74w/map,-8.68502386509,-1.10774233287,0.165,0.0,0.0,0.708717563808,-0.70549232083,0,65.3765716553,59.1674308777,99.3106689453,6.71441316605
1646253045239538952,128,1646253045239538952,r1000913c5/base_front_laser_link,0,1646253045239538952,v/m1vw10zy74w/map,-8.68305020882,-1.14687328045,0.165,0.0,0.0,0.706608621338,-0.707604590326,0,63.7574577332,59.2030143738,99.3040084839,6.70033216476
1646253045475554675,129,1646253045475554675,r1000913c5/base_front_laser_link,0,1646253045475554675,v/m1vw10zy74w/map,-8.68070614398,-1.21740191263,0.165,0.0,0.0,0.704459677442,-0.709744012203,0,61.421131134,59.2200775146,99.2515106201,6.67714595795
1646253045632917056,130,1646253045632917056,r1000913c5/base_front_laser_link,0,1646253045632917056,v/m1vw10zy74w/map,-8.67992353373,-1.26326380954,0.165,0.0,0.0,0.704058856487,-0.710141624327,0,62.1570510864,59.2424964905,99.2115859985,6.65636301041
1646253045948516358,131,1646253045948516358,r1000913c5/base_front_laser_link,0,1646253045948516358,v/m1vw10zy74w/map,-8.68776368367,-1.36646311706,0.165,0.0,0.0,0.70593169443,-0.708279918393,0,60.8920211792,59.2549934387,99.152381897,6.63246250153
1646253046027480508,132,1646253046027480508,r1000913c5/base_front_laser_link,0,1646253046027480508,v/m1vw10zy74w/map,-8.68979546103,-1.38986473036,0.165,0.0,0.0,0.708034909028,-0.706177433509,0,62.9201889038,59.2825508118,99.1273422241,6.61493062973
1646253046263340375,133,1646253046263340375,r1000913c5/base_front_laser_link,0,1646253046263340375,v/m1vw10zy74w/map,-8.69570192006,-1.45579850206,0.165,0.0,0.0,0.714144359621,-0.699998452585,0,66.213722229,59.334274292,99.185760498,6.61716127396
1646253046420651407,134,1646253046420651407,r1000913c5/base_front_laser_link,0,1646253046420651407,v/m1vw10zy74w/map,-8.69918963067,-1.49866223902,0.165,0.0,0.0,0.714948324786,-0.699177297176,0,66.5218200684,59.3875160217,99.2516708374,6.62138414383
1646253046578621384,135,1646253046578621384,r1000913c5/base_front_laser_link,0,1646253046578621384,v/m1vw10zy74w/map,-8.70602802609,-1.54335059602,0.165,0.0,0.0,0.720680938045,-0.693266893439,0,67.0065078735,59.4435386658,99.3308029175,6.62908744812
1646253046815529478,136,1646253046815529478,r1000913c5/base_front_laser_link,0,1646253046815529478,v/m1vw10zy74w/map,-8.71514651328,-1.60614309868,0.165,0.0,0.0,0.723794114872,-0.690015999291,0,72.0991287231,59.5359153748,99.6136856079,6.69258975983
1646253046972520029,137,1646253046972520029,r1000913c5/base_front_laser_link,0,1646253046972520029,v/m1vw10zy74w/map,-8.71902026084,-1.65081360953,0.165,0.0,0.0,0.725456848536,-0.688267652089,0,71.1314926147,59.6199417114,99.8422851562,6.74078226089
1646253047209535298,138,1646253047209535298,r1000913c5/base_front_laser_link,0,1646253047209535298,v/m1vw10zy74w/map,-8.71971322633,-1.71597253342,0.165,0.0,0.0,0.722845192132,-0.69101000587,0,66.2946548462,59.6679611206,99.8883590698,6.74013328552
1646253047287529830,139,1646253047287529830,r1000913c5/base_front_laser_link,0,1646253047287529830,v/m1vw10zy74w/map,-8.72016453914,-1.73788259897,0.165,0.0,0.0,0.722308154443,-0.691571348471,0,68.671333313,59.7322692871,100.008712769,6.75881481171
1646253052878028120,140,1646253052878028120,r1000913c5/base_front_laser_link,0,1646253052878028120,v/m1vw10zy74w/map,-8.66064453655,-2.61373336103,0.165,0.0,0.0,0.701082304339,-0.713080361911,0,55.2335777283,59.7003631592,99.9362030029,6.74528074265
1646253056577184806,141,1646253056577184806,r1000913c5/base_front_laser_link,0,1646253056577184806,v/m1vw10zy74w/map,-8.70496379059,-2.79174004373,0.165,0.0,0.0,0.706693674083,-0.707519647085,0,57.0804519653,59.6819152832,99.8566513062,6.72491359711
1646253056735067988,142,1646253056735067988,r1000913c5/base_front_laser_link,0,1646253056735067988,v/m1vw10zy74w/map,-8.70496875963,-2.79168628278,0.165,0.0,0.0,0.706698856915,-0.707514470266,0,57.5314178467,59.6668739319,99.7776870728,6.70360517502
1646253056893123697,143,1646253056893123697,r1000913c5/base_front_laser_link,0,1646253056893123697,v/m1vw10zy74w/map,-8.70522502843,-2.7872707236,0.165,0.0,0.0,0.706965135988,-0.707248398017,0,59.2088012695,59.6636962891,99.7043991089,6.68023395538
1646253057050141565,144,1646253057050141565,r1000913c5/base_front_laser_link,0,1646253057050141565,v/m1vw10zy74w/map,-8.70554997428,-2.77182692107,0.165,0.0,0.0,0.707308378961,-0.706905125919,0,58.1312446594,59.6531257629,99.6277694702,6.65821456909
1646253057208642233,145,1646253057208642233,r1000913c5/base_front_laser_link,0,1646253057208642233,v/m1vw10zy74w/map,-8.70655460393,-2.74430433233,0.165,0.0,0.0,0.708396386129,-0.705814819991,0,56.3757019043,59.6306762695,99.552947998,6.64075708389
1646253057365076144,146,1646253057365076144,r1000913c5/base_front_laser_link,0,1646253057365076144,v/m1vw10zy74w/map,-8.71002220354,-2.70973048952,0.165,0.0,0.0,0.712338160478,-0.701836409091,0,62.8207740784,59.6523780823,99.521987915,6.62320423126
1646253057680252098,147,1646253057680252098,r1000913c5/base_front_laser_link,0,1646253057680252098,v/m1vw10zy74w/map,-8.71228213804,-2.61660379856,0.165,0.0,0.0,0.716836994201,-0.697240793231,0,57.6568832397,59.6388969421,99.4469223022,6.60267543793
1646253057838232561,148,1646253057838232561,r1000913c5/base_front_laser_link,0,1646253057838232561,v/m1vw10zy74w/map,-8.71098140299,-2.5683804218,0.165,0.0,0.0,0.716883364465,-0.697193116541,0,60.0634651184,59.641746521,99.3830184937,6.5804233551
1646253057916457328,149,1646253057916457328,r1000913c5/base_front_laser_link,0,1646253057916457328,v/m1vw10zy74w/map,-8.71021318564,-2.54549462737,0.165,0.0,0.0,0.716741845149,-0.697338603128,0,57.5200881958,59.6276016235,99.3093795776,6.56059169769
1646253058073213609,150,1646253058073213609,r1000913c5/base_front_laser_link,0,1646253058073213609,v/m1vw10zy74w/map,-8.70862477071,-2.50094339091,0.165,0.0,0.0,0.716342835618,-0.69774848037,0,59.5466957092,59.6270637512,99.2431335449,6.53868961334
1646253058152235673,151,1646253058152235673,r1000913c5/base_front_laser_link,0,1646253058152235673,v/m1vw10zy74w/map,-8.70773573571,-2.47872786315,0.165,0.0,0.0,0.716015836735,-0.698084036162,0,61.2502288818,59.6377449036,99.192741394,6.51833200455
1646253058231202891,152,1646253058231202891,r1000913c5/base_front_laser_link,0,1646253058231202891,v/m1vw10zy74w/map,-8.70705787237,-2.45694560216,0.165,0.0,0.0,0.715879341539,-0.698224010155,0,65.356010437,59.6751174927,99.2149658203,6.5132818222
1646253058388287237,153,1646253058388287237,r1000913c5/base_front_laser_link,0,1646253058388287237,v/m1vw10zy74w/map,-8.68628404966,-2.41648761086,0.165,0.0,0.0,0.716783468072,-0.697295819505,0,64.6519165039,59.7074356079,99.2204437256,6.50433731079
1646253058467014406,154,1646253058467014406,r1000913c5/base_front_laser_link,0,1646253058467014406,v/m1vw10zy74w/map,-8.68563468025,-2.39380023461,0.165,0.0,0.0,0.716758233665,-0.697321758211,0,63.0541954041,59.7290267944,99.1952972412,6.48875570297
1646253058625267591,155,1646253058625267591,r1000913c5/base_front_laser_link,0,1646253058625267591,v/m1vw10zy74w/map,-8.68435572646,-2.34832509445,0.165,0.0,0.0,0.716725625367,-0.697355273833,0,61.8244628906,59.7424583435,99.1523590088,6.46996545792
1646253058703422183,156,1646253058703422183,r1000913c5/base_front_laser_link,0,1646253058703422183,v/m1vw10zy74w/map,-8.68376138532,-2.32600056618,0.165,0.0,0.0,0.71674456071,-0.697335811996,0,61.5224876404,59.7537956238,99.1060791016,6.4507598877
1646253058861133083,157,1646253058861133083,r1000913c5/base_front_laser_link,0,1646253058861133083,v/m1vw10zy74w/map,-8.68863798465,-2.28993083653,0.165,0.0,0.0,0.718467567224,-0.695560460958,0,58.6624221802,59.7468910217,99.0391998291,6.43076944351
1646253059019108224,158,1646253059019108224,r1000913c5/base_front_laser_link,0,1646253059019108224,v/m1vw10zy74w/map,-8.68720403453,-2.24489849737,0.165,0.0,0.0,0.718496636764,-0.695530432805,0,56.2790908813,59.7250785828,98.9739303589,6.41628313065
1646253059098146833,159,1646253059098146833,r1000913c5/base_front_laser_link,0,1646253059098146833,v/m1vw10zy74w/map,-8.68650911768,-2.22229435164,0.165,0.0,0.0,0.7185390842,-0.69548658109,0,58.579334259,59.717918396,98.9080657959,6.39671564102
1646253059175154677,160,1646253059175154677,r1000913c5/base_front_laser_link,0,1646253059175154677,v/m1vw10zy74w/map,-8.68690918262,-2.19691792149,0.165,0.0,0.0,0.718575550066,-0.695448904555,0,57.6489295959,59.7050666809,98.8414077759,6.37877893448
1646253059333196537,161,1646253059333196537,r1000913c5/base_front_laser_link,0,1646253059333196537,v/m1vw10zy74w/map,-8.68813117924,-2.15110608607,0.165,0.0,0.0,0.718897756707,-0.695115828766,0,64.4424285889,59.7343101501,98.8437728882,6.36982154846
1646253059490472670,162,1646253059490472670,r1000913c5/base_front_laser_link,0,1646253059490472670,v/m1vw10zy74w/map,-8.68669789325,-2.10620181567,0.165,0.0,0.0,0.718981437531,-0.695029274553,0,66.6069412231,59.776473999,98.8951950073,6.37290668488
1646253059569322043,163,1646253059569322043,r1000913c5/base_front_laser_link,0,1646253059569322043,v/m1vw10zy74w/map,-8.68598520916,-2.08384315509,0.165,0.0,0.0,0.719030197702,-0.694978830463,0,67.1491775513,59.8214302063,98.9595031738,6.37935876846
1646253059648228145,164,1646253059648228145,r1000913c5/base_front_laser_link,0,1646253059648228145,v/m1vw10zy74w/map,-8.68938203632,-2.07473925625,0.165,0.0,0.0,0.720050374287,-0.693921795658,0,68.8046112061,59.8758735657,99.0705184937,6.39821434021
1646253059884327320,165,1646253059884327320,r1000913c5/base_front_laser_link,0,1646253059884327320,v/m1vw10zy74w/map,-8.68704327304,-2.01009948277,0.165,0.0,0.0,0.720075477703,-0.693895746068,0,71.6282958984,59.9466705322,99.2777328491,6.44368600845
1646253060041446523,166,1646253060041446523,r1000913c5/base_front_laser_link,0,1646253060041446523,v/m1vw10zy74w/map,-8.68499944668,-1.9644746007,0.165,0.0,0.0,0.72089212805,-0.693047285339,0,72.969039917,60.0246505737,99.5330505371,6.5028014183
1646253060278284443,167,1646253060278284443,r1000913c5/base_front_laser_link,0,1646253060278284443,v/m1vw10zy74w/map,-8.68511486414,-1.89977346142,0.165,0.0,0.0,0.720494872904,-0.693460264269,0,69.1072616577,60.0787124634,99.6418991089,6.52106189728
1646253060357361901,168,1646253060357361901,r1000913c5/base_front_laser_link,0,1646253060357361901,v/m1vw10zy74w/map,-8.68423473086,-1.87725807036,0.165,0.0,0.0,0.720474644591,-0.69348128057,0,74.4369735718,60.1636734009,99.9479827881,6.59477090836
1646253060513286085,169,1646253060513286085,r1000913c5/base_front_laser_link,0,1646253060513286085,v/m1vw10zy74w/map,-8.68107594981,-1.83509120399,0.165,0.0,0.0,0.722098567463,-0.691790184137,0,69.0312042236,60.2158355713,100.046768188,6.61031103134
1646253060829284309,170,1646253060829284309,r1000913c5/base_front_laser_link,0,1646253060829284309,v/m1vw10zy74w/map,-8.67543857603,-1.74731133241,0.165,0.0,0.0,0.722276143913,-0.691604780155,0,70.8669815063,60.2781219482,100.201057434,6.64097929001
1646253060908335343,171,1646253060908335343,r1000913c5/base_front_laser_link,0,1646253060908335343,v/m1vw10zy74w/map,-8.67867335627,-1.72475341586,0.165,0.0,0.0,0.720734268474,-0.693211449881,0,69.8377075195,60.3337020874,100.31829834,6.6615319252
1646253061065264583,172,1646253061065264583,r1000913c5/base_front_laser_link,0,1646253061065264583,v/m1vw10zy74w/map,-8.67919700808,-1.68091361942,0.165,0.0,0.0,0.720775783442,-0.693168284043,0,70.4280853271,60.3920516968,100.451042175,6.68632984161
1646253061301226435,173,1646253061301226435,r1000913c5/base_front_laser_link,0,1646253061301226435,v/m1vw10zy74w/map,-8.67663780019,-1.61417550522,0.165,0.0,0.0,0.720831222911,-0.693110631917,0,72.2159347534,60.4600028992,100.640899658,6.72696495056
1646253061379460887,174,1646253061379460887,r1000913c5/base_front_laser_link,0,1646253061379460887,v/m1vw10zy74w/map,-8.67605093106,-1.59964559552,0.165,0.0,0.0,0.720673658813,-0.693274460436,0,72.5871276855,60.5293006897,100.839187622,6.76996088028
1646253061457468925,175,1646253061457468925,r1000913c5/base_front_laser_link,0,1646253061457468925,v/m1vw10zy74w/map,-8.67549056298,-1.57968269013,0.165,0.0,0.0,0.720692421845,-0.693254955334,0,73.4100570679,60.6024856567,101.062652588,6.82005596161
1646253061615412092,176,1646253061615412092,r1000913c5/base_front_laser_link,0,1646253061615412092,v/m1vw10zy74w/map,-8.67375595142,-1.53490740996,0.165,0.0,0.0,0.72069699724,-0.693250198824,0,69.648727417,60.6535949707,101.157279968,6.83456134796
1646253061931248292,177,1646253061931248292,r1000913c5/base_front_laser_link,0,1646253061931248292,v/m1vw10zy74w/map,-8.67100854252,-1.43747240809,0.165,0.0,0.0,0.719919772192,-0.694057289859,0,69.4684829712,60.7031173706,101.244651794,6.84717845917
1646253062010444243,178,1646253062010444243,r1000913c5/base_front_laser_link,0,1646253062010444243,v/m1vw10zy74w/map,-8.67018973956,-1.4150632009,0.165,0.0,0.0,0.719921097403,-0.694055915265,0,66.9559707642,60.7380485535,101.269729614,6.84389400482
1646253062325603005,179,1646253062325603005,r1000913c5/base_front_laser_link,0,1646253062325603005,v/m1vw10zy74w/map,-8.66286110105,-1.34309286331,0.165,0.0,0.0,0.721200687538,-0.692726185657,0,64.4695129395,60.7587814331,101.250022888,6.83041477203
1646253062403397060,180,1646253062403397060,r1000913c5/base_front_laser_link,0,1646253062403397060,v/m1vw10zy74w/map,-8.66196231411,-1.32136516168,0.165,0.0,0.0,0.72117571179,-0.692752187095,0,66.2620544434,60.7891845703,101.260246277,6.82368707657
1646253062561663054,181,1646253062561663054,r1000913c5/base_front_laser_link,0,1646253062561663054,v/m1vw10zy74w/map,-8.66013718163,-1.27655214759,0.165,0.0,0.0,0.721150196486,-0.692778748309,0,65.9886932373,60.8177528381,101.264907837,6.81571674347
1646253062875928470,182,1646253062875928470,r1000913c5/base_front_laser_link,0,1646253062875928470,v/m1vw10zy74w/map,-8.6656790186,-1.18347961641,0.165,0.0,0.0,0.721294990637,-0.692627992852,0,61.770362854,60.8229598999,101.214950562,6.79733133316
1646253062954538183,183,1646253062954538183,r1000913c5/base_front_laser_link,0,1646253062954538183,v/m1vw10zy74w/map,-8.66476260738,-1.16140255248,0.165,0.0,0.0,0.721272682497,-0.692651223549,0,62.4959030151,60.8320503235,101.171615601,6.77985572815
1646253063190561487,184,1646253063190561487,r1000913c5/base_front_laser_link,0,1646253063190561487,v/m1vw10zy74w/map,-8.66308624741,-1.10203387045,0.165,0.0,0.0,0.720784374761,-0.693159350438,0,58.2245178223,60.8179550171,101.110328674,6.76412439346
1646253063426687400,185,1646253063426687400,r1000913c5/base_front_laser_link,0,1646253063426687400,v/m1vw10zy74w/map,-8.66041840053,-1.03496378772,0.165,0.0,0.0,0.720731094093,-0.693214750281,0,60.3464775085,60.8154220581,101.053138733,6.74590682983
1646253063584665702,186,1646253063584665702,r1000913c5/base_front_laser_link,0,1646253063584665702,v/m1vw10zy74w/map,-8.65664447455,-0.982866637241,0.165,0.0,0.0,0.719528308543,-0.694463111479,0,61.6600837708,60.8199386597,101.00403595,6.72803163528
1646253063663543367,187,1646253063663543367,r1000913c5/base_front_laser_link,0,1646253063663543367,v/m1vw10zy74w/map,-8.6558353035,-0.960187838991,0.165,0.0,0.0,0.719523080373,-0.694468528308,0,62.8763504028,60.8308792114,100.965957642,6.71169376373
1646253063821548820,188,1646253063821548820,r1000913c5/base_front_laser_link,0,1646253063821548820,v/m1vw10zy74w/map,-8.65418196786,-0.914968128439,0.165,0.0,0.0,0.719466547858,-0.694527095594,0,61.7395019531,60.83568573,100.918121338,6.69414615631
1646253064136595815,189,1646253064136595815,r1000913c5/base_front_laser_link,0,1646253064136595815,v/m1vw10zy74w/map,-8.65441061408,-0.832252494299,0.165,0.0,0.0,0.721465002376,-0.692450901037,0,59.6123771667,60.829246521,100.86025238,6.67700338364
1646253064216356133,190,1646253064216356133,r1000913c5/base_front_laser_link,0,1646253064216356133,v/m1vw10zy74w/map,-8.65348718723,-0.809569861427,0.165,0.0,0.0,0.721473523636,-0.692442022622,0,59.6505813599,60.8230743408,100.802940369,6.65995502472
1646253066813722537,191,1646253066813722537,r1000913c5/base_front_laser_link,0,1646253066813722537,v/m1vw10zy74w/map,-8.64662940392,-0.744519569257,0.165,0.0,0.0,0.717677508001,-0.696375613093,0,62.26121521,60.8305664062,100.760490417,6.64330863953
1646253066970776477,192,1646253066970776477,r1000913c5/base_front_laser_link,0,1646253066970776477,v/m1vw10zy74w/map,-8.64466722852,-0.76049177764,0.165,0.0,0.0,0.715176020968,-0.698944389084,0,60.7059020996,60.8299179077,100.707893372,6.62599182129
1646253067128650651,193,1646253067128650651,r1000913c5/base_front_laser_link,0,1646253067128650651,v/m1vw10zy74w/map,-8.64051487543,-0.778911435847,0.165,0.0,0.0,0.710478153535,-0.703719257481,0,62.9846305847,60.8410263062,100.672866821,6.61061382294
1646253067366105637,194,1646253067366105637,r1000913c5/base_front_laser_link,0,1646253067366105637,v/m1vw10zy74w/map,-8.62396360827,-0.811575491572,0.165,0.0,0.0,0.693199027986,-0.720746215807,0,58.8694572449,60.8309173584,100.616111755,6.59506559372
1646253067443884957,195,1646253067443884957,r1000913c5/base_front_laser_link,0,1646253067443884957,v/m1vw10zy74w/map,-8.61553419975,-0.823543134517,0.165,0.0,0.0,0.684669140008,-0.728854010568,0,58.3806724548,60.8184127808,100.559799194,6.58046150208
1646253067601702509,196,1646253067601702509,r1000913c5/base_front_laser_link,0,1646253067601702509,v/m1vw10zy74w/map,-8.59504469744,-0.849894443435,0.165,0.0,0.0,0.664609392651,-0.747190976391,0,61.793170929,60.8233642578,100.515426636,6.5640206337
1646253067837647910,197,1646253067837647910,r1000913c5/base_front_laser_link,0,1646253067837647910,v/m1vw10zy74w/map,-8.5544567938,-0.890805211618,0.165,0.0,0.0,0.626338657567,-0.779551079813,0,56.286190033,60.8004493713,100.466270447,6.55527448654
1646253067994616806,198,1646253067994616806,r1000913c5/base_front_laser_link,0,1646253067994616806,v/m1vw10zy74w/map,-8.5175706184,-0.913936225593,0.165,0.0,0.0,0.597296547971,-0.802020469678,0,53.9594573975,60.7660713196,100.436042786,6.55665826797
1646253068230723752,199,1646253068230723752,r1000913c5/base_front_laser_link,0,1646253068230723752,v/m1vw10zy74w/map,-8.44949425613,-0.950546182612,0.165,0.0,0.0,0.534673084853,-0.845058987488,0,55.1629981995,60.7380561829,100.394515991,6.5521531105
1646253068466705378,200,1646253068466705378,r1000913c5/base_front_laser_link,0,1646253068466705378,v/m1vw10zy74w/map,-8.37810186532,-0.965008563192,0.165,0.0,0.0,0.462897849531,-0.886411631749,0,58.4707221985,60.726776123,100.339897156,6.53770828247
1646253068624852732,201,1646253068624852732,r1000913c5/base_front_laser_link,0,1646253068624852732,v/m1vw10zy74w/map,-8.34901970527,-0.951191699601,0.165,0.0,0.0,0.422022451393,-0.906585379609,0,59.7613563538,60.7219963074,100.287330627,6.52177906036
1646253068860628736,202,1646253068860628736,r1000913c5/base_front_laser_link,0,1646253068860628736,v/m1vw10zy74w/map,-8.33197137205,-0.930424017971,0.165,0.0,0.0,0.380873524308,-0.924627145655,0,60.1814498901,60.7193336487,100.23651123,6.50572633743
1646253069017860157,203,1646253069017860157,r1000913c5/base_front_laser_link,0,1646253069017860157,v/m1vw10zy74w/map,-8.31829798594,-0.913179324792,0.165,0.0,0.0,0.354278225558,-0.935140063785,0,56.479221344,60.6985473633,100.187957764,6.49646902084
1646253069177022536,204,1646253069177022536,r1000913c5/base_front_laser_link,0,1646253069177022536,v/m1vw10zy74w/map,-8.30312723119,-0.893376553275,0.165,0.0,0.0,0.319864313033,-0.947463361428,0,56.5449142456,60.6782875061,100.139335632,6.48701667786
1646253070042237603,205,1646253070042237603,r1000913c5/base_front_laser_link,0,1646253070042237603,v/m1vw10zy74w/map,-8.24151873958,-0.843743153642,0.165,0.0,0.0,0.21037508373,-0.977620746581,0,53.7721443176,60.6447601318,100.111885071,6.48903989792
1646253070199816358,206,1646253070199816358,r1000913c5/base_front_laser_link,0,1646253070199816358,v/m1vw10zy74w/map,-8.22895565699,-0.840058847817,0.165,0.0,0.0,0.199483009486,-0.979901285297,0,57.0880775452,60.6275787354,100.061546326,6.47798919678
1646253070436944298,207,1646253070436944298,r1000913c5/base_front_laser_link,0,1646253070436944298,v/m1vw10zy74w/map,-8.20245515819,-0.835425445185,0.165,0.0,0.0,0.178719224056,-0.98390011635,0,54.4593009949,60.5979232788,100.027305603,6.47646045685
1646253070593830691,208,1646253070593830691,r1000913c5/base_front_laser_link,0,1646253070593830691,v/m1vw10zy74w/map,-8.18150534938,-0.832333368427,0.165,0.0,0.0,0.163981778415,-0.986463367971,0,53.3324966431,60.5631599426,100.004333496,6.48038959503
1646253070751944199,209,1646253070751944199,r1000913c5/base_front_laser_link,0,1646253070751944199,v/m1vw10zy74w/map,-8.15812374824,-0.82880386506,0.165,0.0,0.0,0.148339976307,-0.988936424362,0,57.3175926208,60.547706604,99.9539413452,6.4687461853
1646253070910028212,210,1646253070910028212,r1000913c5/base_front_laser_link,0,1646253070910028212,v/m1vw10zy74w/map,-8.13309049593,-0.821803974324,0.165,0.0,0.0,0.131656415732,-0.991295409147,0,53.3162727356,60.5134353638,99.9309310913,6.47249984741
1646253071145029923,211,1646253071145029923,r1000913c5/base_front_laser_link,0,1646253071145029923,v/m1vw10zy74w/map,-8.08871877236,-0.812601513949,0.165,0.0,0.0,0.102879974463,-0.994693777428,0,56.8823165894,60.496307373,99.8821792603,6.46195793152
1646253071303701195,212,1646253071303701195,r1000913c5/base_front_laser_link,0,1646253071303701195,v/m1vw10zy74w/map,-8.05647658703,-0.80566977111,0.165,0.0,0.0,0.0837795990286,-0.996484309353,0,54.2172660828,60.4668273926,99.8499450684,6.46103954315
1646253071539095953,213,1646253071539095953,r1000913c5/base_front_laser_link,0,1646253071539095953,v/m1vw10zy74w/map,-8.00106212842,-0.794697886226,0.165,0.0,0.0,0.058381149941,-0.998294366072,0,56.6256637573,60.4488792419,99.802482605,6.45120096207
1646253071775310246,214,1646253071775310246,r1000913c5/base_front_laser_link,0,1646253071775310246,v/m1vw10zy74w/map,-7.94228748992,-0.786475130612,0.165,0.0,0.0,0.037707399561,-0.999288823123,0,55.9262084961,60.4278411865,99.7583312988,6.44349718094
1646253071932092689,215,1646253071932092689,r1000913c5/base_front_laser_link,0,1646253071932092689,v/m1vw10zy74w/map,-7.90559118767,-0.775613055793,0.165,0.0,0.0,0.0255890678671,-0.99967254619,0,55.9273414612,60.4070053101,99.7143554688,6.43578386307
1646253072090988703,216,1646253072090988703,r1000913c5/base_front_laser_link,0,1646253072090988703,v/m1vw10zy74w/map,-7.86041474017,-0.771441552593,0.165,0.0,0.0,0.0164916001589,-0.999864004315,0,57.2272109985,60.3923530579,99.6658401489,6.4244966507
1646253072247347116,217,1646253072247347116,r1000913c5/base_front_laser_link,0,1646253072247347116,v/m1vw10zy74w/map,-7.81238268185,-0.767224509258,0.165,0.0,0.0,0.00838014130173,-0.999964885999,0,56.8707237244,60.3761978149,99.6185379028,6.4141125679
1646253072404007014,218,1646253072404007014,r1000913c5/base_front_laser_link,0,1646253072404007014,v/m1vw10zy74w/map,-7.77039995434,-0.759939430894,0.165,0.0,0.0,0.00247865914622,-0.99999692812,0,59.2737846375,60.3711662292,99.5706176758,6.39981794357
1646253072640147853,219,1646253072640147853,r1000913c5/base_front_laser_link,0,1646253072640147853,v/m1vw10zy74w/map,-7.68863253846,-0.755583445343,0.165,0.0,0.0,-0.00380159244439,-0.999992773921,0,54.4547080994,60.3442726135,99.5371856689,6.39763736725
1646253072798985814,220,1646253072798985814,r1000913c5/base_front_laser_link,0,1646253072798985814,v/m1vw10zy74w/map,-7.62877304653,-0.748153568096,0.165,0.0,0.0,-0.00775040160693,-0.999969965186,0,56.4427070618,60.3266181946,99.4920425415,6.38847351074
1646253072954901878,221,1646253072954901878,r1000913c5/base_front_laser_link,0,1646253072954901878,v/m1vw10zy74w/map,-7.56873148962,-0.745513957577,0.165,0.0,0.0,-0.0096279396365,-0.999953650315,0,52.4453735352,60.2911186218,99.4788589478,6.39591407776
1646253073033778061,222,1646253073033778061,r1000913c5/base_front_laser_link,0,1646253073033778061,v/m1vw10zy74w/map,-7.53724654441,-0.744232768158,0.165,0.0,0.0,-0.0105805078162,-0.999944024861,0,54.7759742737,60.2663841248,99.4428939819,6.39217042923
1646253073112789104,223,1646253073112789104,r1000913c5/base_front_laser_link,0,1646253073112789104,v/m1vw10zy74w/map,-7.50591403025,-0.744225274223,0.165,0.0,0.0,-0.010666247062,-0.999943113969,0,56.3595848083,60.2489433289,99.3984298706,6.38316202164
1646253073271049529,224,1646253073271049529,r1000913c5/base_front_laser_link,0,1646253073271049529,v/m1vw10zy74w/map,-7.44417430576,-0.741024184983,0.165,0.0,0.0,-0.0103511132232,-0.999946425792,0,57.3450622559,60.236038208,99.3515548706,6.37183952332
1646253073427869679,225,1646253073427869679,r1000913c5/base_front_laser_link,0,1646253073427869679,v/m1vw10zy74w/map,-7.37519234423,-0.739409514711,0.165,0.0,0.0,-0.0105660485899,-0.999944177751,0,55.1823997498,60.2136764526,99.3133087158,6.36654520035
1646253073507231523,226,1646253073507231523,r1000913c5/base_front_laser_link,0,1646253073507231523,v/m1vw10zy74w/map,-7.34108883349,-0.737997246588,0.165,0.0,0.0,-0.011283566525,-0.999936338537,0,55.7787017822,60.1941413879,99.2719192505,6.35926055908
1646253073743125216,227,1646253073743125216,r1000913c5/base_front_laser_link,0,1646253073743125216,v/m1vw10zy74w/map,-7.23328306921,-0.734227839241,0.165,0.0,0.0,-0.0101180763266,-0.999948810956,0,53.2776069641,60.1638031006,99.2490539551,6.36175012589
1646253073979039884,228,1646253073979039884,r1000913c5/base_front_laser_link,0,1646253073979039884,v/m1vw10zy74w/map,-7.12033456164,-0.728837651076,0.165,0.0,0.0,-0.00884122858593,-0.999960915575,0,53.4864273071,60.1346435547,99.2239456177,6.36310148239
1646253074136039512,229,1646253074136039512,r1000913c5/base_front_laser_link,0,1646253074136039512,v/m1vw10zy74w/map,-7.04025389612,-0.731009876001,0.165,0.0,0.0,-0.00628499504695,-0.999980249224,0,53.1181259155,60.1041374207,99.2022171021,6.36602735519
1646253074451016139,230,1646253074451016139,r1000913c5/base_front_laser_link,0,1646253074451016139,v/m1vw10zy74w/map,-6.86489865593,-0.732280386674,0.165,0.0,0.0,-0.00424996531404,-0.999990968857,0,51.5162277222,60.0669593811,99.1987228394,6.37725448608
1646253074686970974,231,1646253074686970974,r1000913c5/base_front_laser_link,0,1646253074686970974,v/m1vw10zy74w/map,-6.71857926355,-0.734391139908,0.165,0.0,0.0,-0.00226388966005,-0.999997437399,0,50.5739936829,60.0260429382,99.2076950073,6.39388370514
1646253075002521187,232,1646253075002521187,r1000913c5/base_front_laser_link,0,1646253075002521187,v/m1vw10zy74w/map,-6.53933589858,-0.724513309922,0.165,0.0,0.0,0.00277991300902,-0.999996136034,0,53.2456283569,59.9969444275,99.1835403442,6.39553356171
1646253075159151390,233,1646253075159151390,r1000913c5/base_front_laser_link,0,1646253075159151390,v/m1vw10zy74w/map,-6.44627030267,-0.702278076341,0.165,0.0,0.0,0.00787477873533,-0.999968993449,0,49.4567756653,59.9519004822,99.2085494995,6.41888332367
1646253075395203265,234,1646253075395203265,r1000913c5/base_front_laser_link,0,1646253075395203265,v/m1vw10zy74w/map,-6.27679558858,-0.733863236492,0.165,0.0,0.0,0.00958788584941,-0.999954035166,0,51.2684173584,59.9149475098,99.205406189,6.43015193939
1646253075553230248,235,1646253075553230248,r1000913c5/base_front_laser_link,0,1646253075553230248,v/m1vw10zy74w/map,-6.17342605396,-0.733621437268,0.165,0.0,0.0,0.00794371912265,-0.999968448165,0,52.418056488,59.8831825256,99.1881408691,6.43498706818
1646253075790959151,236,1646253075790959151,r1000913c5/base_front_laser_link,0,1646253075790959151,v/m1vw10zy74w/map,-6.01455474533,-0.726251729037,0.165,0.0,0.0,0.00401304242153,-0.999991947713,0,54.0011978149,59.8583641052,99.1564483643,6.43269586563
1646253075948155507,237,1646253075948155507,r1000913c5/base_front_laser_link,0,1646253075948155507,v/m1vw10zy74w/map,-5.89459369644,-0.727957590752,0.165,0.0,0.0,0.00449640519853,-0.999989891119,0,55.3439331055,59.8393936157,99.1167297363,6.42577695847
