%time,field.header.seq,field.header.stamp,field.header.frame_id,field.pose.header.seq,field.pose.header.stamp,field.pose.header.frame_id,field.pose.pose.position.x,field.pose.pose.position.y,field.pose.pose.position.z,field.pose.pose.orientation.x,field.pose.pose.orientation.y,field.pose.pose.orientation.z,field.pose.pose.orientation.w,field.label,field.current_error,field.mean,field.threshold,field.std_dev
1646420125963712882,0,1646420125963712882,r1000913c5/base_front_laser_link,0,1646420125963712882,v/m1vw10zy74w/map,-2.8451051484,-2.27621589818,0.165,0.0,0.0,-0.706242869251,0.70796963892,0,59.6115379333,59.6115379333,nan,nan
1646420127619922778,1,1646420127619922778,r1000913c5/base_front_laser_link,0,1646420127619922778,v/m1vw10zy74w/map,-2.84031587559,-2.16085885934,0.165,0.0,0.0,-0.703295658835,0.710897472399,0,56.6096687317,58.1106033325,84.4785308838,2.12264275551
1646420127855304717,2,1646420127855304717,r1000913c5/base_front_laser_link,0,1646420127855304717,v/m1vw10zy74w/map,-2.83525469404,-2.15908225838,0.165,0.0,0.0,-0.69787534957,0.716219237708,0,57.1426467896,57.7879524231,82.5927505493,1.60159850121
1646420128012853638,3,1646420128012853638,r1000913c5/base_front_laser_link,0,1646420128012853638,v/m1vw10zy74w/map,-2.82126955771,-2.15865683908,0.165,0.0,0.0,-0.68274653317,0.730655302756,0,58.4306716919,57.9486312866,81.9884567261,1.34660720825
1646420128091938487,4,1646420128091938487,r1000913c5/base_front_laser_link,0,1646420128091938487,v/m1vw10zy74w/map,-2.81166883729,-2.15773585797,0.165,0.0,0.0,-0.672154995035,0.74041046903,0,57.7389373779,57.9066925049,81.4165725708,1.16996049881
1646420128171001437,5,1646420128171001437,r1000913c5/base_front_laser_link,0,1646420128171001437,v/m1vw10zy74w/map,-2.80076981744,-2.15635919894,0.165,0.0,0.0,-0.659920161657,0.751335730708,0,54.7986297607,57.3886833191,82.3227996826,1.64470469952
1646420128250092334,6,1646420128250092334,r1000913c5/base_front_laser_link,0,1646420128250092334,v/m1vw10zy74w/map,-2.78888996934,-2.15448633195,0.165,0.0,0.0,-0.646321053827,0.763065590484,0,60.4502067566,57.8260421753,83.5127639771,1.89557421207
1646420128407028117,7,1646420128407028117,r1000913c5/base_front_laser_link,0,1646420128407028117,v/m1vw10zy74w/map,-2.7646942003,-2.14964653478,0.165,0.0,0.0,-0.617751104015,0.786373685653,0,61.3176803589,58.2624969482,84.6994552612,2.14565348625
1646420128722822155,8,1646420128722822155,r1000913c5/base_front_laser_link,0,1646420128722822155,v/m1vw10zy74w/map,-2.72380987747,-2.14922250839,0.165,0.0,0.0,-0.562779318872,0.826607184974,0,58.913444519,58.3348236084,84.3911361694,2.01876974106
1646420128880259268,9,1646420128880259268,r1000913c5/base_front_laser_link,0,1646420128880259268,v/m1vw10zy74w/map,-2.69736158823,-2.14958047676,0.165,0.0,0.0,-0.532922582806,0.84616400345,0,60.2296257019,58.5243034363,84.5105133057,1.99540281296
1646420129196424239,10,1646420129196424239,r1000913c5/base_front_laser_link,0,1646420129196424239,v/m1vw10zy74w/map,-2.66398786934,-2.13849071229,0.165,0.0,0.0,-0.471745054276,0.881734996338,0,54.9792251587,58.2020263672,84.723815918,2.17393159866
1646420129352990787,11,1646420129352990787,r1000913c5/base_front_laser_link,0,1646420129352990787,v/m1vw10zy74w/map,-2.64464276028,-2.12625771244,0.165,0.0,0.0,-0.440350582872,0.89782590972,0,56.5838241577,58.0671768188,84.4414215088,2.12474894524
1646420129747369548,12,1646420129747369548,r1000913c5/base_front_laser_link,0,1646420129747369548,v/m1vw10zy74w/map,-2.59322371157,-2.09185963474,0.165,0.0,0.0,-0.355475270951,0.934685686069,0,55.8224411011,57.8945045471,84.2767868042,2.12742733955
1646420129826239424,13,1646420129826239424,r1000913c5/base_front_laser_link,0,1646420129826239424,v/m1vw10zy74w/map,-2.58565927217,-2.08291068821,0.165,0.0,0.0,-0.339073242624,0.940759977963,0,53.5086326599,57.5812263489,84.6498947144,2.3562233448
1646420129905872877,14,1646420129905872877,r1000913c5/base_front_laser_link,0,1646420129905872877,v/m1vw10zy74w/map,-2.57826859927,-2.07367657982,0.165,0.0,0.0,-0.322403016405,0.94660250106,0,52.6421356201,57.251953125,85.0643692017,2.60413908958
1646420129984767777,15,1646420129984767777,r1000913c5/base_front_laser_link,0,1646420129984767777,v/m1vw10zy74w/map,-2.57141767975,-2.07425252779,0.165,0.0,0.0,-0.306088262522,0.952003138412,0,50.9560585022,56.8584594727,85.7613525391,2.96763038635
1646420130299253619,16,1646420130299253619,r1000913c5/base_front_laser_link,0,1646420130299253619,v/m1vw10zy74w/map,-2.53784744464,-2.02673096163,0.165,0.0,0.0,-0.23697600383,0.971515503535,0,49.82213974,56.4445610046,86.4704589844,3.3419675827
1646420130457944937,17,1646420130457944937,r1000913c5/base_front_laser_link,0,1646420130457944937,v/m1vw10zy74w/map,-2.53507441754,-1.99607959695,0.165,0.0,0.0,-0.201271281111,0.97953553861,0,47.4215621948,55.9432830811,87.5756988525,3.87747168541
1646420130772280323,18,1646420130772280323,r1000913c5/base_front_laser_link,0,1646420130772280323,v/m1vw10zy74w/map,-2.52708772183,-1.95252666925,0.165,0.0,0.0,-0.131198713839,0.991356090155,0,43.1115036011,55.2679252625,89.6133041382,4.78179311752
1646420130930101115,19,1646420130930101115,r1000913c5/base_front_laser_link,0,1646420130930101115,v/m1vw10zy74w/map,-2.52087408393,-1.93527963192,0.165,0.0,0.0,-0.0957006347216,0.995410160946,0,44.4744529724,54.7282524109,90.4566802979,5.24280929565
1646420131008145811,20,1646420131008145811,r1000913c5/base_front_laser_link,0,1646420131008145811,v/m1vw10zy74w/map,-2.5191955607,-1.92547083394,0.165,0.0,0.0,-0.0785342430354,0.996911416662,0,46.2526168823,54.3246498108,90.6280593872,5.43447113037
1646420131244199685,21,1646420131244199685,r1000913c5/base_front_laser_link,0,1646420131244199685,v/m1vw10zy74w/map,-2.51815204457,-1.8936713547,0.165,0.0,0.0,-0.0251522596398,0.999683631873,0,50.6799163818,54.1589813232,90.2393569946,5.36012506485
1646420131481070929,22,1646420131481070929,r1000913c5/base_front_laser_link,0,1646420131481070929,v/m1vw10zy74w/map,-2.51374032461,-1.86116933816,0.165,0.0,0.0,0.0267621919011,0.999641828399,0,49.9948196411,53.9779281616,89.9030761719,5.30838155746
1646420131638155018,23,1646420131638155018,r1000913c5/base_front_laser_link,0,1646420131638155018,v/m1vw10zy74w/map,-2.51699814199,-1.84564860668,0.165,0.0,0.0,0.0625890551881,0.998039383076,0,49.5635375977,53.7939949036,89.6019439697,5.26931667328
1646420131953323546,24,1646420131953323546,r1000913c5/base_front_laser_link,0,1646420131953323546,v/m1vw10zy74w/map,-2.52428483153,-1.79396847075,0.165,0.0,0.0,0.133078669526,0.991105477594,0,49.7783927917,53.6333732605,89.294921875,5.22051668167
1646420132032374517,25,1646420132032374517,r1000913c5/base_front_laser_link,0,1646420132032374517,v/m1vw10zy74w/map,-2.52773032251,-1.78235102387,0.165,0.0,0.0,0.150989224979,0.988535408542,0,49.1662368774,53.4615592957,89.030128479,5.18952322006
1646420132347251691,26,1646420132347251691,r1000913c5/base_front_laser_link,0,1646420132347251691,v/m1vw10zy74w/map,-2.53203348782,-1.73371584471,0.165,0.0,0.0,0.219417943161,0.975630958006,0,48.1761817932,53.2658042908,88.8340377808,5.18941020966
1646420132584624936,27,1646420132584624936,r1000913c5/base_front_laser_link,0,1646420132584624936,v/m1vw10zy74w/map,-2.54845783602,-1.69555072905,0.165,0.0,0.0,0.270819964455,0.962630015558,0,49.1755256653,53.1197242737,88.5719299316,5.15073633194
1646420132662619544,28,1646420132662619544,r1000913c5/base_front_laser_link,0,1646420132662619544,v/m1vw10zy74w/map,-2.55511137396,-1.68026648974,0.165,0.0,0.0,0.287999001077,0.957630709292,0,48.8376960754,52.9720687866,88.3321990967,5.12004375458
1646420132821107342,29,1646420132821107342,r1000913c5/base_front_laser_link,0,1646420132821107342,v/m1vw10zy74w/map,-2.56865839162,-1.66036746372,0.165,0.0,0.0,0.321770538686,0.946817680672,0,48.3541641235,52.8181381226,88.1215820312,5.10114908218
1646420132900326387,30,1646420132900326387,r1000913c5/base_front_laser_link,0,1646420132900326387,v/m1vw10zy74w/map,-2.57818223273,-1.64790856401,0.165,0.0,0.0,0.338550323966,0.940948286646,0,45.3661422729,52.5777511597,88.1505203247,5.19092416763
1646420133765949918,31,1646420133765949918,r1000913c5/base_front_laser_link,0,1646420133765949918,v/m1vw10zy74w/map,-2.64683692132,-1.5531747054,0.165,0.0,0.0,0.454227306459,0.890885825495,0,47.6723022461,52.4244537354,87.9633178711,5.17961978912
1646420133923799605,32,1646420133923799605,r1000913c5/base_front_laser_link,0,1646420133923799605,v/m1vw10zy74w/map,-2.64592050382,-1.54423299635,0.165,0.0,0.0,0.460148511866,0.887841960615,0,47.9725914001,52.2895507812,87.7593841553,5.15661239624
1646420134080698854,33,1646420134080698854,r1000913c5/base_front_laser_link,0,1646420134080698854,v/m1vw10zy74w/map,-2.64172160022,-1.51917736155,0.165,0.0,0.0,0.472386110689,0.88139171906,0,49.2716674805,52.2007904053,87.5133514404,5.10418891907
1646420134238495390,34,1646420134238495390,r1000913c5/base_front_laser_link,0,1646420134238495390,v/m1vw10zy74w/map,-2.64031777293,-1.49985546853,0.165,0.0,0.0,0.484595176531,0.87473854087,0,49.3144111633,52.1183204651,87.2748565674,5.05217981339
1646420134317359244,35,1646420134317359244,r1000913c5/base_front_laser_link,0,1646420134317359244,v/m1vw10zy74w/map,-2.63947126393,-1.48950414704,0.165,0.0,0.0,0.490743441442,0.871304122957,0,48.5737991333,52.0198631287,87.0630722046,5.01440286636
1646420134553922717,36,1646420134553922717,r1000913c5/base_front_laser_link,0,1646420134553922717,v/m1vw10zy74w/map,-2.63597770306,-1.45408036454,0.165,0.0,0.0,0.509740209326,0.860328378584,0,49.3151893616,51.946762085,86.8394241333,4.96422147751
1646420134948428602,37,1646420134948428602,r1000913c5/base_front_laser_link,0,1646420134948428602,v/m1vw10zy74w/map,-2.62761912115,-1.38698811204,0.165,0.0,0.0,0.539346857663,0.842083705536,0,50.8359031677,51.9175300598,86.6175079346,4.89999294281
1646420135264074041,38,1646420135264074041,r1000913c5/base_front_laser_link,0,1646420135264074041,v/m1vw10zy74w/map,-2.61864565945,-1.31732097619,0.165,0.0,0.0,0.563313219051,0.826243437034,0,53.2423286438,51.951499939,86.4707183838,4.83974075317
1646420135578927709,39,1646420135578927709,r1000913c5/base_front_laser_link,0,1646420135578927709,v/m1vw10zy74w/map,-2.61296186333,-1.2380058894,0.165,0.0,0.0,0.590348374672,0.80714855914,0,52.2601547241,51.9592132568,86.2918319702,4.77753925323
1646420135815487004,40,1646420135815487004,r1000913c5/base_front_laser_link,0,1646420135815487004,v/m1vw10zy74w/map,-2.61614633167,-1.16956230391,0.165,0.0,0.0,0.617105755056,0.786880224098,0,49.8405838013,51.9075393677,86.0946350098,4.72903156281
1646420135972446273,41,1646420135972446273,r1000913c5/base_front_laser_link,0,1646420135972446273,v/m1vw10zy74w/map,-2.62372458729,-1.11909041367,0.165,0.0,0.0,0.638353279802,0.769743522328,0,53.9919891357,51.9571723938,86.003364563,4.68206501007
1646420136287534404,42,1646420136287534404,r1000913c5/base_front_laser_link,0,1646420136287534404,v/m1vw10zy74w/map,-2.65881324171,-1.01920034408,0.165,0.0,0.0,0.690698591553,0.723142762963,0,52.4077758789,51.9676513672,85.84715271,4.62650060654
1646420136445493348,43,1646420136445493348,r1000913c5/base_front_laser_link,0,1646420136445493348,v/m1vw10zy74w/map,-2.68006603011,-0.973518815509,0.165,0.0,0.0,0.712557900629,0.701613311056,0,52.4479675293,51.9785652161,85.6974487305,4.57296085358
1646420136604449113,44,1646420136604449113,r1000913c5/base_front_laser_link,0,1646420136604449113,v/m1vw10zy74w/map,-2.69543120857,-0.917670212621,0.165,0.0,0.0,0.726682961066,0.68697297916,0,51.9785461426,51.9785652161,85.5406570435,4.52069664001
1646420136839508304,45,1646420136839508304,r1000913c5/base_front_laser_link,0,1646420136839508304,v/m1vw10zy74w/map,-2.72628725953,-0.821617214791,0.165,0.0,0.0,0.745829738377,0.666136623639,0,57.5658607483,52.1000289917,85.7364044189,4.54545927048
1646420136996457400,46,1646420136996457400,r1000913c5/base_front_laser_link,0,1646420136996457400,v/m1vw10zy74w/map,-2.757015152,-0.763106012945,0.165,0.0,0.0,0.765959307356,0.642889056894,0,57.2481994629,52.209564209,85.8837585449,4.55806446075
1646420137154612074,47,1646420137154612074,r1000913c5/base_front_laser_link,0,1646420137154612074,v/m1vw10zy74w/map,-2.79891522387,-0.700772055276,0.165,0.0,0.0,0.792013293744,0.610503843176,0,59.2717208862,52.3566932678,86.2259597778,4.62308883667
1646420137234248454,48,1646420137234248454,r1000913c5/base_front_laser_link,0,1646420137234248454,v/m1vw10zy74w/map,-2.82351148197,-0.670503284653,0.165,0.0,0.0,0.805944743282,0.591990769165,0,61.7394714355,52.5481796265,86.8491973877,4.76700592041
1646420137391347827,49,1646420137391347827,r1000913c5/base_front_laser_link,0,1646420137391347827,v/m1vw10zy74w/map,-2.8753975818,-0.631087901212,0.165,0.0,0.0,0.833270314272,0.552865791447,0,59.212802887,52.6814689636,87.1154708862,4.81133317947
1646420137548477356,50,1646420137548477356,r1000913c5/base_front_laser_link,0,1646420137548477356,v/m1vw10zy74w/map,-2.92190329855,-0.613539487871,0.165,0.0,0.0,0.860225571903,0.509913684307,0,57.0339851379,52.7668151855,87.1722564697,4.80181312561
1646420137707542776,51,1646420137707542776,r1000913c5/base_front_laser_link,0,1646420137707542776,v/m1vw10zy74w/map,-2.94606691939,-0.624595222778,0.165,0.0,0.0,0.878399709736,0.477926720257,0,56.987903595,52.8479881287,87.2191925049,4.79040145874
1646420137784526881,52,1646420137784526881,r1000913c5/base_front_laser_link,0,1646420137784526881,v/m1vw10zy74w/map,-2.95580465064,-0.631550585512,0.165,0.0,0.0,0.886632013858,0.462475590709,0,58.893535614,52.9620552063,87.4107971191,4.81624746323
1646420137942511978,53,1646420137942511978,r1000913c5/base_front_laser_link,0,1646420137942511978,v/m1vw10zy74w/map,-2.97350669289,-0.641257235309,0.165,0.0,0.0,0.901546110664,0.432683036815,0,59.5284385681,53.083656311,87.6443328857,4.85355997086
1646420138178675274,54,1646420138178675274,r1000913c5/base_front_laser_link,0,1646420138178675274,v/m1vw10zy74w/map,-2.9994676785,-0.673729634832,0.165,0.0,0.0,0.92298385966,0.384838660749,0,60.7825965881,53.2236366272,87.9812316895,4.91919755936
1646420139282559345,55,1646420139282559345,r1000913c5/base_front_laser_link,0,1646420139282559345,v/m1vw10zy74w/map,-3.06257655458,-0.763604236444,0.165,0.0,0.0,0.960465370738,0.278399482062,0,58.5142173767,53.3181114197,88.0939407349,4.92527770996
1646420139439633838,56,1646420139439633838,r1000913c5/base_front_laser_link,0,1646420139439633838,v/m1vw10zy74w/map,-3.08003697071,-0.761149540688,0.165,0.0,0.0,0.963360734341,0.268209051916,0,59.8302459717,53.4323577881,88.3025512695,4.95672988892
1646420139597659164,57,1646420139597659164,r1000913c5/base_front_laser_link,0,1646420139597659164,v/m1vw10zy74w/map,-3.10019898909,-0.758254769413,0.165,0.0,0.0,0.966393916217,0.257065747814,0,60.4960021973,53.554145813,88.5536651611,4.99983930588
1646420139912675796,58,1646420139912675796,r1000913c5/base_front_laser_link,0,1646420139912675796,v/m1vw10zy74w/map,-3.14896577484,-0.750479381879,0.165,0.0,0.0,0.972377417003,0.23341413604,0,62.5586433411,53.7067642212,88.9866485596,5.09329366684
1646420139991563349,59,1646420139991563349,r1000913c5/base_front_laser_link,0,1646420139991563349,v/m1vw10zy74w/map,-3.16255755627,-0.747937184263,0.165,0.0,0.0,0.97370346269,0.227819153598,0,63.2855682373,53.8664093018,89.4638671875,5.19915151596
1646420140069686865,60,1646420140069686865,r1000913c5/base_front_laser_link,0,1646420140069686865,v/m1vw10zy74w/map,-3.17704430472,-0.745360090273,0.165,0.0,0.0,0.975060638872,0.221938618818,0,63.5219154358,54.0246963501,89.9300765991,5.30179166794
1646420140226719522,61,1646420140226719522,r1000913c5/base_front_laser_link,0,1646420140226719522,v/m1vw10zy74w/map,-3.21117671014,-0.735505521671,0.165,0.0,0.0,0.978028802478,0.20846980962,0,63.5450325012,54.1782531738,90.3643798828,5.39537525177
1646420140384680420,62,1646420140384680420,r1000913c5/base_front_laser_link,0,1646420140384680420,v/m1vw10zy74w/map,-3.24376434104,-0.728623328322,0.165,0.0,0.0,0.98048057803,0.196615960966,0,66.3497238159,54.3714485168,91.0726013184,5.56705188751
1646420140621586232,63,1646420140621586232,r1000913c5/base_front_laser_link,0,1646420140621586232,v/m1vw10zy74w/map,-3.29803536694,-0.719060773594,0.165,0.0,0.0,0.983639381108,0.180148738365,0,64.7736053467,54.5339851379,91.5550689697,5.67369604111
1646420141014610338,64,1646420141014610338,r1000913c5/base_front_laser_link,0,1646420141014610338,v/m1vw10zy74w/map,-3.40256440318,-0.706423014268,0.165,0.0,0.0,0.989261666395,0.146155244178,0,73.8037948608,54.8304405212,93.1772384644,6.11559867859
1646420141487782529,65,1646420141487782529,r1000913c5/base_front_laser_link,0,1646420141487782529,v/m1vw10zy74w/map,-3.55259540498,-0.702385423737,0.165,0.0,0.0,0.994593099047,0.103848771435,0,71.299079895,55.0799674988,94.2739868164,6.39800691605
1646420141881855468,66,1646420141881855468,r1000913c5/base_front_laser_link,0,1646420141881855468,v/m1vw10zy74w/map,-3.69744313064,-0.706458201635,0.165,0.0,0.0,0.997174252999,0.0751232930363,0,70.4801177979,55.3098182678,95.1765365601,6.62223815918
1646420142039785394,67,1646420142039785394,r1000913c5/base_front_laser_link,0,1646420142039785394,v/m1vw10zy74w/map,-3.7630185705,-0.700483307093,0.165,0.0,0.0,0.99760011096,0.069238851907,0,72.1971282959,55.5581626892,96.2110061646,6.88428258896
1646420142275760992,68,1646420142275760992,r1000913c5/base_front_laser_link,0,1646420142275760992,v/m1vw10zy74w/map,-3.88797095715,-0.719726870416,0.165,0.0,0.0,0.998315410462,0.0580201795391,0,66.6010360718,55.7182044983,96.6029663086,6.96158742905
1646420142434801533,69,1646420142434801533,r1000913c5/base_front_laser_link,0,1646420142434801533,v/m1vw10zy74w/map,-3.96334049626,-0.723177618002,0.165,0.0,0.0,0.998743546732,0.0501131505733,0,60.1394500732,55.7813644409,96.574760437,6.93113088608
1646420142670710773,70,1646420142670710773,r1000913c5/base_front_laser_link,0,1646420142670710773,v/m1vw10zy74w/map,-4.07550401576,-0.723860449544,0.165,0.0,0.0,0.99923136406,0.0392005239713,0,64.1397781372,55.8990898132,96.7568054199,6.95257282257
1646420142827634371,71,1646420142827634371,r1000913c5/base_front_laser_link,0,1646420142827634371,v/m1vw10zy74w/map,-4.15233689224,-0.722000993779,0.165,0.0,0.0,0.999431500461,0.0337146242307,0,68.2639083862,56.0708236694,97.2374954224,7.05555868149
1646420142905787529,72,1646420142905787529,r1000913c5/base_front_laser_link,0,1646420142905787529,v/m1vw10zy74w/map,-4.18855610983,-0.725286895552,0.165,0.0,0.0,0.999552045642,0.0299283820678,0,63.3227272034,56.1701622009,97.3430023193,7.05761384964
1646420143063801152,73,1646420143063801152,r1000913c5/base_front_laser_link,0,1646420143063801152,v/m1vw10zy74w/map,-4.26871233934,-0.725788021511,0.165,0.0,0.0,0.999679873386,0.0253012005063,0,60.8804473877,56.2338180542,97.3252029419,7.03046321869
1646420143142818844,74,1646420143142818844,r1000913c5/base_front_laser_link,0,1646420143142818844,v/m1vw10zy74w/map,-4.30996853179,-0.725507557219,0.165,0.0,0.0,0.999735422203,0.0230018606449,0,62.1993217468,56.3133544922,97.3634338379,7.01669216156
1646420143378759103,75,1646420143378759103,r1000913c5/base_front_laser_link,0,1646420143378759103,v/m1vw10zy74w/map,-4.43122694541,-0.721824940048,0.165,0.0,0.0,0.999879243456,0.0155402221714,0,61.2961273193,56.3789176941,97.3583831787,6.99315357208
1646420143536766284,76,1646420143536766284,r1000913c5/base_front_laser_link,0,1646420143536766284,v/m1vw10zy74w/map,-4.52241739625,-0.722152449061,0.165,0.0,0.0,0.99993904249,0.0110413451932,0,65.2039108276,56.4935302734,97.5517654419,7.01941299438
1646420143693849101,77,1646420143693849101,r1000913c5/base_front_laser_link,0,1646420143693849101,v/m1vw10zy74w/map,-4.60871590755,-0.731943470955,0.165,0.0,0.0,0.999989673594,0.00454452476634,0,70.7970581055,56.6769065857,98.1547317505,7.15927505493
1646420143773195130,78,1646420143773195130,r1000913c5/base_front_laser_link,0,1646420143773195130,v/m1vw10zy74w/map,-4.65660444304,-0.73261276137,0.165,0.0,0.0,0.999995140259,0.00311760471373,0,64.8608627319,56.7805023193,98.2982406616,7.17258071899
1646420144088048011,79,1646420144088048011,r1000913c5/base_front_laser_link,0,1646420144088048011,v/m1vw10zy74w/map,-4.84469630054,-0.734701021967,0.165,0.0,0.0,0.999998775992,0.00156461337146,0,71.7389755249,56.9674835205,98.9293746948,7.32063150406
1646420144166886409,80,1646420144166886409,r1000913c5/base_front_laser_link,0,1646420144166886409,v/m1vw10zy74w/map,-4.89493625184,-0.734618425302,0.165,0.0,0.0,0.999998129528,0.00193415128612,0,73.1888809204,57.1677474976,99.651802063,7.49468612671
1646420144324962662,81,1646420144324962662,r1000913c5/base_front_laser_link,0,1646420144324962662,v/m1vw10zy74w/map,-4.9917141268,-0.734033846167,0.165,0.0,0.0,0.999994524455,0.00330923862181,0,69.1688842773,57.3141021729,100.009910583,7.56526851654
1646420144482628550,82,1646420144482628550,r1000913c5/base_front_laser_link,0,1646420144482628550,v/m1vw10zy74w/map,-5.09775310239,-0.732892925686,0.165,0.0,0.0,0.999994017015,0.00345918122792,0,57.3272399902,57.3142623901,99.8712539673,7.51899766922
1646420144640695737,83,1646420144640695737,r1000913c5/base_front_laser_link,0,1646420144640695737,v/m1vw10zy74w/map,-5.20349916017,-0.735673456591,0.165,0.0,0.0,0.999998960982,0.00144153897183,0,60.3374938965,57.3502502441,99.7927780151,7.48084115982
1646420144718678932,84,1646420144718678932,r1000913c5/base_front_laser_link,0,1646420144718678932,v/m1vw10zy74w/map,-5.25857414738,-0.735978013408,0.165,0.0,0.0,0.999999589746,0.000905818870784,0,61.7739524841,57.4022941589,99.7572250366,7.45164299011
1646420144875935554,85,1646420144875935554,r1000913c5/base_front_laser_link,0,1646420144875935554,v/m1vw10zy74w/map,-5.37215425392,-0.732969105749,0.165,0.0,0.0,0.999999258746,-0.00121758250261,0,63.6236953735,57.4746360779,99.7886276245,7.43799638748
1646420145034818717,86,1646420145034818717,r1000913c5/base_front_laser_link,0,1646420145034818717,v/m1vw10zy74w/map,-5.48553252188,-0.72673298283,0.165,0.0,0.0,0.999999427431,0.00107011132267,0,61.5656509399,57.5216598511,99.7445297241,7.4076218605
1646420145112877811,87,1646420145112877811,r1000913c5/base_front_laser_link,0,1646420145112877811,v/m1vw10zy74w/map,-5.53842252782,-0.73273204648,0.165,0.0,0.0,0.99999991752,-0.000406153815062,0,62.0186386108,57.5727615356,99.7142944336,7.38051128387
1646420145350070065,88,1646420145350070065,r1000913c5/base_front_laser_link,0,1646420145350070065,v/m1vw10zy74w/map,-5.71307781183,-0.737288677415,0.165,0.0,0.0,0.999997391575,-0.00228404095043,0,63.6768760681,57.6413497925,99.7421264648,7.36692619324
1646420145427860250,89,1646420145427860250,r1000913c5/base_front_laser_link,0,1646420145427860250,v/m1vw10zy74w/map,-5.77450801662,-0.738458919629,0.165,0.0,0.0,0.999993850173,-0.00350708095017,0,65.9466552734,57.7336273193,99.8662796021,7.37754917145
1646420145584808852,90,1646420145584808852,r1000913c5/base_front_laser_link,0,1646420145584808852,v/m1vw10zy74w/map,-5.87932965267,-0.709864086289,0.165,0.0,0.0,0.99999594083,-0.00284926715594,0,62.6300468445,57.787437439,99.8505783081,7.35438203812
1646420145663643379,91,1646420145663643379,r1000913c5/base_front_laser_link,0,1646420145663643379,v/m1vw10zy74w/map,-5.95480699326,-0.731040737484,0.165,0.0,0.0,0.999994211825,-0.00340239863529,0,61.4095878601,57.8268089294,99.7976226807,7.3236041069
1646420145900978423,92,1646420145900978423,r1000913c5/base_front_laser_link,0,1646420145900978423,v/m1vw10zy74w/map,-6.1420632032,-0.716481839833,0.165,0.0,0.0,0.999999478698,-0.00102108007221,0,60.1259689331,57.8515281677,99.7143096924,7.28759431839
1646420146058041760,93,1646420146058041760,r1000913c5/base_front_laser_link,0,1646420146058041760,v/m1vw10zy74w/map,-6.25326234715,-0.735641453143,0.165,0.0,0.0,0.999997403598,-0.00227877114949,0,62.1429672241,57.8971824646,99.6826095581,7.2618098259
1646420146215938286,94,1646420146215938286,r1000913c5/base_front_laser_link,0,1646420146215938286,v/m1vw10zy74w/map,-6.40817177203,-0.714818321217,0.165,0.0,0.0,0.999996602417,-0.00260675155032,0,60.9591941833,57.9294128418,99.619140625,7.22990846634
1646420146373996015,95,1646420146373996015,r1000913c5/base_front_laser_link,0,1646420146373996015,v/m1vw10zy74w/map,-6.56311351395,-0.715073455758,0.165,0.0,0.0,0.999991353405,-0.00415849915787,0,58.8047447205,57.938533783,99.5154647827,7.19231081009
1646420146609941764,96,1646420146609941764,r1000913c5/base_front_laser_link,0,1646420146609941764,v/m1vw10zy74w/map,-6.78131638518,-0.716216219435,0.165,0.0,0.0,0.999994928364,-0.00318484626267,0,61.1577339172,57.9717216492,99.458366394,7.16221475601
1646420146767965601,97,1646420146767965601,r1000913c5/base_front_laser_link,0,1646420146767965601,v/m1vw10zy74w/map,-6.92241275508,-0.731589735885,0.165,0.0,0.0,0.999986454547,-0.00520487480307,0,61.9916152954,58.0127410889,99.4230270386,7.13676261902
1646420146925139825,98,1646420146925139825,r1000913c5/base_front_laser_link,0,1646420146925139825,v/m1vw10zy74w/map,-7.06302434456,-0.738412728314,0.165,0.0,0.0,0.999994560398,-0.00329835944088,0,63.1195678711,58.0643234253,99.4206771851,7.11878395081
1646420147240178680,99,1646420147240178680,r1000913c5/base_front_laser_link,0,1646420147240178680,v/m1vw10zy74w/map,-7.34607191355,-0.740484896468,0.165,0.0,0.0,0.999994918092,0.00318807003213,0,60.3774108887,58.0874557495,99.3470001221,7.0865149498
1646420147476970560,100,1646420147476970560,r1000913c5/base_front_laser_link,0,1646420147476970560,v/m1vw10zy74w/map,-7.57789481651,-0.742595765377,0.165,0.0,0.0,0.999992339209,0.00391427170757,0,60.2522964478,58.1088905334,99.271736145,7.05428314209
1646420147556087815,101,1646420147556087815,r1000913c5/base_front_laser_link,0,1646420147556087815,v/m1vw10zy74w/map,-7.65657614349,-0.735942511187,0.165,0.0,0.0,0.9999831415,0.00580660972197,0,63.6264801025,58.1629829407,99.2844924927,7.04050254822
1646420147870982795,102,1646420147870982795,r1000913c5/base_front_laser_link,0,1646420147870982795,v/m1vw10zy74w/map,-7.98154228464,-0.736178714112,0.165,0.0,0.0,0.999984919348,0.00549191014025,0,63.4674491882,58.2144813538,99.2906036377,7.02537441254
1646420148029253951,103,1646420148029253951,r1000913c5/base_front_laser_link,0,1646420148029253951,v/m1vw10zy74w/map,-8.16301420863,-0.728606250865,0.165,0.0,0.0,0.999989516474,0.0045789672579,0,66.0388336182,58.2897148132,99.3891983032,7.03316164017
1646420148186115064,104,1646420148186115064,r1000913c5/base_front_laser_link,0,1646420148186115064,v/m1vw10zy74w/map,-8.32770781352,-0.727194289896,0.165,0.0,0.0,0.999994628199,0.00327773891882,0,64.6261138916,58.350063324,99.429649353,7.02652931213
1646420148501160418,105,1646420148501160418,r1000913c5/base_front_laser_link,0,1646420148501160418,v/m1vw10zy74w/map,-8.67386299282,-0.719806056459,0.165,0.0,0.0,0.999999766398,-0.000683523133441,0,57.8008651733,58.3448829651,99.3244628906,6.99319314957
1646420148737070595,106,1646420148737070595,r1000913c5/base_front_laser_link,0,1646420148737070595,v/m1vw10zy74w/map,-8.94697184906,-0.727635271851,0.165,0.0,0.0,0.999988930127,-0.00470527619808,0,57.8997039795,58.3407211304,99.2215042114,6.96026134491
1646420148974168075,107,1646420148974168075,r1000913c5/base_front_laser_link,0,1646420148974168075,v/m1vw10zy74w/map,-9.22903527952,-0.718438755638,0.165,0.0,0.0,0.999978942082,-0.00648963733104,0,52.0945892334,58.2828865051,99.1439361572,6.95368385315
1646420149131145113,108,1646420149131145113,r1000913c5/base_front_laser_link,0,1646420149131145113,v/m1vw10zy74w/map,-9.42795975268,-0.716150418342,0.165,0.0,0.0,0.999962383754,-0.008673585041,0,55.2652320862,58.2552032471,99.0375442505,6.92744874954
1646420149368324069,109,1646420149368324069,r1000913c5/base_front_laser_link,0,1646420149368324069,v/m1vw10zy74w/map,-9.71693065464,-0.71408754976,0.165,0.0,0.0,0.999959167537,-0.0090367725878,0,53.333530426,58.2104606628,98.945098877,6.91154670715
1646420149526309658,110,1646420149526309658,r1000913c5/base_front_laser_link,0,1646420149526309658,v/m1vw10zy74w/map,-9.90978533914,-0.719930171858,0.165,0.0,0.0,0.99996634007,-0.00820479902732,0,59.6681785583,58.2235908508,98.8679428101,6.88145017624
1646420149683491581,111,1646420149683491581,r1000913c5/base_front_laser_link,0,1646420149683491581,v/m1vw10zy74w/map,-10.1002630504,-0.715069320626,0.165,0.0,0.0,0.999997697925,-0.00214572701791,0,61.2631263733,58.2507324219,98.8199310303,6.85640048981
1646420149920253035,112,1646420149920253035,r1000913c5/base_front_laser_link,0,1646420149920253035,v/m1vw10zy74w/map,-10.4052135643,-0.720938275052,0.165,0.0,0.0,0.999993123983,0.0037083670581,0,54.7648086548,58.2198829651,98.7206726074,6.83359575272
1646420149998343959,113,1646420149998343959,r1000913c5/base_front_laser_link,0,1646420149998343959,v/m1vw10zy74w/map,-10.509496133,-0.718587699939,0.165,0.0,0.0,0.999982761988,0.00587160343062,0,57.463722229,58.2132492065,98.6242294312,6.80365991592
1646420150155347795,114,1646420150155347795,r1000913c5/base_front_laser_link,0,1646420150155347795,v/m1vw10zy74w/map,-10.709401449,-0.716728015254,0.165,0.0,0.0,0.999970296952,0.00770747784156,0,59.796875,58.2270202637,98.5531082153,6.77536296844
1646420150393204115,115,1646420150393204115,r1000913c5/base_front_laser_link,0,1646420150393204115,v/m1vw10zy74w/map,-11.0352219408,-0.719511689607,0.165,0.0,0.0,0.999948727975,0.0101262737629,0,59.1803207397,58.2352371216,98.4745025635,6.74642133713
1646420150470205526,116,1646420150470205526,r1000913c5/base_front_laser_link,0,1646420150470205526,v/m1vw10zy74w/map,-11.1474465876,-0.713242155386,0.165,0.0,0.0,0.999925086661,0.0122401416058,0,61.7600212097,58.2653656006,98.44090271,6.72517871857
1646420150549745625,117,1646420150549745625,r1000913c5/base_front_laser_link,0,1646420150549745625,v/m1vw10zy74w/map,-11.2491853459,-0.711719836333,0.165,0.0,0.0,0.999922349003,0.0124617801346,0,57.6540489197,58.2601852417,98.3500213623,6.69661331177
1646420150628319556,118,1646420150628319556,r1000913c5/base_front_laser_link,0,1646420150628319556,v/m1vw10zy74w/map,-11.3616984315,-0.707607410616,0.165,0.0,0.0,0.99992177726,0.0125075721233,0,61.0048446655,58.2832489014,98.3020172119,6.67292261124
1646420150786257060,119,1646420150786257060,r1000913c5/base_front_laser_link,0,1646420150786257060,v/m1vw10zy74w/map,-11.5821709307,-0.688498689376,0.165,0.0,0.0,0.999927184523,0.0120675454101,0,60.0369987488,58.2978630066,98.2381286621,6.64675426483
1646420150865264040,120,1646420150865264040,r1000913c5/base_front_laser_link,0,1646420150865264040,v/m1vw10zy74w/map,-11.7045107446,-0.679643582351,0.165,0.0,0.0,0.99993556178,0.0113521930367,0,62.94140625,58.3362388611,98.2335891724,6.63244915009
1646420151022348859,121,1646420151022348859,r1000913c5/base_front_laser_link,0,1646420151022348859,v/m1vw10zy74w/map,-11.9214933946,-0.661435507225,0.165,0.0,0.0,0.999936957164,0.0112286106749,0,60.0787963867,58.3505210876,98.1711273193,6.60686922073
1646420151101265711,122,1646420151101265711,r1000913c5/base_front_laser_link,0,1646420151101265711,v/m1vw10zy74w/map,-12.0412499124,-0.663613574597,0.165,0.0,0.0,0.99997211072,0.00746845250961,0,60.8228378296,58.3706207275,98.1211547852,6.58351135254
1646420151337435662,123,1646420151337435662,r1000913c5/base_front_laser_link,0,1646420151337435662,v/m1vw10zy74w/map,-12.4000912376,-0.653756574283,0.165,0.0,0.0,0.999997328494,0.00231149422875,0,60.2365875244,58.3856697083,98.0621795654,6.55883550644
1646420151416399653,124,1646420151416399653,r1000913c5/base_front_laser_link,0,1646420151416399653,v/m1vw10zy74w/map,-12.5061636019,-0.660322789923,0.165,0.0,0.0,0.99999975911,-0.000694103104449,0,58.3470077515,58.3853607178,97.9823684692,6.53233623505
1646420151496229456,125,1646420151496229456,r1000913c5/base_front_laser_link,0,1646420151496229456,v/m1vw10zy74w/map,-12.6172606821,-0.643007933949,0.165,0.0,0.0,0.999997931845,0.00203379089291,0,59.0460891724,58.3906059265,97.909866333,6.50642061234
1646420151653418033,126,1646420151653418033,r1000913c5/base_front_laser_link,0,1646420151653418033,v/m1vw10zy74w/map,-12.8538152069,-0.635423827976,0.165,0.0,0.0,0.99999814209,0.00192764531757,0,58.3325958252,58.3901481628,97.8318023682,6.4805521965
1646420151732379368,127,1646420151732379368,r1000913c5/base_front_laser_link,0,1646420151732379368,v/m1vw10zy74w/map,-12.9636448156,-0.637849552228,0.165,0.0,0.0,0.999999029447,0.00139323520809,0,57.4523124695,58.3828201294,97.749382019,6.45551967621
1646420151889378523,128,1646420151889378523,r1000913c5/base_front_laser_link,0,1646420151889378523,v/m1vw10zy74w/map,-13.196739099,-0.640804280956,0.165,0.0,0.0,0.999999646741,-0.000840545817229,0,56.9608459473,58.371799469,97.6662139893,6.43147230148
1646420151968179551,129,1646420151968179551,r1000913c5/base_front_laser_link,0,1646420151968179551,v/m1vw10zy74w/map,-13.3293259057,-0.645371483017,0.165,0.0,0.0,0.999999028201,-0.00139412935111,0,57.2832450867,58.3634262085,97.5850448608,6.40720701218
1646420152047487555,130,1646420152047487555,r1000913c5/base_front_laser_link,0,1646420152047487555,v/m1vw10zy74w/map,-13.4568900946,-0.645764920866,0.165,0.0,0.0,0.999999247142,-0.00122707600719,0,53.3575401306,58.3252105713,97.5176620483,6.39748382568
1646420152205328272,131,1646420152205328272,r1000913c5/base_front_laser_link,0,1646420152205328272,v/m1vw10zy74w/map,-13.697009833,-0.643944147047,0.165,0.0,0.0,0.999998942402,0.00145437072612,0,56.7755088806,58.3134727478,97.4368133545,6.37444639206
1646420152283412963,132,1646420152283412963,r1000913c5/base_front_laser_link,0,1646420152283412963,v/m1vw10zy74w/map,-13.806340151,-0.643516262811,0.165,0.0,0.0,0.999993658636,0.00356127619791,0,58.9749259949,58.3184432983,97.3699874878,6.35051393509
1646420152520435786,133,1646420152520435786,r1000913c5/base_front_laser_link,0,1646420152520435786,v/m1vw10zy74w/map,-14.1019494276,-0.651722347099,0.165,0.0,0.0,0.999991597449,0.00409939413092,0,62.0433807373,58.346244812,97.3505630493,6.33477306366
1646420152677495630,134,1646420152677495630,r1000913c5/base_front_laser_link,0,1646420152677495630,v/m1vw10zy74w/map,-14.2469532466,-0.650835567911,0.165,0.0,0.0,0.999989501974,0.00458213293943,0,60.8313140869,58.3646507263,97.3087921143,6.3147149086
1646420152757538174,135,1646420152757538174,r1000913c5/base_front_laser_link,0,1646420152757538174,v/m1vw10zy74w/map,-14.3076118131,-0.650386160388,0.165,0.0,0.0,0.999985015662,0.00547434490655,0,60.1195755005,58.3775558472,97.2568054199,6.29308271408
1646420152993667430,136,1646420152993667430,r1000913c5/base_front_laser_link,0,1646420152993667430,v/m1vw10zy74w/map,-14.4605500799,-0.640376451119,0.165,0.0,0.0,0.999954900214,0.00949723848056,0,54.924118042,58.3523483276,97.1828765869,6.27684211731
1646420153309041265,137,1646420153309041265,r1000913c5/base_front_laser_link,0,1646420153309041265,v/m1vw10zy74w/map,-14.553409101,-0.655081379097,0.165,0.0,0.0,0.999976403322,-0.00686970150169,0,59.0645751953,58.357509613,97.1200637817,6.25418567657
1646420153623450683,138,1646420153623450683,r1000913c5/base_front_laser_link,0,1646420153623450683,v/m1vw10zy74w/map,-14.6401989282,-0.67722744901,0.165,0.0,0.0,0.999553348647,-0.0298848324055,0,60.1999816895,58.3707618713,97.0710983276,6.23344373703
1646420153939491938,139,1646420153939491938,r1000913c5/base_front_laser_link,0,1646420153939491938,v/m1vw10zy74w/map,-14.7225251601,-0.707643604308,0.165,0.0,0.0,0.997766800949,-0.0667937940507,0,64.278465271,58.4129600525,97.106010437,6.23101711273
1646420154175453636,140,1646420154175453636,r1000913c5/base_front_laser_link,0,1646420154175453636,v/m1vw10zy74w/map,-14.7736224567,-0.736022773649,0.165,0.0,0.0,0.994607321421,-0.103712468757,0,63.6063346863,58.4497947693,97.1221237183,6.22410917282
1646420154413180977,141,1646420154413180977,r1000913c5/base_front_laser_link,0,1646420154413180977,v/m1vw10zy74w/map,-14.8167456331,-0.781301512913,0.165,0.0,0.0,0.988384574466,-0.151973461359,0,65.0499267578,58.4962730408,97.1763153076,6.22668123245
1646420154728342462,142,1646420154728342462,r1000913c5/base_front_laser_link,0,1646420154728342462,v/m1vw10zy74w/map,-14.8097038619,-0.820470839248,0.165,0.0,0.0,0.977347488764,-0.21164093698,0,71.3843231201,58.5863990784,97.4792709351,6.29762411118
1646420154807397979,143,1646420154807397979,r1000913c5/base_front_laser_link,0,1646420154807397979,v/m1vw10zy74w/map,-14.8046989503,-0.827323503264,0.165,0.0,0.0,0.974322180596,-0.225158362933,0,68.3001556396,58.6538581848,97.6365280151,6.32755756378
1646420155044345204,144,1646420155044345204,r1000913c5/base_front_laser_link,0,1646420155044345204,v/m1vw10zy74w/map,-14.7867030878,-0.858353627379,0.165,0.0,0.0,0.960266135926,-0.279085915434,0,66.2508239746,58.7062492371,97.7173461914,6.33703184128
1646420155280531609,145,1646420155280531609,r1000913c5/base_front_laser_link,0,1646420155280531609,v/m1vw10zy74w/map,-14.7680897508,-0.890266984008,0.165,0.0,0.0,0.943706821715,-0.330783062821,0,70.6357803345,58.7879600525,97.9635162354,6.39185190201
1646420155437672924,146,1646420155437672924,r1000913c5/base_front_laser_link,0,1646420155437672924,v/m1vw10zy74w/map,-14.7667810704,-0.898153017286,0.165,0.0,0.0,0.931819045403,-0.362923224145,0,63.330165863,58.8188591003,97.9616546631,6.38093185425
1646420155517478786,147,1646420155517478786,r1000913c5/base_front_laser_link,0,1646420155517478786,v/m1vw10zy74w/map,-14.7590616521,-0.906400753872,0.165,0.0,0.0,0.925042460783,-0.379863719969,0,63.1740646362,58.848285675,97.9560623169,6.36925983429
1646420155753460350,148,1646420155753460350,r1000913c5/base_front_laser_link,0,1646420155753460350,v/m1vw10zy74w/map,-14.7228241005,-0.940502296716,0.165,0.0,0.0,0.904768066088,-0.425904621468,0,63.0938453674,58.8767776489,97.9484634399,6.3572268486
1646420155910671457,149,1646420155910671457,r1000913c5/base_front_laser_link,0,1646420155910671457,v/m1vw10zy74w/map,-14.6979034515,-0.95419526014,0.165,0.0,0.0,0.889870708017,-0.456212804526,0,61.1361160278,58.8918418884,97.9074707031,6.33854293823
1646420156146523228,150,1646420156146523228,r1000913c5/base_front_laser_link,0,1646420156146523228,v/m1vw10zy74w/map,-14.666964205,-0.967871925516,0.165,0.0,0.0,0.865955889179,-0.500120383505,0,52.4960212708,58.84948349,97.8658370972,6.33878421783
1646420156382651877,151,1646420156382651877,r1000913c5/base_front_laser_link,0,1646420156382651877,v/m1vw10zy74w/map,-14.6358939691,-0.981823164038,0.165,0.0,0.0,0.838769577434,-0.544486543426,0,56.770324707,58.8358039856,97.7958374023,6.32001018524
1646420156540482098,152,1646420156540482098,r1000913c5/base_front_laser_link,0,1646420156540482098,v/m1vw10zy74w/map,-14.6142529108,-0.989744482528,0.165,0.0,0.0,0.819844600886,-0.572586089944,0,59.5291824341,58.8403358459,97.7386474609,6.29943609238
1646420156698663880,153,1646420156698663880,r1000913c5/base_front_laser_link,0,1646420156698663880,v/m1vw10zy74w/map,-14.5909136552,-0.997415192121,0.165,0.0,0.0,0.802927685806,-0.596076447585,0,57.8959503174,58.8342056274,97.6720352173,6.27927684784
1646420156935619134,154,1646420156935619134,r1000913c5/base_front_laser_link,0,1646420156935619134,v/m1vw10zy74w/map,-14.5591773326,-1.00542872779,0.165,0.0,0.0,-0.779019420446,0.626999794711,0,62.1365966797,58.8555107117,97.6489334106,6.26447486877
1646420157092481433,155,1646420157092481433,r1000913c5/base_front_laser_link,0,1646420157092481433,v/m1vw10zy74w/map,-14.5425741962,-1.00864211928,0.165,0.0,0.0,-0.762937069246,0.646472759187,0,63.0835647583,58.8826141357,97.6428222656,6.2534031868
1646420159693727949,156,1646420159693727949,r1000913c5/base_front_laser_link,0,1646420159693727949,v/m1vw10zy74w/map,-14.5163579099,-0.993815909359,0.165,0.0,0.0,-0.719333137861,0.694665269591,0,63.7610626221,58.9136886597,97.6501159668,6.24547576904
1646420159930548769,157,1646420159930548769,r1000913c5/base_front_laser_link,0,1646420159930548769,v/m1vw10zy74w/map,-14.5163161612,-0.995571232453,0.165,0.0,0.0,-0.719231607666,0.694770389794,0,62.8580970764,58.9386520386,97.6390228271,6.23345756531
1646420160244763865,158,1646420160244763865,r1000913c5/base_front_laser_link,0,1646420160244763865,v/m1vw10zy74w/map,-14.5156209118,-1.02720837071,0.165,0.0,0.0,-0.717437112277,0.696623276906,0,59.1029548645,58.9396858215,97.5808258057,6.21371364594
1646420160323682713,159,1646420160323682713,r1000913c5/base_front_laser_link,0,1646420160323682713,v/m1vw10zy74w/map,-14.514392509,-1.04641312343,0.165,0.0,0.0,-0.715612927837,0.698497056194,0,60.45728302,58.9491691589,97.5350875854,6.19530487061
1646420160481673091,160,1646420160481673091,r1000913c5/base_front_laser_link,0,1646420160481673091,v/m1vw10zy74w/map,-14.5136100793,-1.09221093107,0.165,0.0,0.0,-0.713765200292,0.700385064698,0,61.6183547974,58.9657478333,97.504234314,6.17949581146
1646420160638754097,161,1646420160638754097,r1000913c5/base_front_laser_link,0,1646420160638754097,v/m1vw10zy74w/map,-14.5135780733,-1.13918270877,0.165,0.0,0.0,-0.712857154798,0.701309259067,0,61.2647094727,58.9799385071,97.4687042236,6.16292238235
1646420160875578883,162,1646420160875578883,r1000913c5/base_front_laser_link,0,1646420160875578883,v/m1vw10zy74w/map,-14.5157920639,-1.20776109405,0.165,0.0,0.0,-0.714008747173,0.700136778752,0,62.8457527161,59.0036582947,97.4576416016,6.15132808685
1646420160953563563,163,1646420160953563563,r1000913c5/base_front_laser_link,0,1646420160953563563,v/m1vw10zy74w/map,-14.5185787362,-1.22970617187,0.165,0.0,0.0,-0.716407393182,0.697682196272,0,63.3278770447,59.0300254822,97.4551849365,6.14171934128
1646420161111758090,164,1646420161111758090,r1000913c5/base_front_laser_link,0,1646420161111758090,v/m1vw10zy74w/map,-14.5160402047,-1.28242449951,0.165,0.0,0.0,-0.717965679618,0.696078503396,0,61.0890769958,59.0425033569,97.4176940918,6.12506389618
1646420161190808702,165,1646420161190808702,r1000913c5/base_front_laser_link,0,1646420161190808702,v/m1vw10zy74w/map,-14.5190960511,-1.30493224237,0.165,0.0,0.0,-0.720349255312,0.693611526989,0,61.6556282043,59.0582427979,97.3877716064,6.10984230042
1646420161348069844,166,1646420161348069844,r1000913c5/base_front_laser_link,0,1646420161348069844,v/m1vw10zy74w/map,-14.5250401248,-1.34960716308,0.165,0.0,0.0,-0.724487389767,0.689288054494,0,61.555141449,59.0731964111,97.3566207886,6.09447479248
1646420161505729322,167,1646420161505729322,r1000913c5/base_front_laser_link,0,1646420161505729322,v/m1vw10zy74w/map,-14.5254280996,-1.40237942272,0.165,0.0,0.0,-0.724671057248,0.689094956292,0,60.3141860962,59.080581665,97.3114471436,6.07695484161
1646420161741894881,168,1646420161741894881,r1000913c5/base_front_laser_link,0,1646420161741894881,v/m1vw10zy74w/map,-14.5342193351,-1.46943130653,0.165,0.0,0.0,-0.729786877895,0.683674712749,0,62.9882469177,59.1037063599,97.3025817871,6.06629323959
1646420161820761232,169,1646420161820761232,r1000913c5/base_front_laser_link,0,1646420161820761232,v/m1vw10zy74w/map,-14.5333708647,-1.50333967739,0.165,0.0,0.0,-0.727873040836,0.685711919412,0,61.0696792603,59.1152687073,97.2658615112,6.05019855499
1646420161978849594,170,1646420161978849594,r1000913c5/base_front_laser_link,0,1646420161978849594,v/m1vw10zy74w/map,-14.5355983518,-1.54950610657,0.165,0.0,0.0,-0.727783799611,0.685806635301,0,60.5825958252,59.1238517761,97.2241134644,6.03342103958
1646420162136936455,171,1646420162136936455,r1000913c5/base_front_laser_link,0,1646420162136936455,v/m1vw10zy74w/map,-14.5373838389,-1.59444799818,0.165,0.0,0.0,-0.726925955631,0.686715847371,0,63.1709442139,59.1473808289,97.2183685303,6.02366304398
1646420162215960541,172,1646420162215960541,r1000913c5/base_front_laser_link,0,1646420162215960541,v/m1vw10zy74w/map,-14.5364067971,-1.61355980816,0.165,0.0,0.0,-0.726397605814,0.687274703643,0,60.7443847656,59.1566123962,97.1786727905,6.00735425949
1646420162373145852,173,1646420162373145852,r1000913c5/base_front_laser_link,0,1646420162373145852,v/m1vw10zy74w/map,-14.5389529241,-1.67068649728,0.165,0.0,0.0,-0.720631261617,0.693318530533,0,58.6077957153,59.1534576416,97.1237869263,5.99011087418
1646420162531588098,174,1646420162531588098,r1000913c5/base_front_laser_link,0,1646420162531588098,v/m1vw10zy74w/map,-14.5387785023,-1.71614182132,0.165,0.0,0.0,-0.7187444074,0.695274389599,0,62.775100708,59.1741523743,97.1115875244,5.97914409637
1646420166711066784,175,1646420166711066784,r1000913c5/base_front_laser_link,0,1646420166711066784,v/m1vw10zy74w/map,-14.5599001609,-2.2722722532,0.165,0.0,0.0,-0.714630981792,0.69950165108,0,57.386756897,59.1639976501,97.0546722412,5.96355867386
1646420166868913658,176,1646420166868913658,r1000913c5/base_front_laser_link,0,1646420166868913658,v/m1vw10zy74w/map,-14.5610579901,-2.30445415208,0.165,0.0,0.0,-0.715096807147,0.699025433305,0,58.9442558289,59.1627540588,97.0026016235,5.94661569595
1646420166947176035,177,1646420166947176035,r1000913c5/base_front_laser_link,0,1646420166947176035,v/m1vw10zy74w/map,-14.5611820934,-2.32004552259,0.165,0.0,0.0,-0.714859446592,0.699268168601,0,61.1495666504,59.173915863,96.9689025879,5.93166303635
1646420168288168042,178,1646420168288168042,r1000913c5/base_front_laser_link,0,1646420168288168042,v/m1vw10zy74w/map,-14.5454777651,-2.59333715197,0.165,0.0,0.0,-0.71075113153,0.703443550705,0,53.7951622009,59.1438674927,96.9297409058,5.92862415314
1646420168367092381,179,1646420168367092381,r1000913c5/base_front_laser_link,0,1646420168367092381,v/m1vw10zy74w/map,-14.5458031669,-2.60946580281,0.165,0.0,0.0,-0.710917830949,0.703275079637,0,55.9311256409,59.1260185242,96.8766860962,5.916888237
1646420171757431399,180,1646420171757431399,r1000913c5/base_front_laser_link,0,1646420171757431399,v/m1vw10zy74w/map,-14.554038159,-2.76275436974,0.165,0.0,0.0,-0.71315559997,0.701005770469,0,49.6306037903,59.0735588074,96.9010314941,5.94249153137
1646420171914454591,181,1646420171914454591,r1000913c5/base_front_laser_link,0,1646420171914454591,v/m1vw10zy74w/map,-14.5540391157,-2.76271603977,0.165,0.0,0.0,-0.713157290546,0.701004050588,0,50.1594848633,59.0245819092,96.9129104614,5.96277666092
1646420172072334928,182,1646420172072334928,r1000913c5/base_front_laser_link,0,1646420172072334928,v/m1vw10zy74w/map,-14.5541367744,-2.76013015083,0.165,0.0,0.0,-0.713306243762,0.700852482774,0,49.1296882629,58.9705085754,96.9440841675,5.99119091034
1646420172230318421,183,1646420172230318421,r1000913c5/base_front_laser_link,0,1646420172230318421,v/m1vw10zy74w/map,-14.5543682559,-2.74782674609,0.165,0.0,0.0,-0.713784013772,0.70036589129,0,49.3819618225,58.9183998108,96.9678039551,6.01646900177
1646420172545301466,184,1646420172545301466,r1000913c5/base_front_laser_link,0,1646420172545301466,v/m1vw10zy74w/map,-14.553423134,-2.69300784496,0.165,0.0,0.0,-0.713948812802,0.700197895383,0,53.7535591125,58.8904800415,96.9267883301,6.01210165024
1646420172781359801,185,1646420172781359801,r1000913c5/base_front_laser_link,0,1646420172781359801,v/m1vw10zy74w/map,-14.5518866631,-2.62753394662,0.165,0.0,0.0,-0.713655486319,0.700496857128,0,59.2795715332,58.8925704956,96.8802642822,5.9958987236
1646420172860132537,186,1646420172860132537,r1000913c5/base_front_laser_link,0,1646420172860132537,v/m1vw10zy74w/map,-14.550770225,-2.60348830727,0.165,0.0,0.0,-0.712936201882,0.70122890132,0,56.5161857605,58.879863739,96.826713562,5.98228311539
1646420172939325247,187,1646420172939325247,r1000913c5/base_front_laser_link,0,1646420172939325247,v/m1vw10zy74w/map,-14.5497366676,-2.57919201751,0.165,0.0,0.0,-0.712257544076,0.701918222378,0,57.6869392395,58.8735198975,96.7742233276,5.9669008255
1646420173018392199,188,1646420173018392199,r1000913c5/base_front_laser_link,0,1646420173018392199,v/m1vw10zy74w/map,-14.5495820157,-2.55467923454,0.165,0.0,0.0,-0.712480502292,0.701691908072,0,55.9187889099,58.8578834534,96.7225570679,5.95489025116
1646420173098407158,189,1646420173098407158,r1000913c5/base_front_laser_link,0,1646420173098407158,v/m1vw10zy74w/map,-14.5495670876,-2.52999631175,0.165,0.0,0.0,-0.712870719833,0.701295470401,0,51.3224868774,58.8182258606,96.7108917236,5.96422243118
1646420173177437924,190,1646420173177437924,r1000913c5/base_front_laser_link,0,1646420173177437924,v/m1vw10zy74w/map,-14.5494732929,-2.50694669476,0.165,0.0,0.0,-0.713177049417,0.700983948593,0,48.5721740723,58.7645797729,96.7481689453,5.99452829361
1646420173334249060,191,1646420173334249060,r1000913c5/base_front_laser_link,0,1646420173334249060,v/m1vw10zy74w/map,-14.5489370393,-2.46248228006,0.165,0.0,0.0,-0.713443046685,0.700713221751,0,45.5241661072,58.6956214905,96.8596954346,6.05469179153
1646420173412360867,192,1646420173412360867,r1000913c5/base_front_laser_link,0,1646420173412360867,v/m1vw10zy74w/map,-14.5445194007,-2.43901721729,0.165,0.0,0.0,-0.713084048989,0.701078554142,0,45.6902923584,58.6282348633,96.9613342285,6.11103343964
1646420173492234701,193,1646420173492234701,r1000913c5/base_front_laser_link,0,1646420173492234701,v/m1vw10zy74w/map,-14.5434770805,-2.43220620559,0.165,0.0,0.0,-0.712744190662,0.701424064798,0,45.0206985474,58.5580940247,97.0770339966,6.17298078537
1646420173571192576,194,1646420173571192576,r1000913c5/base_front_laser_link,0,1646420173571192576,v/m1vw10zy74w/map,-14.5431117731,-2.41020385608,0.165,0.0,0.0,-0.712730034028,0.701438449612,0,47.3295822144,58.5005111694,97.1285171509,6.20933437347
1646420173650359972,195,1646420173650359972,r1000913c5/base_front_laser_link,0,1646420173650359972,v/m1vw10zy74w/map,-14.54276464,-2.38804196767,0.165,0.0,0.0,-0.712737179967,0.701431188566,0,47.0516471863,58.4421005249,97.1835479736,6.24714851379
1646420173729276347,196,1646420173729276347,r1000913c5/base_front_laser_link,0,1646420173729276347,v/m1vw10zy74w/map,-14.5425285019,-2.36573054187,0.165,0.0,0.0,-0.712865819778,0.701300451299,0,47.926738739,58.3887214661,97.2169265747,6.2760682106
1646420173807412484,197,1646420173807412484,r1000913c5/base_front_laser_link,0,1646420173807412484,v/m1vw10zy74w/map,-14.5470131537,-2.33965452472,0.165,0.0,0.0,-0.712758388788,0.70140963724,0,47.3287582397,58.332862854,97.2606735229,6.30926942825
1646420173885397472,198,1646420173885397472,r1000913c5/base_front_laser_link,0,1646420173885397472,v/m1vw10zy74w/map,-14.5462388571,-2.33310098304,0.165,0.0,0.0,-0.711469751678,0.70271672276,0,52.0822753906,58.3014526367,97.2281417847,6.30889558792
1646420173965191641,199,1646420173965191641,r1000913c5/base_front_laser_link,0,1646420173965191641,v/m1vw10zy74w/map,-14.5461045602,-2.31044013797,0.165,0.0,0.0,-0.711627239652,0.702557237373,0,50.8590431213,58.2642402649,97.2092132568,6.31499052048
1646420174044210846,200,1646420174044210846,r1000913c5/base_front_laser_link,0,1646420174044210846,v/m1vw10zy74w/map,-14.5459127291,-2.2879151981,0.165,0.0,0.0,-0.71173233272,0.702450771628,0,54.5224189758,58.2456245422,97.1597518921,6.30470991135
1646420174122455969,201,1646420174122455969,r1000913c5/base_front_laser_link,0,1646420174122455969,v/m1vw10zy74w/map,-14.5456510624,-2.26555158979,0.165,0.0,0.0,-0.711766197829,0.702416457401,0,53.9798965454,58.2245063782,97.1129989624,6.29616451263
1646420174201470454,202,1646420174201470454,r1000913c5/base_front_laser_link,0,1646420174201470454,v/m1vw10zy74w/map,-14.5454117699,-2.24297011256,0.165,0.0,0.0,-0.71182976837,0.702352034853,0,57.1129646301,58.2190322876,97.0621643066,6.28104496002
1646420174280272176,203,1646420174280272176,r1000913c5/base_front_laser_link,0,1646420174280272176,v/m1vw10zy74w/map,-14.5480682405,-2.21249437821,0.165,0.0,0.0,-0.713401736232,0.700755280209,0,57.3430404663,58.2147369385,97.0123062134,6.26585578918
1646420174358759932,204,1646420174358759932,r1000913c5/base_front_laser_link,0,1646420174358759932,v/m1vw10zy74w/map,-14.5477318374,-2.19081130192,0.165,0.0,0.0,-0.71371223442,0.700439038346,0,57.4274482727,58.2108955383,96.9630584717,6.25072097778
1646420174517128890,205,1646420174517128890,r1000913c5/base_front_laser_link,0,1646420174517128890,v/m1vw10zy74w/map,-14.5468900473,-2.14553119773,0.165,0.0,0.0,-0.713721097104,0.700430007602,0,58.3962364197,58.2117958069,96.9182052612,6.23547029495
1646420174674472738,206,1646420174674472738,r1000913c5/base_front_laser_link,0,1646420174674472738,v/m1vw10zy74w/map,-14.5465632796,-2.09202235771,0.165,0.0,0.0,-0.712069682052,0.702108800616,0,57.2049751282,58.2069320679,96.8690643311,6.22071075439
1646420174754255124,207,1646420174754255124,r1000913c5/base_front_laser_link,0,1646420174754255124,v/m1vw10zy74w/map,-14.546377453,-2.06898253571,0.165,0.0,0.0,-0.712096883654,0.702081212034,0,57.1474227905,58.201839447,96.8201446533,6.20610141754
1646420174832263245,208,1646420174832263245,r1000913c5/base_front_laser_link,0,1646420174832263245,v/m1vw10zy74w/map,-14.5461709297,-2.04700622149,0.165,0.0,0.0,-0.712209535748,0.701966934542,0,62.6160545349,58.2229614258,96.8190307617,6.19868993759
1646420174911405655,209,1646420174911405655,r1000913c5/base_front_laser_link,0,1646420174911405655,v/m1vw10zy74w/map,-14.5458851977,-2.0245747368,0.165,0.0,0.0,-0.712252228478,0.701923616235,0,60.7235832214,58.2348670959,96.7936172485,6.18624973297
1646420174989523378,210,1646420174989523378,r1000913c5/base_front_laser_link,0,1646420174989523378,v/m1vw10zy74w/map,-14.5456033122,-2.00209682161,0.165,0.0,0.0,-0.712302589422,0.701872510577,0,58.3514709473,58.2354202271,96.7499465942,6.17150831223
1646420175068458910,211,1646420175068458910,r1000913c5/base_front_laser_link,0,1646420175068458910,v/m1vw10zy74w/map,-14.5424318393,-1.98948703158,0.165,0.0,0.0,-0.712628282026,0.701541824595,0,59.1650543213,58.2398071289,96.7113952637,6.15719747543
1646420175147443381,212,1646420175147443381,r1000913c5/base_front_laser_link,0,1646420175147443381,v/m1vw10zy74w/map,-14.5421564621,-1.96912569297,0.165,0.0,0.0,-0.712634985215,0.701535015411,0,57.9964332581,58.2386627197,96.6667098999,6.14268159866
1646420175304516537,213,1646420175304516537,r1000913c5/base_front_laser_link,0,1646420175304516537,v/m1vw10zy74w/map,-14.5414514876,-1.92444614255,0.165,0.0,0.0,-0.712630072842,0.701540005474,0,57.3972892761,58.2347297668,96.6202774048,6.12851476669
1646420175383314175,214,1646420175383314175,r1000913c5/base_front_laser_link,0,1646420175383314175,v/m1vw10zy74w/map,-14.5410839124,-1.90193714392,0.165,0.0,0.0,-0.712614328975,0.701555997865,0,61.8880462646,58.2517242432,96.6094818115,6.11925363541
1646420175462469392,215,1646420175462469392,r1000913c5/base_front_laser_link,0,1646420175462469392,v/m1vw10zy74w/map,-14.540050116,-1.88406107022,0.165,0.0,0.0,-0.71091730971,0.70327560654,0,61.7605934143,58.2679672241,96.5969848633,6.10967254639
1646420175541516875,216,1646420175541516875,r1000913c5/base_front_laser_link,0,1646420175541516875,v/m1vw10zy74w/map,-14.5398568686,-1.86362834919,0.165,0.0,0.0,-0.710838707929,0.703355053518,0,58.5314331055,58.2691841125,96.5558013916,6.09554004669
1646420175777556994,217,1646420175777556994,r1000913c5/base_front_laser_link,0,1646420175777556994,v/m1vw10zy74w/map,-14.5391238258,-1.79598469939,0.165,0.0,0.0,-0.710823351288,0.703370573215,0,62.1559104919,58.2870101929,96.5485305786,6.08717346191
1646420175935638280,218,1646420175935638280,r1000913c5/base_front_laser_link,0,1646420175935638280,v/m1vw10zy74w/map,-14.5391072535,-1.7541724988,0.165,0.0,0.0,-0.712617545813,0.701552730306,0,57.9162063599,58.2853164673,96.5050582886,6.07324743271
1646420176014598778,219,1646420176014598778,r1000913c5/base_front_laser_link,0,1646420176014598778,v/m1vw10zy74w/map,-14.5387528141,-1.73180781856,0.165,0.0,0.0,-0.712612570957,0.701557783588,0,61.1317138672,58.2982559204,96.4854660034,6.06240367889
1646420176094268870,220,1646420176094268870,r1000913c5/base_front_laser_link,0,1646420176094268870,v/m1vw10zy74w/map,-14.538419812,-1.70899645272,0.165,0.0,0.0,-0.712638308423,0.701531639606,0,58.4670181274,58.2990188599,96.4448852539,6.04862070084
1646420176172609787,221,1646420176172609787,r1000913c5/base_front_laser_link,0,1646420176172609787,v/m1vw10zy74w/map,-14.5380539569,-1.68668646682,0.165,0.0,0.0,-0.712621513422,0.701548700097,0,59.4776954651,58.3043289185,96.4106445312,6.03543901443
1646420176250569165,222,1646420176250569165,r1000913c5/base_front_laser_link,0,1646420176250569165,v/m1vw10zy74w/map,-14.5349898163,-1.66905196271,0.165,0.0,0.0,-0.712300330832,0.701874802723,0,60.1441955566,58.3125801086,96.3818511963,6.02309036255
1646420176408430940,223,1646420176408430940,r1000913c5/base_front_laser_link,0,1646420176408430940,v/m1vw10zy74w/map,-14.534229682,-1.62435150779,0.165,0.0,0.0,-0.712250265699,0.70192560789,0,55.48229599,58.2999458313,96.3375778198,6.0125451088
1646420176566604376,224,1646420176566604376,r1000913c5/base_front_laser_link,0,1646420176566604376,v/m1vw10zy74w/map,-14.5335653085,-1.57945923466,0.165,0.0,0.0,-0.712240275345,0.701935745048,0,58.100189209,58.2990570068,96.2964324951,5.99912405014
1646420176723622258,225,1646420176723622258,r1000913c5/base_front_laser_link,0,1646420176723622258,v/m1vw10zy74w/map,-14.5359183359,-1.53438316059,0.165,0.0,0.0,-0.711758458643,0.702424299516,0,55.9718055725,58.2887573242,96.2520980835,5.98777961731
1646420176881636175,226,1646420176881636175,r1000913c5/base_front_laser_link,0,1646420176881636175,v/m1vw10zy74w/map,-14.5353186561,-1.4890855737,0.165,0.0,0.0,-0.711756727072,0.702426054092,0,55.0272483826,58.2743911743,96.2097015381,5.97843790054
1646420176960538656,227,1646420176960538656,r1000913c5/base_front_laser_link,0,1646420176960538656,v/m1vw10zy74w/map,-14.5350052793,-1.46671108345,0.165,0.0,0.0,-0.711736970188,0.702446072854,0,52.7675170898,58.2502365112,96.1794204712,5.97639322281
1646420177118604506,228,1646420177118604506,r1000913c5/base_front_laser_link,0,1646420177118604506,v/m1vw10zy74w/map,-14.5356376824,-1.4227031347,0.165,0.0,0.0,-0.710199160621,0.704000818361,0,57.0052337646,58.2448005676,96.1363220215,5.96384000778
1646420177275867513,229,1646420177275867513,r1000913c5/base_front_laser_link,0,1646420177275867513,v/m1vw10zy74w/map,-14.5352058681,-1.37827322275,0.165,0.0,0.0,-0.710150971393,0.704049428542,0,59.0380592346,58.248249054,96.1013565063,5.95103406906
1646420177433559137,230,1646420177433559137,r1000913c5/base_front_laser_link,0,1646420177433559137,v/m1vw10zy74w/map,-14.5347153686,-1.33107330882,0.165,0.0,0.0,-0.710325585922,0.703873257046,0,59.4573860168,58.2534866333,96.0693359375,5.93861579895
1646420177670166322,231,1646420177670166322,r1000913c5/base_front_laser_link,0,1646420177670166322,v/m1vw10zy74w/map,-14.5341280825,-1.26330516634,0.165,0.0,0.0,-0.710386207818,0.703812074166,0,55.9945297241,58.2437477112,96.0265579224,5.92760372162
1646420177749559526,232,1646420177749559526,r1000913c5/base_front_laser_link,0,1646420177749559526,v/m1vw10zy74w/map,-14.5339081459,-1.24069645192,0.165,0.0,0.0,-0.710375615712,0.703822765049,0,57.7522315979,58.2416381836,95.9863433838,5.91490221024
1646420177827414321,233,1646420177827414321,r1000913c5/base_front_laser_link,0,1646420177827414321,v/m1vw10zy74w/map,-14.534065424,-1.21193823882,0.165,0.0,0.0,-0.709132480475,0.705075262037,0,58.6091079712,58.2432098389,95.9499435425,5.90224456787
1646420177986471228,234,1646420177986471228,r1000913c5/base_front_laser_link,0,1646420177986471228,v/m1vw10zy74w/map,-14.5338880106,-1.16612849321,0.165,0.0,0.0,-0.709118649694,0.705089172131,0,56.9575691223,58.237739563,95.9083862305,5.89021682739
1646420178143524742,235,1646420178143524742,r1000913c5/base_front_laser_link,0,1646420178143524742,v/m1vw10zy74w/map,-14.533718638,-1.12192673172,0.165,0.0,0.0,-0.709213114619,0.704994154623,0,58.9483413696,58.2407493591,95.8743057251,5.87785291672
1646420178221710486,236,1646420178221710486,r1000913c5/base_front_laser_link,0,1646420178221710486,v/m1vw10zy74w/map,-14.5338795807,-1.09994738714,0.165,0.0,0.0,-0.709781948216,0.704421454803,0,60.1978378296,58.2490081787,95.8492965698,5.8667640686
1646420178459565824,237,1646420178459565824,r1000913c5/base_front_laser_link,0,1646420178459565824,v/m1vw10zy74w/map,-14.5336092617,-1.03208911347,0.165,0.0,0.0,-0.710115397506,0.704085308911,0,58.9259681702,58.2518501282,95.8154678345,5.8545384407
