%time,field.header.seq,field.header.stamp,field.header.frame_id,field.pose.header.seq,field.pose.header.stamp,field.pose.header.frame_id,field.pose.pose.position.x,field.pose.pose.position.y,field.pose.pose.position.z,field.pose.pose.orientation.x,field.pose.pose.orientation.y,field.pose.pose.orientation.z,field.pose.pose.orientation.w,field.label,field.current_error,field.mean,field.threshold,field.std_dev
1.64632435952903E+018,0,1.64632435952903E+018,r1000913c5/base_front_laser_link,0,1.64632435952903E+018,v/m1vw10zy74w/map,-2.82160424187,-2.26349450455,0.165,0,0,-0.701404983779,0.712762968125,0,61.6751823425,61.6751823425,86.2132797241,1.22416198254
1.64632435976597E+018,1,1.64632435976597E+018,r1000913c5/base_front_laser_link,0,1.64632435976597E+018,v/m1vw10zy74w/map,-2.81737036487,-2.26207869135,0.165,0,0,-0.696855918642,0.717211146493,0,63.4064102173,62.5407981873,86.2132797241,1.22416198254
1.6463243599231E+018,2,1.6463243599231E+018,r1000913c5/base_front_laser_link,0,1.6463243599231E+018,v/m1vw10zy74w/map,-2.80454712943,-2.26150893,0.165,0,0,-0.682972988706,0.730443630062,0,63.3411026001,62.8075637817,85.7512130737,0.981214880943
1.64632436000298E+018,3,1.64632436000298E+018,r1000913c5/base_front_laser_link,0,1.64632436000298E+018,v/m1vw10zy74w/map,-2.79518606897,-2.26080362244,0.165,0,0,-0.672660784744,0.73995099072,0,63.8576087952,63.0700759888,85.9436645508,0.957863509655
1.6463243600814E+018,4,1.6463243600814E+018,r1000913c5/base_front_laser_link,0,1.6463243600814E+018,v/m1vw10zy74w/map,-2.78488029341,-2.25941354582,0.165,0,0,-0.661099437584,0.75029829643,0,67.2029418945,63.896648407,89.9743347168,2.02589440346
1.64632436031776E+018,5,1.64632436031776E+018,r1000913c5/base_front_laser_link,0,1.64632436031776E+018,v/m1vw10zy74w/map,-2.74975251747,-2.25254745472,0.165,0,0,-0.620070307194,0.78454624729,0,62.5189170837,63.6670265198,89.3589324951,1.89730250835
1.64632436039576E+018,6,1.64632436039576E+018,r1000913c5/base_front_laser_link,0,1.64632436039576E+018,v/m1vw10zy74w/map,-2.73780747583,-2.24962547742,0.165,0,0,-0.605546978584,0.795809560591,0,59.6634025574,63.0950813293,89.9948577881,2.29992508888
1.64632436055293E+018,7,1.64632436055293E+018,r1000913c5/base_front_laser_link,0,1.64632436055293E+018,v/m1vw10zy74w/map,-2.71700506211,-2.2381774619,0.165,0,0,-0.57691789341,0.816802145114,0,59.5073699951,62.6466178894,90.0821075439,2.47849726677
1.64632436071085E+018,8,1.64632436071085E+018,r1000913c5/base_front_laser_link,0,1.64632436071085E+018,v/m1vw10zy74w/map,-2.69808779059,-2.22600999181,0.165,0,0,-0.549381742873,0.835571481441,0,57.7477493286,62.1022987366,90.60962677,2.83577609062
1.64632436086829E+018,9,1.64632436086829E+018,r1000913c5/base_front_laser_link,0,1.64632436086829E+018,v/m1vw10zy74w/map,-2.67734856868,-2.22446388435,0.165,0,0,-0.519565343837,0.854430718949,0,55.2819137573,61.4202613831,91.7255477905,3.43509507179
1.64632436102498E+018,10,1.64632436102498E+018,r1000913c5/base_front_laser_link,0,1.64632436102498E+018,v/m1vw10zy74w/map,-2.65691368744,-2.21372922873,0.165,0,0,-0.489243503801,0.87214723183,0,55.845035553,60.9134216309,91.9139022827,3.66682815552
1.64632436118306E+018,11,1.64632436118306E+018,r1000913c5/base_front_laser_link,0,1.64632436118306E+018,v/m1vw10zy74w/map,-2.63887249678,-2.20010791374,0.165,0,0,-0.458103362028,0.888898931093,0,53.8732795715,60.3267440796,92.4586181641,4.0439581871
1.64632436141909E+018,12,1.64632436141909E+018,r1000913c5/base_front_laser_link,0,1.64632436141909E+018,v/m1vw10zy74w/map,-2.6094044166,-2.18237774393,0.165,0,0,-0.409629844175,0.912251824203,0,55.9139251709,59.9872932434,92.1691894531,4.0606303215
1.64632436157704E+018,13,1.64632436157704E+018,r1000913c5/base_front_laser_link,0,1.64632436157704E+018,v/m1vw10zy74w/map,-2.59124844501,-2.165567517,0.165,0,0,-0.376345590127,0.926479355837,0,55.5886955261,59.6731109619,91.8968963623,4.07459592819
1.64632436173503E+018,14,1.64632436173503E+018,r1000913c5/base_front_laser_link,0,1.64632436173503E+018,v/m1vw10zy74w/map,-2.57330551999,-2.14597312076,0.165,0,0,-0.342425204569,0.939545091667,0,51.4171257019,59.1227111816,92.5258789062,4.46772146225
1.64632436189207E+018,15,1.64632436189207E+018,r1000913c5/base_front_laser_link,0,1.64632436189207E+018,v/m1vw10zy74w/map,-2.55853891128,-2.1272665258,0.165,0,0,-0.308764735234,0.951138443275,0,49.6653022766,58.5316238403,93.2957687378,4.9213809967
1.64632436205006E+018,16,1.64632436205006E+018,r1000913c5/base_front_laser_link,0,1.64632436205006E+018,v/m1vw10zy74w/map,-2.56773417005,-2.09294344282,0.165,0,0,-0.275136888564,0.961405061642,0,51.4530792236,58.1152381897,93.3100662231,5.06494235992
1.64632436236598E+018,17,1.64632436236598E+018,r1000913c5/base_front_laser_link,0,1.64632436236598E+018,v/m1vw10zy74w/map,-2.54444335875,-2.04300756516,0.165,0,0,-0.205110577549,0.97873880631,0,52.000328064,57.7755203247,93.1377334595,5.12073659897
1.64632436252484E+018,18,1.64632436252484E+018,r1000913c5/base_front_laser_link,0,1.64632436252484E+018,v/m1vw10zy74w/map,-2.51546486903,-2.03291117554,0.165,0,0,-0.168710833903,0.985665589601,0,50.8659172058,57.411857605,93.0803451538,5.22282886505
1.64632436268107E+018,19,1.64632436268107E+018,r1000913c5/base_front_laser_link,0,1.64632436268107E+018,v/m1vw10zy74w/map,-2.50838795684,-2.01027611749,0.165,0,0,-0.133698253817,0.991022087002,0,49.6586914062,57.0242004395,93.1372528076,5.37101840973
1.64632436283908E+018,20,1.64632436283908E+018,r1000913c5/base_front_laser_link,0,1.64632436283908E+018,v/m1vw10zy74w/map,-2.50443376758,-1.98837386345,0.165,0,0,-0.098387349909,0.995148194682,0,47.0041122437,56.5470504761,93.5669937134,5.67331504822
1.64632436299709E+018,21,1.64632436299709E+018,r1000913c5/base_front_laser_link,0,1.64632436299709E+018,v/m1vw10zy74w/map,-2.50055162121,-1.9633400314,0.165,0,0,-0.0628083355005,0.998025607383,0,48.8918952942,56.1990890503,93.5154876709,5.7721323967
1.6463243630761E+018,22,1.6463243630761E+018,r1000913c5/base_front_laser_link,0,1.6463243630761E+018,v/m1vw10zy74w/map,-2.49933536365,-1.9514812973,0.165,0,0,-0.0452093813381,0.9989775332,0,53.2852134705,56.0723991394,93.0885696411,5.67205762863
1.646324363154E+018,23,1.646324363154E+018,r1000913c5/base_front_laser_link,0,1.646324363154E+018,v/m1vw10zy74w/map,-2.49842446157,-1.93974290164,0.165,0,0,-0.0276474776933,0.999617735425,0,55.4180450439,56.045135498,92.6921005249,5.5489897728
1.64632436323313E+018,24,1.64632436323313E+018,r1000913c5/base_front_laser_link,0,1.64632436323313E+018,v/m1vw10zy74w/map,-2.49632972297,-1.92891857818,0.165,0,0,-0.00970351451293,0.999952919795,0,56.0606040955,56.045753479,92.3422241211,5.43215656281
1.64632436347015E+018,25,1.64632436347015E+018,r1000913c5/base_front_laser_link,0,1.64632436347015E+018,v/m1vw10zy74w/map,-2.4987187099,-1.89584427789,0.165,0,0,0.04366068683,0.999046417553,0,52.4343681335,55.9068527222,92.0148162842,5.36932134628
1.64632436362819E+018,26,1.64632436362819E+018,r1000913c5/base_front_laser_link,0,1.64632436362819E+018,v/m1vw10zy74w/map,-2.50356857024,-1.86522628161,0.165,0,0,0.0776446558782,0.996981096819,0,56.3042373657,55.9215736389,91.7183990479,5.2656083107
1.64632436370706E+018,27,1.64632436370706E+018,r1000913c5/base_front_laser_link,0,1.64632436370706E+018,v/m1vw10zy74w/map,-2.50555132312,-1.85351501981,0.165,0,0,0.0953210673186,0.995446580247,0,56.0139808655,55.9248733521,91.4264907837,5.16720628738
1.64632436386421E+018,28,1.64632436386421E+018,r1000913c5/base_front_laser_link,0,1.64632436386421E+018,v/m1vw10zy74w/map,-2.51392156113,-1.82803097421,0.165,0,0,0.129701668853,0.991553063178,0,53.2818069458,55.833732605,91.1270675659,5.09777784348
1.64632436418039E+018,29,1.64632436418039E+018,r1000913c5/base_front_laser_link,0,1.64632436418039E+018,v/m1vw10zy74w/map,-2.52774258248,-1.7825567047,0.165,0,0,0.198366602137,0.980127895306,0,49.4724845886,55.6216926575,91.0476608276,5.14199113846
1.64632436425911E+018,30,1.64632436425911E+018,r1000913c5/base_front_laser_link,0,1.64632436425911E+018,v/m1vw10zy74w/map,-2.53263104672,-1.77173851575,0.165,0,0,0.215708670148,0.976457766431,0,50.0515632629,55.4420089722,90.9028091431,5.15359926224
1.6463243644175E+018,31,1.6463243644175E+018,r1000913c5/base_front_laser_link,0,1.6463243644175E+018,v/m1vw10zy74w/map,-2.54780609908,-1.74480149255,0.165,0,0,0.249307062155,0.968424487898,0,52.7490081787,55.3578529358,90.634147644,5.09209775925
1.64632436457458E+018,32,1.64632436457458E+018,r1000913c5/base_front_laser_link,0,1.64632436457458E+018,v/m1vw10zy74w/map,-2.54673974997,-1.71806781134,0.165,0,0,0.28442722865,0.958697633043,0,51.1227226257,55.2295150757,90.4270248413,5.06583547592
1.64632436465405E+018,33,1.64632436465405E+018,r1000913c5/base_front_laser_link,0,1.64632436465405E+018,v/m1vw10zy74w/map,-2.55651894637,-1.70389650697,0.165,0,0,0.301307967686,0.953526878808,0,50.9916801453,55.1048736572,90.2283401489,5.04115486145
1.64632436560019E+018,34,1.64632436560019E+018,r1000913c5/base_front_laser_link,0,1.64632436560019E+018,v/m1vw10zy74w/map,-2.62304240124,-1.6396291788,0.165,0,0,0.421129961929,0.907000306045,0,52.4588394165,55.0292739868,89.9889678955,4.9865655899
1.64632436583718E+018,35,1.64632436583718E+018,r1000913c5/base_front_laser_link,0,1.64632436583718E+018,v/m1vw10zy74w/map,-2.62357362084,-1.61617057193,0.165,0,0,0.434516119893,0.900664055879,0,51.5829200745,54.9335403442,89.7783279419,4.94826364517
1.64632436599442E+018,36,1.64632436599442E+018,r1000913c5/base_front_laser_link,0,1.64632436599442E+018,v/m1vw10zy74w/map,-2.62089669167,-1.5979538244,0.165,0,0,0.446641286182,0.894713116858,0,51.8841056824,54.8511238098,89.5653457642,4.90474176407
1.64632436623017E+018,37,1.64632436623017E+018,r1000913c5/base_front_laser_link,0,1.64632436623017E+018,v/m1vw10zy74w/map,-2.61554034204,-1.5654218015,0.165,0,0,0.466106968162,0.884728373135,0,49.3238601685,54.7056694031,89.4668502808,4.92039394379
1.6463243664675E+018,38,1.6463243664675E+018,r1000913c5/base_front_laser_link,0,1.6463243664675E+018,v/m1vw10zy74w/map,-2.60583142585,-1.52804494995,0.165,0,0,0.482482483494,0.875905618844,0,48.7755851746,54.5536155701,89.3952331543,4.94720697403
1.64632436662522E+018,39,1.64632436662522E+018,r1000913c5/base_front_laser_link,0,1.64632436662522E+018,v/m1vw10zy74w/map,-2.59782937292,-1.49518339298,0.165,0,0,0.492397454235,0.870370465413,0,48.7673988342,54.4089584351,89.313949585,4.96832990646
1.64632436694028E+018,40,1.64632436694028E+018,r1000913c5/base_front_laser_link,0,1.64632436694028E+018,v/m1vw10zy74w/map,-2.57981023592,-1.4292467392,0.165,0,0,0.513554717264,0.858056846821,0,50.4632606506,54.3127250671,89.1458740234,4.9443821907
1.64632436717735E+018,41,1.64632436717735E+018,r1000913c5/base_front_laser_link,0,1.64632436717735E+018,v/m1vw10zy74w/map,-2.56640659732,-1.37451291599,0.165,0,0,0.530182910014,0.847883294993,0,51.5088119507,54.2459640503,88.9544830322,4.90283966064
1.64632436733538E+018,42,1.64632436733538E+018,r1000913c5/base_front_laser_link,0,1.64632436733538E+018,v/m1vw10zy74w/map,-2.55315863548,-1.32459190779,0.165,0,0,0.542353410155,0.840150449916,0,50.3918075562,54.1563339233,88.7952728271,4.87964773178
1.64632436757304E+018,43,1.64632436757304E+018,r1000913c5/base_front_laser_link,0,1.64632436757304E+018,v/m1vw10zy74w/map,-2.54367844004,-1.25603453405,0.165,0,0,0.564910544241,0.825152153851,0,51.7287864685,54.1011619568,88.6104812622,4.83644008636
1.64632436765012E+018,44,1.64632436765012E+018,r1000913c5/base_front_laser_link,0,1.64632436765012E+018,v/m1vw10zy74w/map,-2.54217874666,-1.23232887444,0.165,0,0,0.573540110978,0.819177478388,0,51.9699668884,54.0538024902,88.4289245605,4.79170799255
1.64632436772921E+018,45,1.64632436772921E+018,r1000913c5/base_front_laser_link,0,1.64632436772921E+018,v/m1vw10zy74w/map,-2.54201012374,-1.20696158266,0.165,0,0,0.5836093249,0.812034578014,0,51.3358650208,53.9947166443,88.2599639893,4.75508403778
1.64632436788738E+018,46,1.64632436788738E+018,r1000913c5/base_front_laser_link,0,1.64632436788738E+018,v/m1vw10zy74w/map,-2.54527431132,-1.15463814465,0.165,0,0,0.606990811635,0.794708848945,0,49.9623718262,53.9089202881,88.1281738281,4.73975086212
1.64632436812324E+018,47,1.64632436812324E+018,r1000913c5/base_front_laser_link,0,1.64632436812324E+018,v/m1vw10zy74w/map,-2.56579174717,-1.06890027602,0.165,0,0,0.651499296537,0.758649238194,0,53.345287323,53.8971786499,87.966468811,4.68976259232
1.64632436820337E+018,48,1.64632436820337E+018,r1000913c5/base_front_laser_link,0,1.64632436820337E+018,v/m1vw10zy74w/map,-2.57636178653,-1.03078324315,0.165,0,0,0.66811424792,0.744058701802,0,52.6001358032,53.8707084656,87.8037643433,4.64435148239
1.64632436843923E+018,49,1.64632436843923E+018,r1000913c5/base_front_laser_link,0,1.64632436843923E+018,v/m1vw10zy74w/map,-2.61624967977,-0.940529404777,0.165,0,0,0.715501027089,0.698611680574,0,54.1714897156,53.8767242432,87.66746521,4.59691238403
1.64632436867404E+018,50,1.64632436867404E+018,r1000913c5/base_front_laser_link,0,1.64632436867404E+018,v/m1vw10zy74w/map,-2.66667313747,-0.855891973323,0.165,0,0,-0.759184046204,-0.650876012763,0,55.716506958,53.9127998352,87.5867919922,4.55799770355
1.6463243688314E+018,51,1.6463243688314E+018,r1000913c5/base_front_laser_link,0,1.6463243688314E+018,v/m1vw10zy74w/map,-2.71278293301,-0.800354711723,0.165,0,0,-0.791618126384,-0.611016155253,0,58.4533615112,54.0001182556,87.6705245972,4.55680322647
1.64632436898861E+018,52,1.64632436898861E+018,r1000913c5/base_front_laser_link,0,1.64632436898861E+018,v/m1vw10zy74w/map,-2.77136557723,-0.744552747085,0.165,0,0,-0.826318482611,-0.563203129692,0,59.3571243286,54.1011924744,87.8183135986,4.57237386703
1.6463243690673E+018,53,1.6463243690673E+018,r1000913c5/base_front_laser_link,0,1.6463243690673E+018,v/m1vw10zy74w/map,-2.80538597535,-0.720229522436,0.165,0,0,-0.844298649079,-0.535872924455,0,57.96667099,54.1727752686,87.8512115479,4.55947828293
1.64632436914635E+018,54,1.64632436914635E+018,r1000913c5/base_front_laser_link,0,1.64632436914635E+018,v/m1vw10zy74w/map,-2.84210343638,-0.698331803245,0.165,0,0,-0.862229741943,-0.506517395662,0,57.8636703491,54.2398834229,87.8730773926,4.54439735413
1.6463243693033E+018,55,1.6463243693033E+018,r1000913c5/base_front_laser_link,0,1.6463243693033E+018,v/m1vw10zy74w/map,-2.92970311491,-0.663308034321,0.165,0,0,-0.89680963999,-0.442416624485,0,61.2286491394,54.3646812439,88.1608505249,4.5987238884
1.64632436954058E+018,56,1.64632436954058E+018,r1000913c5/base_front_laser_link,0,1.64632436954058E+018,v/m1vw10zy74w/map,-3.06819046827,-0.619730245964,0.165,0,0,-0.93941834784,-0.342772764003,0,61.3062782288,54.4864654541,88.4343566895,4.64929866791
1.6463243697754E+018,57,1.6463243697754E+018,r1000913c5/base_front_laser_link,0,1.6463243697754E+018,v/m1vw10zy74w/map,-3.20677718771,-0.600425847333,0.165,0,0,-0.967585904318,-0.252542110874,0,66.084022522,54.6864204407,89.246711731,4.85342884064
1.6463243700126E+018,58,1.6463243700126E+018,r1000913c5/base_front_laser_link,0,1.6463243700126E+018,v/m1vw10zy74w/map,-3.35074757087,-0.587529655959,0.165,0,0,-0.984914780508,-0.173040096906,0,71.5165405273,54.9716796875,90.8321609497,5.28682661057
1.64632437032686E+018,59,1.64632437032686E+018,r1000913c5/base_front_laser_link,0,1.64632437032686E+018,v/m1vw10zy74w/map,-3.54466722648,-0.607846235466,0.165,0,0,-0.996482737961,-0.0837982872438,0,69.1370849609,55.2077674866,91.8628005981,5.55167627335
1.64632437048539E+018,60,1.64632437048539E+018,r1000913c5/base_front_laser_link,0,1.64632437048539E+018,v/m1vw10zy74w/map,-3.64412357022,-0.615291088423,0.165,0,0,-0.998700813941,-0.0509576710047,0,69.1775436401,55.4367828369,92.8022689819,5.78849554062
1.64632437072089E+018,61,1.64632437072089E+018,r1000913c5/base_front_laser_link,0,1.64632437072089E+018,v/m1vw10zy74w/map,-3.79090617024,-0.635462528015,0.165,0,0,-0.99988847807,-0.0149342366118,0,71.0537414551,55.6886672974,93.9100799561,6.07380390167
1.64632437103541E+018,62,1.64632437103541E+018,r1000913c5/base_front_laser_link,0,1.64632437103541E+018,v/m1vw10zy74w/map,-3.99059546429,-0.655157683722,0.165,0,0,-0.999917799032,0.0128216683171,0,68.4438247681,55.89112854,94.5969238281,6.2352643013
1.64632437119339E+018,63,1.64632437119339E+018,r1000913c5/base_front_laser_link,0,1.64632437119339E+018,v/m1vw10zy74w/map,-4.0994083002,-0.669477276221,0.165,0,0,-0.999640176474,0.026823824837,0,66.1956634521,56.0521392822,95.006942749,6.3182682991
1.64632437143044E+018,64,1.64632437143044E+018,r1000913c5/base_front_laser_link,0,1.64632437143044E+018,v/m1vw10zy74w/map,-4.26828581925,-0.687226328498,0.165,0,0,-0.999390736352,0.0349020929844,0,64.7080001831,56.1853065491,95.2652664185,6.35998678207
1.64632437166626E+018,65,1.64632437166626E+018,r1000913c5/base_front_laser_link,0,1.64632437166626E+018,v/m1vw10zy74w/map,-4.45385730244,-0.715590834975,0.165,0,0,-0.9994098599,0.0343501373429,0,66.3370132446,56.3391189575,95.6393127441,6.43339776993
1.64632437182425E+018,66,1.64632437182425E+018,r1000913c5/base_front_laser_link,0,1.64632437182425E+018,v/m1vw10zy74w/map,-4.57771951436,-0.728131970428,0.165,0,0,-0.999363466979,0.0356743727043,0,71.0516357422,56.5587081909,96.456703186,6.63266372681
1.64632437213947E+018,67,1.64632437213947E+018,r1000913c5/base_front_laser_link,0,1.64632437213947E+018,v/m1vw10zy74w/map,-4.83427419947,-0.74236264872,0.165,0,0,-0.999681470056,0.0252380353323,0,66.3376541138,56.7025184631,96.7693405151,6.68894004822
1.64632437237633E+018,68,1.64632437237633E+018,r1000913c5/base_front_laser_link,0,1.64632437237633E+018,v/m1vw10zy74w/map,-5.0253695946,-0.747699349347,0.165,0,0,-0.999885603122,0.0151254973073,0,67.3285598755,56.8565177917,97.1415710449,6.76168346405
1.64632437261442E+018,69,1.64632437261442E+018,r1000913c5/base_front_laser_link,0,1.64632437261442E+018,v/m1vw10zy74w/map,-5.22501097811,-0.752006125273,0.165,0,0,-0.999952535333,0.00974305297206,0,66.2648468018,56.9909210205,97.4090652466,6.80604696274
1.64632437277137E+018,70,1.64632437277137E+018,r1000913c5/base_front_laser_link,0,1.64632437277137E+018,v/m1vw10zy74w/map,-5.32299903929,-0.726006738083,0.165,0,0,-0.999923349411,0.0123812480157,0,58.5552368164,57.0129547119,97.2923736572,6.75980710983
1.64632437292842E+018,71,1.64632437292842E+018,r1000913c5/base_front_laser_link,0,1.64632437292842E+018,v/m1vw10zy74w/map,-5.45580574319,-0.729189548845,0.165,0,0,-0.999894473755,0.0145272624519,0,65.7403182983,57.1341705322,97.5053100586,6.79038095474
1.64632437308646E+018,72,1.64632437308646E+018,r1000913c5/base_front_laser_link,0,1.64632437308646E+018,v/m1vw10zy74w/map,-5.59648464105,-0.728953812749,0.165,0,0,-0.999910314627,0.01339263611,0,68.0743484497,57.284034729,97.874710083,6.86355733871
1.64632437332244E+018,73,1.64632437332244E+018,r1000913c5/base_front_laser_link,0,1.64632437332244E+018,v/m1vw10zy74w/map,-5.81444345316,-0.73018087515,0.165,0,0,-0.999932321831,0.01163407743,0,67.9539337158,57.4282226562,98.2131729126,6.92831659317
1.6463243735603E+018,74,1.6463243735603E+018,r1000913c5/base_front_laser_link,0,1.6463243735603E+018,v/m1vw10zy74w/map,-6.04422802519,-0.725412717021,0.165,0,0,-0.999960172257,0.0089249033712,0,68.8142089844,57.5800361633,98.5974807739,7.00581502914
1.64632437371838E+018,75,1.64632437371838E+018,r1000913c5/base_front_laser_link,0,1.64632437371838E+018,v/m1vw10zy74w/map,-6.19463132523,-0.729542015841,0.165,0,0,-0.999970194812,0.00772071801764,0,68.970664978,57.7299118042,98.9715652466,7.08055210114
1.64632437395316E+018,76,1.64632437395316E+018,r1000913c5/base_front_laser_link,0,1.64632437395316E+018,v/m1vw10zy74w/map,-6.43314548081,-0.731211155679,0.165,0,0,-0.999986128929,0.00526706276367,0,67.2320709229,57.8533172607,99.2033615112,7.11668205261
1.64632437403275E+018,77,1.64632437403275E+018,r1000913c5/base_front_laser_link,0,1.64632437403275E+018,v/m1vw10zy74w/map,-6.50741833781,-0.733026484686,0.165,0,0,-0.999977198082,0.00675302266687,0,62.5674362183,57.9137535095,99.1850662231,7.09043836594
1.64632437427001E+018,78,1.64632437427001E+018,r1000913c5/base_front_laser_link,0,1.64632437427001E+018,v/m1vw10zy74w/map,-6.75259720866,-0.739405641556,0.165,0,0,-0.999972692893,0.00739009252557,0,63.9951057434,57.9907341003,99.2246932983,7.0779876709
1.64632437442736E+018,79,1.64632437442736E+018,r1000913c5/base_front_laser_link,0,1.64632437442736E+018,v/m1vw10zy74w/map,-6.91806729366,-0.737169197549,0.165,0,0,-0.999971385055,0.00756498987871,0,61.9832496643,58.04063797,99.1822357178,7.04719924927
1.64632437458551E+018,80,1.64632437458551E+018,r1000913c5/base_front_laser_link,0,1.64632437458551E+018,v/m1vw10zy74w/map,-7.0865405453,-0.731014389751,0.165,0,0,-0.99998013602,0.0063029806923,0,67.4247512817,58.1564941406,99.3971328735,7.08021211624
1.64632437474343E+018,81,1.64632437474343E+018,r1000913c5/base_front_laser_link,0,1.64632437474343E+018,v/m1vw10zy74w/map,-7.2535749411,-0.724557016945,0.165,0,0,-0.999984382736,0.00558876408986,0,65.0226821899,58.2402267456,99.4715499878,7.07710790634
1.6463243748214E+018,82,1.6463243748214E+018,r1000913c5/base_front_laser_link,0,1.6463243748214E+018,v/m1vw10zy74w/map,-7.33825201268,-0.726516565898,0.165,0,0,-0.999983104807,0.00581292523246,0,68.1646347046,58.3597984314,99.7128295898,7.1176776886
1.64632437497915E+018,83,1.64632437497915E+018,r1000913c5/base_front_laser_link,0,1.64632437497915E+018,v/m1vw10zy74w/map,-7.51628364375,-0.725242380004,0.165,0,0,-0.99999471927,0.00324983576159,0,64.0547943115,58.4275970459,99.7333145142,7.10190582275
1.64632437505824E+018,84,1.64632437505824E+018,r1000913c5/base_front_laser_link,0,1.64632437505824E+018,v/m1vw10zy74w/map,-7.60180772489,-0.738037786171,0.165,0,0,-0.999991450372,0.00413511591819,0,62.3933067322,58.4742507935,99.6920471191,7.0725979805
1.64632437521546E+018,85,1.64632437521546E+018,r1000913c5/base_front_laser_link,0,1.64632437521546E+018,v/m1vw10zy74w/map,-7.77991610946,-0.739415338606,0.165,0,0,-0.999998556672,0.00169901536738,0,64.3254928589,58.5422897339,99.7196655273,7.05912590027
1.64632437553176E+018,86,1.64632437553176E+018,r1000913c5/base_front_laser_link,0,1.64632437553176E+018,v/m1vw10zy74w/map,-8.14700110826,-0.731201342052,0.165,0,0,-0.999994900249,-0.00319366198209,0,67.8491287231,58.6492652893,99.9148864746,7.08854198456
1.64632437569059E+018,87,1.64632437569059E+018,r1000913c5/base_front_laser_link,0,1.64632437569059E+018,v/m1vw10zy74w/map,-8.33923684874,-0.730091857526,0.165,0,0,-0.999994280923,-0.00338202922391,0,67.8977279663,58.754360199,100.103286743,7.11630868912
1.64632437576844E+018,88,1.64632437576844E+018,r1000913c5/base_front_laser_link,0,1.64632437576844E+018,v/m1vw10zy74w/map,-8.43513407953,-0.730076419964,0.165,0,0,-0.999996321277,-0.00271245859952,0,61.0784454346,58.7804718018,100.020614624,7.08004665375
1.64632437592515E+018,89,1.64632437592515E+018,r1000913c5/base_front_laser_link,0,1.64632437592515E+018,v/m1vw10zy74w/map,-8.62700254322,-0.731818069082,0.165,0,0,-0.999999747158,-0.000711114692095,0,61.8644599915,58.8147392273,99.9577178955,7.0476603508
1.64632437608455E+018,90,1.64632437608455E+018,r1000913c5/base_front_laser_link,0,1.64632437608455E+018,v/m1vw10zy74w/map,-8.83975821576,-0.732100291262,0.165,0,0,-0.99999908821,0.00135039951172,0,61.0474777222,58.8392753601,99.8761901855,7.01230430603
1.64632437624132E+018,91,1.64632437624132E+018,r1000913c5/base_front_laser_link,0,1.64632437624132E+018,v/m1vw10zy74w/map,-9.03356962277,-0.729250734461,0.165,0,0,-0.99999891781,0.00147118275689,0,66.0045928955,58.9171600342,99.957862854,7.01356697083
1.64632437639931E+018,92,1.64632437639931E+018,r1000913c5/base_front_laser_link,0,1.64632437639931E+018,v/m1vw10zy74w/map,-9.22627298646,-0.725021909608,0.165,0,0,-0.99999897819,0.00142955210144,0,67.3481903076,59.0078163147,100.097572327,7.02991962433
1.64632437647835E+018,93,1.64632437647835E+018,r1000913c5/base_front_laser_link,0,1.64632437647835E+018,v/m1vw10zy74w/map,-9.32888976027,-0.725510355396,0.165,0,0,-0.99999794805,0.00202580723337,0,67.6267929077,59.0995063782,100.244430542,7.04830884933
1.64632437655625E+018,94,1.64632437655625E+018,r1000913c5/base_front_laser_link,0,1.64632437655625E+018,v/m1vw10zy74w/map,-9.42451888037,-0.720570158921,0.165,0,0,-0.999999609075,0.000884223029605,0,62.5328636169,59.1356468201,100.194335938,7.01956176758
1.64632437671449E+018,95,1.64632437671449E+018,r1000913c5/base_front_laser_link,0,1.64632437671449E+018,v/m1vw10zy74w/map,-9.62929295488,-0.719236703828,0.165,0,0,-0.999999998448,5.57100141503E-05,0,65.0953063965,59.1977272034,100.224609375,7.00896167755
1.64632437703036E+018,96,1.64632437703036E+018,r1000913c5/base_front_laser_link,0,1.64632437703036E+018,v/m1vw10zy74w/map,-10.0593849836,-0.716952201436,0.165,0,0,-0.999995541602,-0.00298609713506,0,66.8220825195,59.2763290405,100.32194519,7.0152053833
1.64632437718743E+018,97,1.64632437718743E+018,r1000913c5/base_front_laser_link,0,1.64632437718743E+018,v/m1vw10zy74w/map,-10.2772145353,-0.713202538536,0.165,0,0,-0.999975861747,-0.0069480877315,0,64.6348190308,59.3310089111,100.330741882,6.99991083145
1.64632437734535E+018,98,1.64632437734535E+018,r1000913c5/base_front_laser_link,0,1.64632437734535E+018,v/m1vw10zy74w/map,-10.4830245699,-0.707276850105,0.165,0,0,-0.999959662088,-0.00898188162346,0,62.8246994019,59.3662986755,100.285148621,6.9729514122
1.64632437742428E+018,99,1.64632437742428E+018,r1000913c5/base_front_laser_link,0,1.64632437742428E+018,v/m1vw10zy74w/map,-10.6072117603,-0.708803423931,0.165,0,0,-0.999964089104,-0.00847469775391,0,62.8706245422,59.4013404846,100.240814209,6.94649028778
1.64632437766214E+018,100,1.64632437766214E+018,r1000913c5/base_front_laser_link,0,1.64632437766214E+018,v/m1vw10zy74w/map,-10.9024419435,-0.696698159547,0.165,0,0,-0.99991457225,-0.013070891418,0,67.5008239746,59.4815330505,100.357032776,6.95849895477
1.64632437773955E+018,101,1.64632437773955E+018,r1000913c5/base_front_laser_link,0,1.64632437773955E+018,v/m1vw10zy74w/map,-10.9960249343,-0.690019974529,0.165,0,0,-0.999882890366,-0.0153037757693,0,61.8153038025,59.5044136047,100.287872314,6.92782020569
1.64632437797715E+018,102,1.64632437797715E+018,r1000913c5/base_front_laser_link,0,1.64632437797715E+018,v/m1vw10zy74w/map,-11.2032248896,-0.684191232098,0.165,0,0,-0.999865054014,-0.0164278349847,0,61.8501815796,59.5271873474,100.22013855,6.89765024185
1.64632437813549E+018,103,1.64632437813549E+018,r1000913c5/base_front_laser_link,0,1.64632437813549E+018,v/m1vw10zy74w/map,-11.29708409,-0.683005471564,0.165,0,0,-0.999884713731,-0.015184177494,0,58.9024810791,59.5211791992,100.114257812,6.86435842514
1.64632437821438E+018,104,1.64632437821438E+018,r1000913c5/base_front_laser_link,0,1.64632437821438E+018,v/m1vw10zy74w/map,-11.3220747775,-0.682793767657,0.165,0,0,-0.999901250138,-0.0140531125635,0,55.6714134216,59.4845161438,100.009315491,6.84160041809
1.64632437852947E+018,105,1.64632437852947E+018,r1000913c5/base_front_laser_link,0,1.64632437852947E+018,v/m1vw10zy74w/map,-11.4211069344,-0.68716055324,0.165,0,0,-0.99996749865,-0.00806235970723,0,59.7819290161,59.487323761,99.9143371582,6.80900430679
1.64632437868737E+018,106,1.64632437868737E+018,r1000913c5/base_front_laser_link,0,1.64632437868737E+018,v/m1vw10zy74w/map,-11.4703582925,-0.688030327276,0.165,0,0,-0.999976845686,-0.00680500486877,0,58.3186531067,59.476398468,99.8096542358,6.77775192261
1.64632437892357E+018,107,1.64632437892357E+018,r1000913c5/base_front_laser_link,0,1.64632437892357E+018,v/m1vw10zy74w/map,-11.5425359306,-0.689420066268,0.165,0,0,-0.999985022885,-0.005473025227,0,58.5100059509,59.4674530029,99.7073898315,6.7466468811
1.64632437908142E+018,108,1.64632437908142E+018,r1000913c5/base_front_laser_link,0,1.64632437908142E+018,v/m1vw10zy74w/map,-11.5945708362,-0.685827350851,0.165,0,0,-0.999982720091,-0.00587873442821,0,59.5141830444,59.467880249,99.6139068604,6.71534109116
1.64632437939639E+018,109,1.64632437939639E+018,r1000913c5/base_front_laser_link,0,1.64632437939639E+018,v/m1vw10zy74w/map,-11.6871257858,-0.683132732595,0.165,0,0,-0.999970634594,-0.00766354687118,0,62.4171218872,59.4946937561,99.565826416,6.69037818909
1.64632437955546E+018,110,1.64632437955546E+018,r1000913c5/base_front_laser_link,0,1.64632437955546E+018,v/m1vw10zy74w/map,-11.7286988514,-0.682106040369,0.165,0,0,-0.999967167256,-0.00810335794016,0,63.1522407532,59.5276412964,99.5344619751,6.66894006729
1.64632437979158E+018,111,1.64632437979158E+018,r1000913c5/base_front_laser_link,0,1.64632437979158E+018,v/m1vw10zy74w/map,-11.7967257481,-0.680459237867,0.165,0,0,-0.99996445883,-0.00843095938508,0,58.831035614,59.5214233398,99.4388961792,6.63915777206
1.64632438034444E+018,112,1.64632438034444E+018,r1000913c5/base_front_laser_link,0,1.64632438034444E+018,v/m1vw10zy74w/map,-11.8684578331,-0.682233063001,0.165,0,0,-0.999948475626,-0.0101511621322,0,59.7485313416,59.5234336853,99.351890564,6.60948705673
1.6463243805017E+018,113,1.6463243805017E+018,r1000913c5/base_front_laser_link,0,1.6463243805017E+018,v/m1vw10zy74w/map,-11.8669438661,-0.688785926477,0.165,0,0,-0.999999901116,-0.000444710364616,0,58.3804931641,59.5134086609,99.2565460205,6.58104705811
1.64632438065927E+018,114,1.64632438065927E+018,r1000913c5/base_front_laser_link,0,1.64632438065927E+018,v/m1vw10zy74w/map,-11.865932365,-0.703380057544,0.165,0,0,-0.999772122849,0.0213471865482,0,58.9171829224,59.5082244873,99.1652908325,6.55235528946
1.64632438081559E+018,115,1.64632438081559E+018,r1000913c5/base_front_laser_link,0,1.64632438081559E+018,v/m1vw10zy74w/map,-11.8657326251,-0.723402716296,0.165,0,0,-0.998687050107,0.0512267112714,0,60.5602416992,59.5172920227,99.0908966064,6.52453565598
1.64632438113047E+018,116,1.64632438113047E+018,r1000913c5/base_front_laser_link,0,1.64632438113047E+018,v/m1vw10zy74w/map,-11.8586293106,-0.771701479529,0.165,0,0,-0.992291752467,0.123923678066,0,60.8690719604,59.5288467407,99.0215072632,6.49755382538
1.64632438120943E+018,117,1.64632438120943E+018,r1000913c5/base_front_laser_link,0,1.64632438120943E+018,v/m1vw10zy74w/map,-11.8553203822,-0.783561064902,0.165,0,0,-0.989847774714,0.142131568958,0,62.0090179443,59.5498657227,98.9711303711,6.47375440598
1.64632438144543E+018,118,1.64632438144543E+018,r1000913c5/base_front_laser_link,0,1.64632438144543E+018,v/m1vw10zy74w/map,-11.8518930003,-0.816034614808,0.165,0,0,-0.981628916365,0.190800080074,0,62.1384162903,59.5716171265,98.9235076904,6.45063066483
1.64632438152346E+018,119,1.64632438152346E+018,r1000913c5/base_front_laser_link,0,1.64632438152346E+018,v/m1vw10zy74w/map,-11.8502038715,-0.82421239447,0.165,0,0,-0.97888108721,0.204430470093,0,59.3356552124,59.5696487427,98.840171814,6.42350625992
1.64632438160245E+018,120,1.64632438160245E+018,r1000913c5/base_front_laser_link,0,1.64632438160245E+018,v/m1vw10zy74w/map,-11.8458620505,-0.834480458952,0.165,0,0,-0.975237838219,0.221158673595,0,58.4196166992,59.5601463318,98.7527618408,6.39753961563
1.64632438168152E+018,121,1.64632438168152E+018,r1000913c5/base_front_laser_link,0,1.64632438168152E+018,v/m1vw10zy74w/map,-11.8403410428,-0.844861802819,0.165,0,0,-0.971203692964,0.23825068053,0,58.1543464661,59.5486221313,98.6655807495,6.37232017517
1.6463243817595E+018,122,1.6463243817595E+018,r1000913c5/base_front_laser_link,0,1.6463243817595E+018,v/m1vw10zy74w/map,-11.8394837443,-0.852113161056,0.165,0,0,-0.967366896411,0.253379730303,0,62.4555130005,59.5722579956,98.6269378662,6.35156059265
1.64632438199554E+018,123,1.64632438199554E+018,r1000913c5/base_front_laser_link,0,1.64632438199554E+018,v/m1vw10zy74w/map,-11.8254171751,-0.881672931556,0.165,0,0,-0.952444589408,0.304711837819,0,62.939491272,59.5994110107,98.5981445312,6.33291196823
1.64632438207471E+018,124,1.64632438207471E+018,r1000913c5/base_front_laser_link,0,1.64632438207471E+018,v/m1vw10zy74w/map,-11.818718437,-0.89108928317,0.165,0,0,-0.946910131083,0.321498372704,0,64.2347946167,59.6364936829,98.5993041992,6.320936203
1.64632438223248E+018,125,1.64632438223248E+018,r1000913c5/base_front_laser_link,0,1.64632438223248E+018,v/m1vw10zy74w/map,-11.8023142459,-0.910692495429,0.165,0,0,-0.934568650306,0.355782852125,0,63.937702179,59.6706314087,98.5923843384,6.30725193024
1.64632438231143E+018,126,1.64632438231143E+018,r1000913c5/base_front_laser_link,0,1.64632438231143E+018,v/m1vw10zy74w/map,-11.7977250037,-0.919902739885,0.165,0,0,-0.928875970476,0.370390917102,0,59.6745605469,59.6706619263,98.5171813965,6.28217363358
1.64632438254753E+018,127,1.64632438254753E+018,r1000913c5/base_front_laser_link,0,1.64632438254753E+018,v/m1vw10zy74w/map,-11.7748788921,-0.941185515696,0.165,0,0,-0.90946546488,0.415779470623,0,60.774848938,59.6792869568,98.453742981,6.25815248489
1.64632438270545E+018,128,1.64632438270545E+018,r1000913c5/base_front_laser_link,0,1.64632438270545E+018,v/m1vw10zy74w/map,-11.7591602151,-0.955807287262,0.165,0,0,-0.894200866368,0.447665958709,0,62.2685470581,59.6993598938,98.4128417969,6.23782587051
1.6463243827846E+018,129,1.6463243827846E+018,r1000913c5/base_front_laser_link,0,1.6463243827846E+018,v/m1vw10zy74w/map,-11.7499015907,-0.96330796431,0.165,0,0,-0.885870766598,0.463932090813,0,67.224609375,59.7572479248,98.5029144287,6.24855613708
1.64632438294256E+018,130,1.64632438294256E+018,r1000913c5/base_front_laser_link,0,1.64632438294256E+018,v/m1vw10zy74w/map,-11.7337577045,-0.979736561909,0.165,0,0,-0.869229429339,0.494408939209,0,67.130065918,59.8135261536,98.5866851807,6.25771999359
1.64632438325738E+018,131,1.64632438325738E+018,r1000913c5/base_front_laser_link,0,1.64632438325738E+018,v/m1vw10zy74w/map,-11.6876167788,-1.00306868333,0.165,0,0,-0.83353485321,0.552466875464,0,66.5497131348,59.8645591736,98.6484603882,6.26130151749
1.64632438333745E+018,132,1.64632438333745E+018,r1000913c5/base_front_laser_link,0,1.64632438333745E+018,v/m1vw10zy74w/map,-11.674099155,-1.00477993098,0.165,0,0,-0.825055334623,0.565051939922,0,63.5800094604,59.8924942017,98.6300582886,6.24585390091
1.64632438341577E+018,133,1.64632438341577E+018,r1000913c5/base_front_laser_link,0,1.64632438341577E+018,v/m1vw10zy74w/map,-11.6636771107,-1.00838243749,0.165,0,0,-0.815777951956,0.578365224665,0,64.1759338379,59.9244613647,98.6244277954,6.23332166672
1.6463243835744E+018,134,1.6463243835744E+018,r1000913c5/base_front_laser_link,0,1.6463243835744E+018,v/m1vw10zy74w/map,-11.6425530175,-1.01266658962,0.165,0,0,-0.797003752347,0.603974352721,0,64.8483657837,59.9609336853,98.6343231201,6.22446250916
1.6463243837313E+018,135,1.6463243837313E+018,r1000913c5/base_front_laser_link,0,1.6463243837313E+018,v/m1vw10zy74w/map,-11.6241320821,-1.01582444831,0.165,0,0,-0.781980684598,0.623302662369,0,67.4618453979,60.0160865784,98.7199859619,6.2346329689
1.6463243838887E+018,136,1.6463243838887E+018,r1000913c5/base_front_laser_link,0,1.6463243838887E+018,v/m1vw10zy74w/map,-11.5995423085,-1.01420509562,0.165,0,0,-0.767265311459,0.64132982297,0,69.2457504272,60.0834579468,98.868019104,6.26151990891
1.64632438601856E+018,137,1.64632438601856E+018,r1000913c5/base_front_laser_link,0,1.64632438601856E+018,v/m1vw10zy74w/map,-11.5444863657,-1.02047719403,0.165,0,0,-0.716007014939,0.698093084451,0,64.9581451416,60.1187820435,98.8760147095,6.25241136551
1.64632438617574E+018,138,1.64632438617574E+018,r1000913c5/base_front_laser_link,0,1.64632438617574E+018,v/m1vw10zy74w/map,-11.5445058837,-1.02054566997,0.165,0,0,-0.716024112442,0.698075547775,0,64.1686477661,60.1479187012,98.8654556274,6.23917961121
1.64632438633389E+018,139,1.64632438633389E+018,r1000913c5/base_front_laser_link,0,1.64632438633389E+018,v/m1vw10zy74w/map,-11.5470855296,-1.02658952485,0.165,0,0,-0.71856392126,0.695460919868,0,61.6675262451,60.1587715149,98.8128356934,6.2180223465
1.64632438649174E+018,140,1.64632438649174E+018,r1000913c5/base_front_laser_link,0,1.64632438649174E+018,v/m1vw10zy74w/map,-11.5567909105,-1.04444170479,0.165,0,0,-0.727855013952,0.685731054178,0,64.0763015747,60.1865539551,98.8002166748,6.20455312729
1.64632438657066E+018,141,1.64632438657066E+018,r1000913c5/base_front_laser_link,0,1.64632438657066E+018,v/m1vw10zy74w/map,-11.5630251754,-1.06010800991,0.165,0,0,-0.733282286915,0.679924324978,0,64.5282440186,60.2171325684,98.7968444824,6.19323825836
1.64632438672753E+018,142,1.64632438672753E+018,r1000913c5/base_front_laser_link,0,1.64632438672753E+018,v/m1vw10zy74w/map,-11.5788555829,-1.10098855021,0.165,0,0,-0.745642466422,0.666346240529,0,62.5363044739,60.2333488464,98.7566680908,6.17443943024
1.6463243868858E+018,143,1.6463243868858E+018,r1000913c5/base_front_laser_link,0,1.6463243868858E+018,v/m1vw10zy74w/map,-11.5958720671,-1.14719178579,0.165,0,0,-0.75667511573,0.653791074606,0,63.3255653381,60.2548217773,98.7294387817,6.15820598602
1.64632438704256E+018,144,1.64632438704256E+018,r1000913c5/base_front_laser_link,0,1.64632438704256E+018,v/m1vw10zy74w/map,-11.6121588122,-1.19106479614,0.165,0,0,-0.765579333338,0.643341499023,0,63.5402946472,60.2774810791,98.7060241699,6.14284849167
1.64632438712164E+018,145,1.64632438712164E+018,r1000913c5/base_front_laser_link,0,1.64632438712164E+018,v/m1vw10zy74w/map,-11.6195662914,-1.21279799978,0.165,0,0,-0.768884446814,0.639387759851,0,64.243270874,60.3046455383,98.6959075928,6.13042163849
1.64632438727971E+018,146,1.64632438727971E+018,r1000913c5/base_front_laser_link,0,1.64632438727971E+018,v/m1vw10zy74w/map,-11.6299619623,-1.25863295602,0.165,0,0,-0.770229704918,0.637766573021,0,63.250125885,60.3246803284,98.6673431396,6.11421966553
1.64632438743783E+018,147,1.64632438743783E+018,r1000913c5/base_front_laser_link,0,1.64632438743783E+018,v/m1vw10zy74w/map,-11.6341203245,-1.30579267548,0.165,0,0,-0.766474537581,0.642274694535,0,63.3285064697,60.3449783325,98.6401443481,6.0983877182
1.64632438759474E+018,148,1.64632438759474E+018,r1000913c5/base_front_laser_link,0,1.64632438759474E+018,v/m1vw10zy74w/map,-11.6358030974,-1.3507692153,0.165,0,0,-0.760819945753,0.648963026793,0,60.7956466675,60.3480033875,98.5815887451,6.07786226273
1.64632438767377E+018,149,1.64632438767377E+018,r1000913c5/base_front_laser_link,0,1.64632438767377E+018,v/m1vw10zy74w/map,-11.6310409177,-1.37703024116,0.165,0,0,-0.752930299152,0.658100269427,0,58.7594146729,60.3374099731,98.5138778687,6.05882120132
1.6463243877527E+018,150,1.6463243877527E+018,r1000913c5/base_front_laser_link,0,1.6463243877527E+018,v/m1vw10zy74w/map,-11.6312128483,-1.39978798913,0.165,0,0,-0.749909831551,0.661540055131,0,58.456287384,60.3249549866,98.4465484619,6.04053163528
1.64632438783082E+018,151,1.64632438783082E+018,r1000913c5/base_front_laser_link,0,1.64632438783082E+018,v/m1vw10zy74w/map,-11.6314861909,-1.42227936697,0.165,0,0,-0.747472211132,0.664293078081,0,58.3334236145,60.3118515015,98.3798446655,6.02266311646
1.64632438798854E+018,152,1.64632438798854E+018,r1000913c5/base_front_laser_link,0,1.64632438798854E+018,v/m1vw10zy74w/map,-11.6320149151,-1.46736959447,0.165,0,0,-0.742997848243,0.669293805071,0,60.6569404602,60.3141059875,98.3227615356,6.00288391113
1.64632438814641E+018,153,1.64632438814641E+018,r1000913c5/base_front_laser_link,0,1.64632438814641E+018,v/m1vw10zy74w/map,-11.6331939801,-1.51485742539,0.165,0,0,-0.737795625584,0.67502415873,0,61.7414779663,60.3233757019,98.2763977051,5.98433971405
1.6463243883828E+018,154,1.6463243883828E+018,r1000913c5/base_front_laser_link,0,1.6463243883828E+018,v/m1vw10zy74w/map,-11.6311327989,-1.58262399213,0.165,0,0,-0.730290535133,0.683136687856,0,59.2769241333,60.3166236877,98.2130355835,5.96547079086
1.64632438846059E+018,155,1.64632438846059E+018,r1000913c5/base_front_laser_link,0,1.64632438846059E+018,v/m1vw10zy74w/map,-11.6336775673,-1.61174822391,0.165,0,0,-0.729440174161,0.684044612814,0,62.1735267639,60.3285293579,98.1726913452,5.94805431366
1.64632438853877E+018,156,1.64632438853877E+018,r1000913c5/base_front_laser_link,0,1.64632438853877E+018,v/m1vw10zy74w/map,-11.6333524231,-1.63369411724,0.165,0,0,-0.727644825629,0.685954085734,0,61.9936065674,60.3391342163,98.1304779053,5.9304485321
1.64632438869675E+018,157,1.64632438869675E+018,r1000913c5/base_front_laser_link,0,1.64632438869675E+018,v/m1vw10zy74w/map,-11.634020521,-1.67929447782,0.165,0,0,-0.725534010986,0.688186311186,0,62.0950813293,60.3502464294,98.0897903442,5.91318178177
1.64632438885368E+018,158,1.64632438885368E+018,r1000913c5/base_front_laser_link,0,1.64632438885368E+018,v/m1vw10zy74w/map,-11.6342466492,-1.72025477899,0.165,0,0,-0.724419393087,0.689359516449,0,64.5831985474,60.3768692017,98.0888442993,5.90399122238
1.64632439444252E+018,159,1.64632439444252E+018,r1000913c5/base_front_laser_link,0,1.64632439444252E+018,v/m1vw10zy74w/map,-11.6421671308,-2.59641348657,0.165,0,0,-0.710130285003,0.704070293594,0,67.6735839844,60.4224739075,98.163269043,5.91359853745
1.6463243945209E+018,160,1.6463243945209E+018,r1000913c5/base_front_laser_link,0,1.6463243945209E+018,v/m1vw10zy74w/map,-11.6422966554,-2.61242694907,0.165,0,0,-0.710122417933,0.704078228288,0,69.7671203613,60.4805145264,98.3032531738,5.94091367722
1.646324398068E+018,161,1.646324398068E+018,r1000913c5/base_front_laser_link,0,1.646324398068E+018,v/m1vw10zy74w/map,-11.6544691512,-2.77639038643,0.165,0,0,-0.714839593801,0.699288463464,0,60.6089324951,60.4813079834,98.2486419678,5.92244338989
1.64632439830482E+018,162,1.64632439830482E+018,r1000913c5/base_front_laser_link,0,1.64632439830482E+018,v/m1vw10zy74w/map,-11.6544844971,-2.77553189098,0.165,0,0,-0.714875371334,0.699251888421,0,61.1092910767,60.4851608276,98.1981811523,5.90434074402
1.64632439854196E+018,163,1.64632439854196E+018,r1000913c5/base_front_laser_link,0,1.64632439854196E+018,v/m1vw10zy74w/map,-11.6543334294,-2.75743083577,0.165,0,0,-0.715139248408,0.698982013636,0,66.111946106,60.5194702148,98.2272033691,5.90257740021
1.64632439862004E+018,164,1.64632439862004E+018,r1000913c5/base_front_laser_link,0,1.64632439862004E+018,v/m1vw10zy74w/map,-11.6550325758,-2.74505803653,0.165,0,0,-0.71617497536,0.697920772486,0,63.31016922,60.5363845825,98.2020721436,5.88856363297
1.64632439893611E+018,165,1.64632439893611E+018,r1000913c5/base_front_laser_link,0,1.64632439893611E+018,v/m1vw10zy74w/map,-11.6547915701,-2.67462082215,0.165,0,0,-0.718007812665,0.696035042906,0,61.2092971802,60.540435791,98.153213501,5.87092447281
1.64632439901487E+018,166,1.64632439901487E+018,r1000913c5/base_front_laser_link,0,1.64632439901487E+018,v/m1vw10zy74w/map,-11.654573632,-2.65279416472,0.165,0,0,-0.718494949759,0.695532175511,0,66.2686462402,60.5747375488,98.1846618652,5.86997461319
1.6463243991729E+018,167,1.6463243991729E+018,r1000913c5/base_front_laser_link,0,1.6463243991729E+018,v/m1vw10zy74w/map,-11.6546675376,-2.60384087042,0.165,0,0,-0.72035499036,0.693605570813,0,65.3201141357,60.6029853821,98.1944274902,5.86381387711
1.64632439925089E+018,168,1.64632439925089E+018,r1000913c5/base_front_laser_link,0,1.64632439925089E+018,v/m1vw10zy74w/map,-11.6540177006,-2.57940480568,0.165,0,0,-0.720644411749,0.693304862102,0,65.9970855713,60.6349029541,98.2180252075,5.86104202271
1.64632439933E+018,169,1.64632439933E+018,r1000913c5/base_front_laser_link,0,1.64632439933E+018,v/m1vw10zy74w/map,-11.6531555199,-2.55604552412,0.165,0,0,-0.720689732447,0.693257751162,0,68.5160522461,60.68126297,98.3058242798,5.87485456467
1.64632439948795E+018,170,1.64632439948795E+018,r1000913c5/base_front_laser_link,0,1.64632439948795E+018,v/m1vw10zy74w/map,-11.6544826987,-2.51883103782,0.165,0,0,-0.721908176345,0.691988861851,0,68.9934310913,60.7298698425,98.4056854248,5.89193868637
1.64632439964663E+018,171,1.64632439964663E+018,r1000913c5/base_front_laser_link,0,1.64632439964663E+018,v/m1vw10zy74w/map,-11.6518472409,-2.47612851087,0.165,0,0,-0.722004534998,0.691888322955,0,61.3660888672,60.7335700989,98.3582229614,5.87488555908
1.64632439980376E+018,172,1.64632439980376E+018,r1000913c5/base_front_laser_link,0,1.64632439980376E+018,v/m1vw10zy74w/map,-11.6506202614,-2.4317088271,0.165,0,0,-0.72273500699,0.691125248902,0,57.2294578552,60.7133140564,98.3048248291,5.86383771896
1.64632439988294E+018,173,1.64632439988294E+018,r1000913c5/base_front_laser_link,0,1.64632439988294E+018,v/m1vw10zy74w/map,-11.6497687861,-2.40831664201,0.165,0,0,-0.723308247548,0.6905252921,0,57.0848197937,60.6924629211,98.252456665,5.85333251953
1.6463244000407E+018,174,1.6463244000407E+018,r1000913c5/base_front_laser_link,0,1.6463244000407E+018,v/m1vw10zy74w/map,-11.6493429341,-2.36384048434,0.165,0,0,-0.723269975664,0.690565378731,0,59.2513885498,60.6842269897,98.1967391968,5.83750534058
1.64632440011898E+018,175,1.64632440011898E+018,r1000913c5/base_front_laser_link,0,1.64632440011898E+018,v/m1vw10zy74w/map,-11.6478132572,-2.34125168974,0.165,0,0,-0.722754230788,0.691105145313,0,65.7341079712,60.7129173279,98.2126235962,5.83323574066
1.64632440019806E+018,176,1.64632440019806E+018,r1000913c5/base_front_laser_link,0,1.64632440019806E+018,v/m1vw10zy74w/map,-11.6465998216,-2.31847853223,0.165,0,0,-0.72254840768,0.691320329919,0,62.5772171021,60.7234535217,98.1784362793,5.81832790375
1.64632440027702E+018,177,1.64632440027702E+018,r1000913c5/base_front_laser_link,0,1.64632440027702E+018,v/m1vw10zy74w/map,-11.6427248973,-2.29516959878,0.165,0,0,-0.722014365293,0.691878064626,0,69.98777771,60.7754974365,98.3053207397,5.84327459335
1.64632440043501E+018,178,1.64632440043501E+018,r1000913c5/base_front_laser_link,0,1.64632440043501E+018,v/m1vw10zy74w/map,-11.640428412,-2.24997096843,0.165,0,0,-0.721776356494,0.692126354942,0,69.4304351807,60.8238487244,98.4117660522,5.86263751984
1.64632440051403E+018,179,1.64632440051403E+018,r1000913c5/base_front_laser_link,0,1.64632440051403E+018,v/m1vw10zy74w/map,-11.6393689822,-2.22781623396,0.165,0,0,-0.721638766126,0.692269811002,0,70.1661071777,60.8757514954,98.5384368896,5.8875617981
1.64632440067199E+018,180,1.64632440067199E+018,r1000913c5/base_front_laser_link,0,1.64632440067199E+018,v/m1vw10zy74w/map,-11.6394342551,-2.17899912895,0.165,0,0,-0.722270456453,0.691610719794,0,66.5492401123,60.9070968628,98.5660247803,5.88631010056
1.64632440075174E+018,181,1.64632440075174E+018,r1000913c5/base_front_laser_link,0,1.64632440075174E+018,v/m1vw10zy74w/map,-11.6384824095,-2.15591385109,0.165,0,0,-0.722227712994,0.691655355349,0,56.2453346252,60.8814811707,98.5220489502,5.88018894196
1.64632440083004E+018,182,1.64632440083004E+018,r1000913c5/base_front_laser_link,0,1.64632440083004E+018,v/m1vw10zy74w/map,-11.6375324038,-2.13397187997,0.165,0,0,-0.722227054306,0.691656043152,0,57.7477760315,60.8643569946,98.4701156616,5.86858606339
1.64632440090884E+018,183,1.64632440090884E+018,r1000913c5/base_front_laser_link,0,1.64632440090884E+018,v/m1vw10zy74w/map,-11.636568363,-2.11165000858,0.165,0,0,-0.722229046486,0.691653962912,0,60.9651603699,60.864906311,98.4225082397,5.85253429413
1.64632440098779E+018,184,1.64632440098779E+018,r1000913c5/base_front_laser_link,0,1.64632440098779E+018,v/m1vw10zy74w/map,-11.6356057507,-2.08940550558,0.165,0,0,-0.722229072367,0.691653935887,0,64.2125015259,60.8830032349,98.4083862305,5.84179592133
1.64632440122399E+018,185,1.64632440122399E+018,r1000913c5/base_front_laser_link,0,1.64632440122399E+018,v/m1vw10zy74w/map,-11.6363305227,-2.01418517797,0.165,0,0,-0.721459691105,0.692456434811,0,67.2670135498,60.9173240662,98.4516067505,5.84476089478
1.64632440130278E+018,186,1.64632440130278E+018,r1000913c5/base_front_laser_link,0,1.64632440130278E+018,v/m1vw10zy74w/map,-11.6353934215,-1.99186855535,0.165,0,0,-0.721436791344,0.692480292929,0,61.9559020996,60.9228782654,98.4114456177,5.82952260971
1.64632440146095E+018,187,1.64632440146095E+018,r1000913c5/base_front_laser_link,0,1.64632440146095E+018,v/m1vw10zy74w/map,-11.6343712049,-1.95489334417,0.165,0,0,-0.722418580512,0.691455996092,0,60.9561271667,60.9230537415,98.3647994995,5.81391525269
1.64632440153908E+018,188,1.64632440153908E+018,r1000913c5/base_front_laser_link,0,1.64632440153908E+018,v/m1vw10zy74w/map,-11.6334463854,-1.93318269031,0.165,0,0,-0.722467164091,0.691405233427,0,59.1173057556,60.9135017395,98.3132629395,5.79991960526
1.64632440161803E+018,189,1.64632440161803E+018,r1000913c5/base_front_laser_link,0,1.64632440161803E+018,v/m1vw10zy74w/map,-11.6325299455,-1.91085529542,0.165,0,0,-0.72254530405,0.69132357373,0,61.0632896423,60.9142875671,98.2679901123,5.7845659256
1.64632440193404E+018,190,1.64632440193404E+018,r1000913c5/base_front_laser_link,0,1.64632440193404E+018,v/m1vw10zy74w/map,-11.6365049761,-1.81573526156,0.165,0,0,-0.724211814928,0.689577586003,0,57.6274604797,60.8970794678,98.2197494507,5.77422332764
1.64632440201305E+018,191,1.64632440201305E+018,r1000913c5/base_front_laser_link,0,1.64632440201305E+018,v/m1vw10zy74w/map,-11.6365264974,-1.79337739667,0.165,0,0,-0.724505379659,0.689269145433,0,57.7971572876,60.8809356689,98.1712265015,5.76343107224
1.64632440217075E+018,192,1.64632440217075E+018,r1000913c5/base_front_laser_link,0,1.64632440217075E+018,v/m1vw10zy74w/map,-11.6343365958,-1.74872492767,0.165,0,0,-0.724548566682,0.689223747791,0,56.2374916077,60.8568763733,98.1312103271,5.75811195374
1.6463244023278E+018,193,1.6463244023278E+018,r1000913c5/base_front_laser_link,0,1.6463244023278E+018,v/m1vw10zy74w/map,-11.6254965461,-1.69974630444,0.165,0,0,-0.721859496589,0.692039642784,0,56.1562194824,60.8326454163,98.0918960571,5.75308227539
1.64632440240705E+018,194,1.64632440240705E+018,r1000913c5/base_front_laser_link,0,1.64632440240705E+018,v/m1vw10zy74w/map,-11.6242904383,-1.67654569515,0.165,0,0,-0.721617153091,0.692292340247,0,58.4974060059,60.8206710815,98.0426864624,5.74067211151
1.64632440248607E+018,195,1.64632440248607E+018,r1000913c5/base_front_laser_link,0,1.64632440248607E+018,v/m1vw10zy74w/map,-11.62325185,-1.65345906927,0.165,0,0,-0.72153046564,0.692382688369,0,56.9957695007,60.8011550903,97.9984970093,5.73244762421
1.64632440272302E+018,196,1.64632440272302E+018,r1000913c5/base_front_laser_link,0,1.64632440272302E+018,v/m1vw10zy74w/map,-11.6230647562,-1.60358174351,0.165,0,0,-0.720794015589,0.693149325248,0,60.0731544495,60.7974586487,97.9515838623,5.71804046631
1.64632440280302E+018,197,1.64632440280302E+018,r1000913c5/base_front_laser_link,0,1.64632440280302E+018,v/m1vw10zy74w/map,-11.622140141,-1.58070321457,0.165,0,0,-0.720761714461,0.693182913067,0,58.5939712524,60.7863311768,97.9033050537,5.70565843582
1.64632440288184E+018,198,1.64632440288184E+018,r1000913c5/base_front_laser_link,0,1.64632440288184E+018,v/m1vw10zy74w/map,-11.6213255545,-1.55823258506,0.165,0,0,-0.720827671795,0.693114325039,0,56.1789970398,60.7631797791,97.8649673462,5.70059585571
1.64632440296086E+018,199,1.64632440296086E+018,r1000913c5/base_front_laser_link,0,1.64632440296086E+018,v/m1vw10zy74w/map,-11.6204563772,-1.53598542921,0.165,0,0,-0.720831724953,0.693110109796,0,57.0244865417,60.7444839478,97.8216781616,5.69239711761
1.64632440303813E+018,200,1.64632440303813E+018,r1000913c5/base_front_laser_link,0,1.64632440303813E+018,v/m1vw10zy74w/map,-11.6211183672,-1.52622355135,0.165,0,0,-0.72039349324,0.69356558082,0,59.5710868835,60.7386474609,97.7749023438,5.67875146866
1.64632440319596E+018,201,1.64632440319596E+018,r1000913c5/base_front_laser_link,0,1.64632440319596E+018,v/m1vw10zy74w/map,-11.619610332,-1.4837403223,0.165,0,0,-0.720345370025,0.693615562025,0,60.9025497437,60.7394599915,97.7333145142,5.66461896896
1.64632440327596E+018,202,1.64632440327596E+018,r1000913c5/base_front_laser_link,0,1.64632440327596E+018,v/m1vw10zy74w/map,-11.6187467032,-1.46117928759,0.165,0,0,-0.72033399826,0.693627371829,0,63.1566772461,60.7513656616,97.7107467651,5.65312671661
1.64632440343312E+018,203,1.64632440343312E+018,r1000913c5/base_front_laser_link,0,1.64632440343312E+018,v/m1vw10zy74w/map,-11.61862577,-1.42598845352,0.165,0,0,-0.71899760503,0.695012549499,0,60.8425712585,60.7518119812,97.669380188,5.63918924332
1.646324403592E+018,204,1.646324403592E+018,r1000913c5/base_front_laser_link,0,1.646324403592E+018,v/m1vw10zy74w/map,-11.6171139035,-1.38231334604,0.165,0,0,-0.718956760772,0.695054800818,0,61.6207046509,60.7560501099,97.6330871582,5.62567806244
1.64632440367104E+018,205,1.64632440367104E+018,r1000913c5/base_front_laser_link,0,1.64632440367104E+018,v/m1vw10zy74w/map,-11.6163469156,-1.35967321861,0.165,0,0,-0.718955265963,0.695056347028,0,61.2883338928,60.7586364746,97.5948257446,5.61206245422
1.64632440374892E+018,206,1.64632440374892E+018,r1000913c5/base_front_laser_link,0,1.64632440374892E+018,v/m1vw10zy74w/map,-11.6155644558,-1.33720121996,0.165,0,0,-0.718931019644,0.695081426161,0,63.2467460632,60.7706565857,97.5739440918,5.60109472275
1.64632440390657E+018,207,1.64632440390657E+018,r1000913c5/base_front_laser_link,0,1.64632440390657E+018,v/m1vw10zy74w/map,-11.6121534576,-1.28916042653,0.165,0,0,-0.718335082517,0.69569728275,0,59.5636749268,60.7648544312,97.5293807983,5.58817577362
1.64632440398597E+018,208,1.64632440398597E+018,r1000913c5/base_front_laser_link,0,1.64632440398597E+018,v/m1vw10zy74w/map,-11.6114254857,-1.26655532041,0.165,0,0,-0.718330675628,0.695701833009,0,62.7226448059,60.7742195129,97.5033340454,5.57637119293
1.646324404144E+018,209,1.646324404144E+018,r1000913c5/base_front_laser_link,0,1.646324404144E+018,v/m1vw10zy74w/map,-11.6098203813,-1.22155539208,0.165,0,0,-0.718148759489,0.69588961714,0,60.4436759949,60.7726478577,97.4618301392,5.56306171417
1.64632440422209E+018,210,1.64632440422209E+018,r1000913c5/base_front_laser_link,0,1.64632440422209E+018,v/m1vw10zy74w/map,-11.6099049821,-1.20789362709,0.165,0,0,-0.720200113272,0.693766384919,0,61.8568267822,60.7777862549,97.4286880493,5.55030202866
1.64632440438125E+018,211,1.64632440438125E+018,r1000913c5/base_front_laser_link,0,1.64632440438125E+018,v/m1vw10zy74w/map,-11.6087980057,-1.16328380468,0.165,0,0,-0.720184732243,0.693782351638,0,62.8263130188,60.7874488831,97.4042129517,5.5389213562
1.64632440453709E+018,212,1.64632440453709E+018,r1000913c5/base_front_laser_link,0,1.64632440453709E+018,v/m1vw10zy74w/map,-11.6070137207,-1.11844471014,0.165,0,0,-0.720071250474,0.693900132758,0,62.8360824585,60.7970657349,97.3799438477,5.52762508392
1.64632440461615E+018,213,1.64632440461615E+018,r1000913c5/base_front_laser_link,0,1.64632440461615E+018,v/m1vw10zy74w/map,-11.6064171635,-1.09077187569,0.165,0,0,-0.720407991956,0.693550520961,0,62.8533248901,60.8066749573,97.3559494019,5.51642513275
1.64632440477506E+018,214,1.64632440477506E+018,r1000913c5/base_front_laser_link,0,1.64632440477506E+018,v/m1vw10zy74w/map,-11.6049993583,-1.04502463721,0.165,0,0,-0.720413308434,0.693544998563,0,65.2373046875,60.8272819519,97.3627090454,5.51181030273
1.64632440485396E+018,215,1.64632440485396E+018,r1000913c5/base_front_laser_link,0,1.64632440485396E+018,v/m1vw10zy74w/map,-11.6041296335,-1.02235484934,0.165,0,0,-0.720405254073,0.693553364856,0,62.4074668884,60.8345985413,97.3346786499,5.50002813339
1.64632440493292E+018,216,1.64632440493292E+018,r1000913c5/base_front_laser_link,0,1.64632440493292E+018,v/m1vw10zy74w/map,-11.6032117703,-0.999598504533,0.165,0,0,-0.720350920295,0.693609797819,0,63.4987754822,60.8468742371,97.3176574707,5.49026155472
1.64632440509013E+018,217,1.64632440509013E+018,r1000913c5/base_front_laser_link,0,1.64632440509013E+018,v/m1vw10zy74w/map,-11.5990644001,-0.950791043117,0.165,0,0,-0.718722789679,0.695296736362,0,60.7906074524,60.8466148376,97.2794113159,5.47759771347
1.64632440516921E+018,218,1.64632440516921E+018,r1000913c5/base_front_laser_link,0,1.64632440516921E+018,v/m1vw10zy74w/map,-11.5983607779,-0.928518349586,0.165,0,0,-0.718760162912,0.695258101866,0,61.3547973633,60.8489379883,97.2443237305,5.46512794495
1.64632440524813E+018,219,1.64632440524813E+018,r1000913c5/base_front_laser_link,0,1.64632440524813E+018,v/m1vw10zy74w/map,-11.5976512923,-0.906035084931,0.165,0,0,-0.718801279617,0.695215592763,0,66.7278366089,60.8756599426,97.276725769,5.46702289581
1.64632440532618E+018,220,1.64632440532618E+018,r1000913c5/base_front_laser_link,0,1.64632440532618E+018,v/m1vw10zy74w/map,-11.5969195482,-0.884040073398,0.165,0,0,-0.718803745523,0.69521304319,0,65.3072814941,60.8957138062,97.2838821411,5.46272325516
1.64632440548474E+018,221,1.64632440548474E+018,r1000913c5/base_front_laser_link,0,1.64632440548474E+018,v/m1vw10zy74w/map,-11.5962197618,-0.84030054985,0.165,0,0,-0.722198572603,0.691685782513,0,62.8350257874,60.9044494629,97.2601623535,5.45190429688
1.6463244056422E+018,222,1.6463244056422E+018,r1000913c5/base_front_laser_link,0,1.6463244056422E+018,v/m1vw10zy74w/map,-11.5943558863,-0.795610077575,0.165,0,0,-0.7222791477,0.691601643142,0,61.9465255737,60.909122467,97.2292938232,5.44005870819
1.64632440824508E+018,223,1.64632440824508E+018,r1000913c5/base_front_laser_link,0,1.64632440824508E+018,v/m1vw10zy74w/map,-11.587513231,-0.705459198746,0.165,0,0,-0.717665683242,0.69638779936,0,66.2298126221,60.9328727722,97.2513046265,5.4394774437
1.64632440840294E+018,224,1.64632440840294E+018,r1000913c5/base_front_laser_link,0,1.64632440840294E+018,v/m1vw10zy74w/map,-11.5820005645,-0.716643550673,0.165,0,0,-0.711618546938,0.702566042201,0,65.2183151245,60.9519195557,97.2564315796,5.43483638763
1.64632440864105E+018,225,1.64632440864105E+018,r1000913c5/base_front_laser_link,0,1.64632440864105E+018,v/m1vw10zy74w/map,-11.5665393961,-0.739152180966,0.165,0,0,-0.695336307867,0.71868450586,0,64.7946624756,60.9689216614,97.2552261353,5.42876672745
1.64632440887621E+018,226,1.64632440887621E+018,r1000913c5/base_front_laser_link,0,1.64632440887621E+018,v/m1vw10zy74w/map,-11.545199105,-0.767031773227,0.165,0,0,-0.673908358678,0.738814945777,0,65.2227706909,60.987663269,97.2599487305,5.42409610748
1.64632440895406E+018,227,1.64632440895406E+018,r1000913c5/base_front_laser_link,0,1.64632440895406E+018,v/m1vw10zy74w/map,-11.5366430864,-0.776665677795,0.165,0,0,-0.665517197305,0.746382515934,0,66.6444396973,61.0124740601,97.2877349854,5.42508602142
1.6463244091121E+018,228,1.6463244091121E+018,r1000913c5/base_front_laser_link,0,1.6463244091121E+018,v/m1vw10zy74w/map,-11.5169926647,-0.797371368577,0.165,0,0,-0.646723348136,0.762724662624,0,64.986869812,61.0298271179,97.2884597778,5.4195432663
1.64632440919021E+018,229,1.64632440919021E+018,r1000913c5/base_front_laser_link,0,1.64632440919021E+018,v/m1vw10zy74w/map,-11.5060606597,-0.808037780209,0.165,0,0,-0.636483761349,0.771290102062,0,64.3844146729,61.0444145203,97.2810745239,5.41221952438
1.64632440926918E+018,230,1.64632440926918E+018,r1000913c5/base_front_laser_link,0,1.64632440926918E+018,v/m1vw10zy74w/map,-11.4946167977,-0.817176046797,0.165,0,0,-0.62405045389,0.78138404834,0,65.6279373169,61.0642547607,97.2908172607,5.40885448456
1.64632440934922E+018,231,1.64632440934922E+018,r1000913c5/base_front_laser_link,0,1.64632440934922E+018,v/m1vw10zy74w/map,-11.4793771131,-0.829659383737,0.165,0,0,-0.609824450267,0.792536522727,0,66.1628723145,61.0862312317,97.3087463379,5.4075050354
1.64632440942705E+018,232,1.64632440942705E+018,r1000913c5/base_front_laser_link,0,1.64632440942705E+018,v/m1vw10zy74w/map,-11.4619952277,-0.841219974,0.165,0,0,-0.593595523896,0.804763539191,0,63.2089576721,61.0953445435,97.288230896,5.39763021469
1.64632440966214E+018,233,1.64632440966214E+018,r1000913c5/base_front_laser_link,0,1.64632440966214E+018,v/m1vw10zy74w/map,-11.3999958668,-0.870866837641,0.165,0,0,-0.535937202749,0.844257848474,0,62.5784721375,61.1016807556,97.2624053955,5.38690757751
1.64632440974104E+018,234,1.64632440974104E+018,r1000913c5/base_front_laser_link,0,1.64632440974104E+018,v/m1vw10zy74w/map,-11.3757806225,-0.878107501121,0.165,0,0,-0.512603298836,0.858625563341,0,57.4025993347,61.0859413147,97.2283325195,5.38079786301
1.64632440997706E+018,235,1.64632440997706E+018,r1000913c5/base_front_laser_link,0,1.64632440997706E+018,v/m1vw10zy74w/map,-11.2903386036,-0.889823864357,0.165,0,0,-0.429168647879,0.903224375046,0,59.5453910828,61.0794143677,97.1902313232,5.37027359009
1.64632441013523E+018,236,1.64632441013523E+018,r1000913c5/base_front_laser_link,0,1.64632441013523E+018,v/m1vw10zy74w/map,-11.2262935837,-0.886342101419,0.165,0,0,-0.364077314677,0.931368728774,0,55.6536254883,61.0565185547,97.1679000854,5.37046098709
