%time,field.header.seq,field.header.stamp,field.header.frame_id,field.pose.header.seq,field.pose.header.stamp,field.pose.header.frame_id,field.pose.pose.position.x,field.pose.pose.position.y,field.pose.pose.position.z,field.pose.pose.orientation.x,field.pose.pose.orientation.y,field.pose.pose.orientation.z,field.pose.pose.orientation.w,field.label,field.current_error,field.mean,field.threshold,field.std_dev
1647536595836973862,0,1647536595836973862,r200141368/base_front_laser_link,0,1647536595836973862,v/m1vw10zy74w/map,-10.4512197272,1.99826953718,0.165,0.0,0.0,0.909652701294,-0.415369670329,1,55.0253181458,55.0253181458,nan,nan
1647536596151869514,1,1647536596151869514,r200141368/base_front_laser_link,0,1647536596151869514,v/m1vw10zy74w/map,-10.4612061864,1.80610517053,0.165,0.0,0.0,0.874999152471,-0.48412445009,1,55.5551147461,55.2902183533,76.4140777588,0.374621480703
1647536596546731129,2,1647536596546731129,r200141368/base_front_laser_link,0,1647536596546731129,v/m1vw10zy74w/map,-10.4815371916,1.57534739591,0.165,0.0,0.0,0.82829906581,-0.560286228261,1,57.3689308167,55.9831199646,79.6702194214,1.22903180122
1647536596704820129,3,1647536596704820129,r200141368/base_front_laser_link,0,1647536596704820129,v/m1vw10zy74w/map,-10.4827253458,1.48115077467,0.165,0.0,0.0,0.805864936661,-0.592099403699,1,56.1744766235,56.030960083,79.0551147461,1.00805103779
1647536597650032172,4,1647536597650032172,r200141368/base_front_laser_link,0,1647536597650032172,v/m1vw10zy74w/map,-10.1281020613,0.976079934606,0.165,0.0,0.0,0.643271131238,-0.765638460186,1,58.9188995361,56.6085472107,81.2852478027,1.5588991642
1647536597886741545,5,1647536597886741545,r200141368/base_front_laser_link,0,1647536597886741545,v/m1vw10zy74w/map,-9.98282741741,0.871744523552,0.165,0.0,0.0,0.594373292011,-0.804189274826,1,54.4034309387,56.241027832,81.220085144,1.65968585014
1647536598122890232,6,1647536598122890232,r200141368/base_front_laser_link,0,1647536598122890232,v/m1vw10zy74w/map,-9.8506400845,0.794307577041,0.165,0.0,0.0,0.546054149507,-0.837749882606,1,57.380645752,56.4038314819,81.1291885376,1.57511806488
1647536598201255223,7,1647536598201255223,r200141368/base_front_laser_link,0,1647536598201255223,v/m1vw10zy74w/map,-9.76961618085,0.771157479438,0.165,0.0,0.0,0.528052504515,-0.849211724175,1,59.6061630249,56.8041229248,82.3427047729,1.8461946249
1647536598359284431,8,1647536598359284431,r200141368/base_front_laser_link,0,1647536598359284431,v/m1vw10zy74w/map,-9.70335189419,0.726829433872,0.165,0.0,0.0,0.49557902638,-0.868562852425,1,59.2336082458,57.0740661621,82.7962875366,1.90740716457
1647536598674583331,9,1647536598674583331,r200141368/base_front_laser_link,0,1647536598674583331,v/m1vw10zy74w/map,-9.48788364199,0.652371904475,0.165,0.0,0.0,0.424206754142,-0.905565364698,1,54.970703125,56.8637275696,82.6158905029,1.91738629341
1647536598832395048,10,1647536598832395048,r200141368/base_front_laser_link,0,1647536598832395048,v/m1vw10zy74w/map,-9.39179883521,0.625873129405,0.165,0.0,0.0,0.388866611279,-0.921294067403,1,58.3490104675,56.9987564087,82.6186828613,1.87330853939
1647536598989286442,11,1647536598989286442,r200141368/base_front_laser_link,0,1647536598989286442,v/m1vw10zy74w/map,-9.27742594495,0.616710370835,0.165,0.0,0.0,0.35193300624,-0.936025191498,1,56.3316268921,56.9431610107,82.3326034546,1.79648184776
1647536599226130753,12,1647536599226130753,r200141368/base_front_laser_link,0,1647536599226130753,v/m1vw10zy74w/map,-9.14890152905,0.605104382012,0.165,0.0,0.0,0.299404615946,-0.954126236905,1,59.3459815979,57.1279945374,82.6617660522,1.84459233284
1647536599383344483,13,1647536599383344483,r200141368/base_front_laser_link,0,1647536599383344483,v/m1vw10zy74w/map,-9.08965205148,0.611467800263,0.165,0.0,0.0,0.264697924583,-0.964331379102,1,58.556678772,57.2300415039,82.6687240601,1.81289386749
1647536599541616986,14,1647536599541616986,r200141368/base_front_laser_link,0,1647536599541616986,v/m1vw10zy74w/map,-9.01190700384,0.619256430877,0.165,0.0,0.0,0.2277683171,-0.973715355597,1,58.160572052,57.2920761108,82.5822525024,1.76339268684
1647536599777498278,15,1647536599777498278,r200141368/base_front_laser_link,0,1647536599777498278,v/m1vw10zy74w/map,-8.87700560143,0.645580403895,0.165,0.0,0.0,0.170877085572,-0.985292353379,1,60.6177024841,57.4999275208,83.1868743896,1.89564931393
1647536599934487107,16,1647536599934487107,r200141368/base_front_laser_link,0,1647536599934487107,v/m1vw10zy74w/map,-8.79685173342,0.666073513137,0.165,0.0,0.0,0.141068111574,-0.989999892877,1,61.1034240723,57.7118988037,83.8106307983,2.03291106224
1647536600092487207,17,1647536600092487207,r200141368/base_front_laser_link,0,1647536600092487207,v/m1vw10zy74w/map,-8.7242868209,0.661149124265,0.165,0.0,0.0,0.129740482813,-0.991547985283,1,59.8617935181,57.8313369751,83.9401550293,2.03627276421
1647536600170648470,18,1647536600170648470,r200141368/base_front_laser_link,0,1647536600170648470,v/m1vw10zy74w/map,-8.68619393999,0.653458390538,0.165,0.0,0.0,0.12819315934,-0.991749219258,1,62.177230835,58.0600700378,84.7076873779,2.21587252617
1647536600328658904,19,1647536600328658904,r200141368/base_front_laser_link,0,1647536600328658904,v/m1vw10zy74w/map,-8.64721605558,0.629688235275,0.165,0.0,0.0,0.12812044106,-0.991758616087,1,64.0071868896,58.3574256897,85.9587860107,2.5337870121
1647536600406599708,20,1647536600406599708,r200141368/base_front_laser_link,0,1647536600406599708,v/m1vw10zy74w/map,-8.60961996321,0.619829473563,0.165,0.0,0.0,0.128108153809,-0.991760203339,1,65.2507095337,58.6856765747,87.360710144,2.89167904854
1647536600721661756,21,1647536600721661756,r200141368/base_front_laser_link,0,1647536600721661756,v/m1vw10zy74w/map,-8.46744784066,0.582846408453,0.165,0.0,0.0,0.126500107935,-0.991966593537,1,63.0146942139,58.8824501038,87.7897033691,2.96908426285
1647536601037306997,22,1647536601037306997,r200141368/base_front_laser_link,0,1647536601037306997,v/m1vw10zy74w/map,-8.3524258317,0.547274469152,0.165,0.0,0.0,0.124899842287,-0.992169355199,1,62.9107704163,59.0575942993,88.1175460815,3.01998281479
1647536601273649832,23,1647536601273649832,r200141368/base_front_laser_link,0,1647536601273649832,v/m1vw10zy74w/map,-8.27003768662,0.534739378634,0.165,0.0,0.0,0.122882418795,-0.992421236749,1,61.1457328796,59.1445999146,88.0971984863,2.98419857025
1647536601588920254,24,1647536601588920254,r200141368/base_front_laser_link,0,1647536601588920254,v/m1vw10zy74w/map,-8.1173561865,0.496298287006,0.165,0.0,0.0,0.122909144455,-0.992417927191,1,59.8654174805,59.1734313965,87.9481964111,2.92492127419
1647536602139694936,25,1647536602139694936,r200141368/base_front_laser_link,0,1647536602139694936,v/m1vw10zy74w/map,-7.90256024914,0.451817481138,0.165,0.0,0.0,0.11986554387,-0.992790134617,1,57.3220596313,59.1022262573,87.7684326172,2.88873457909
1647536602217855212,26,1647536602217855212,r200141368/base_front_laser_link,0,1647536602217855212,v/m1vw10zy74w/map,-7.88342431253,0.438249918742,0.165,0.0,0.0,0.118948929033,-0.992900373795,1,58.5330085754,59.0811424255,87.5854110718,2.83475494385
1647536602691121875,27,1647536602691121875,r200141368/base_front_laser_link,0,1647536602691121875,v/m1vw10zy74w/map,-7.75811585151,0.446625204825,0.165,0.0,0.0,0.0917460153688,-0.995782440428,1,60.7298088074,59.1400260925,87.5374984741,2.79915809631
1647536602849150794,28,1647536602849150794,r200141368/base_front_laser_link,0,1647536602849150794,v/m1vw10zy74w/map,-7.67553220089,0.466330435495,0.165,0.0,0.0,0.0695578429024,-0.99757792001,1,59.4016113281,59.1490440369,87.3964920044,2.749147892
1647536603242324703,29,1647536603242324703,r200141368/base_front_laser_link,0,1647536603242324703,v/m1vw10zy74w/map,-7.56797308214,0.503036059765,0.165,0.0,0.0,0.0453132977505,-0.998972824979,1,59.3282585144,59.1550178528,87.2596130371,2.7015311718
1647536603478458503,30,1647536603478458503,r200141368/base_front_laser_link,0,1647536603478458503,v/m1vw10zy74w/map,-7.45088752194,0.490526300476,0.165,0.0,0.0,0.0464852839358,-0.998918974881,1,60.8478775024,59.2096290588,87.2300338745,2.67346954346
1647536603715123762,31,1647536603715123762,r200141368/base_front_laser_link,0,1647536603715123762,v/m1vw10zy74w/map,-7.44155467668,0.518448005211,0.165,0.0,0.0,0.0394075313079,-0.999223221546,1,60.1552581787,59.2391777039,87.1450881958,2.63530278206
1647536604186302023,32,1647536604186302023,r200141368/base_front_laser_link,0,1647536604186302023,v/m1vw10zy74w/map,-7.32842466447,0.53191137403,0.165,0.0,0.0,0.0340867549663,-0.999418877716,1,60.7193450928,59.2840309143,87.103729248,2.6065659523
1647536604344118570,33,1647536604344118570,r200141368/base_front_laser_link,0,1647536604344118570,v/m1vw10zy74w/map,-7.24980021764,0.526500062309,0.165,0.0,0.0,0.0341135361679,-0.999417963942,0,58.2920150757,59.2548561096,86.9720535278,2.57240056992
1647536604738449512,34,1647536604738449512,r200141368/base_front_laser_link,0,1647536604738449512,v/m1vw10zy74w/map,-7.1312748592,0.530883989486,0.165,0.0,0.0,0.0320987096518,-0.999484703654,0,62.7899360657,59.3558578491,87.1671981812,2.60378026962
1647536604975572456,35,1647536604975572456,r200141368/base_front_laser_link,0,1647536604975572456,v/m1vw10zy74w/map,-7.02894836676,0.528406413158,0.165,0.0,0.0,0.0322277133581,-0.999480552333,0,64.2795715332,59.4926261902,87.5755996704,2.69432401657
1647536607180731496,36,1647536607180731496,r200141368/base_front_laser_link,0,1647536607180731496,v/m1vw10zy74w/map,-6.03948900877,0.494884733332,0.165,0.0,0.0,0.0541864672023,-0.998530834162,0,58.6777877808,59.4706039429,87.4506454468,2.66001462936
1647536607573890773,37,1647536607573890773,r200141368/base_front_laser_link,0,1647536607573890773,v/m1vw10zy74w/map,-5.87787604031,0.313864100511,0.165,0.0,0.0,0.148102009313,-0.988972090019,0,55.9769439697,59.3786659241,87.4316635132,2.68433308601
1647536607890350621,38,1647536607890350621,r200141368/base_front_laser_link,0,1647536607890350621,v/m1vw10zy74w/map,-5.75118821831,0.204492232351,0.165,0.0,0.0,0.189051213838,-0.981967228856,0,57.5122184753,59.3308067322,87.3275680542,2.66558551788
1647536609071926188,39,1647536609071926188,r200141368/base_front_laser_link,0,1647536609071926188,v/m1vw10zy74w/map,-5.20050234762,-0.0156292635093,0.165,0.0,0.0,0.191842740051,-0.981425678842,0,63.1700248718,59.4267883301,87.5277023315,2.70030498505
1647536609387005515,40,1647536609387005515,r200141368/base_front_laser_link,0,1647536609387005515,v/m1vw10zy74w/map,-5.05484247649,-0.0748103967099,0.165,0.0,0.0,0.19182402199,-0.981429337542,0,60.8122215271,59.4605789185,87.4858856201,2.67510199547
1647536609781078158,41,1647536609781078158,r200141368/base_front_laser_link,0,1647536609781078158,v/m1vw10zy74w/map,-4.8692650662,-0.151509056864,0.165,0.0,0.0,0.191359264594,-0.98152006187,0,59.0242614746,59.4501914978,87.3795928955,2.6431350708
1647536610175278206,42,1647536610175278206,r200141368/base_front_laser_link,0,1647536610175278206,v/m1vw10zy74w/map,-4.68098487852,-0.239032587107,0.165,0.0,0.0,0.194870031745,-0.980829073146,0,60.9344215393,59.4847068787,87.3485183716,2.62127017975
1647536610490285938,43,1647536610490285938,r200141368/base_front_laser_link,0,1647536610490285938,v/m1vw10zy74w/map,-4.53618476966,-0.292732569619,0.165,0.0,0.0,0.193061361191,-0.981186684997,0,60.4784698486,59.5072937012,87.2921142578,2.59493923187
1647536610727216337,44,1647536610727216337,r200141368/base_front_laser_link,0,1647536610727216337,v/m1vw10zy74w/map,-4.42658601831,-0.337690825683,0.165,0.0,0.0,0.193112103583,-0.981176699402,0,56.529964447,59.4411315918,87.2513122559,2.60339379311
1647536610885396690,45,1647536610885396690,r200141368/base_front_laser_link,0,1647536610885396690,v/m1vw10zy74w/map,-4.34590439806,-0.364497252959,0.165,0.0,0.0,0.191900342359,-0.98141441736,0,57.4162330627,59.3971099854,87.1717910767,2.5915594101
1647536611042256973,46,1647536611042256973,r200141368/base_front_laser_link,0,1647536611042256973,v/m1vw10zy74w/map,-4.27682627012,-0.385211013474,0.165,0.0,0.0,0.191060098185,-0.981578340675,0,58.1286125183,59.3701210022,87.0798339844,2.56990504265
1647536611278738416,47,1647536611278738416,r200141368/base_front_laser_link,0,1647536611278738416,v/m1vw10zy74w/map,-4.16743803132,-0.429544097874,0.165,0.0,0.0,0.191101767277,-0.981570229043,0,57.3173561096,59.3273544312,87.0062332153,2.55962514877
1647536611514849338,48,1647536611514849338,r200141368/base_front_laser_link,0,1647536611514849338,v/m1vw10zy74w/map,-4.05731605684,-0.476637788612,0.165,0.0,0.0,0.191041260677,-0.981582007129,0,56.1782035828,59.2630882263,86.9804840088,2.57246541977
1647536611673044083,49,1647536611673044083,r200141368/base_front_laser_link,0,1647536611673044083,v/m1vw10zy74w/map,-3.98415547431,-0.506600951272,0.165,0.0,0.0,0.191259570758,-0.98153949314,0,57.095375061,59.2197341919,86.9131393433,2.5644698143
1647536611751834842,50,1647536611751834842,r200141368/base_front_laser_link,0,1647536611751834842,v/m1vw10zy74w/map,-3.94785406549,-0.521434550197,0.165,0.0,0.0,0.19133670531,-0.981524459808,0,56.089214325,59.1583518982,86.8871383667,2.57626390457
1647536611830561056,51,1647536611830561056,r200141368/base_front_laser_link,0,1647536611830561056,v/m1vw10zy74w/map,-3.91418631133,-0.540057209155,0.165,0.0,0.0,0.190634832566,-0.981661021235,0,57.2036209106,59.1207580566,86.8164901733,2.56524372101
1647536611988017851,52,1647536611988017851,r200141368/base_front_laser_link,0,1647536611988017851,v/m1vw10zy74w/map,-3.84232139465,-0.568162409825,0.165,0.0,0.0,0.188704820487,-0.982033854164,0,58.4760780334,59.1085968018,86.7345962524,2.54200100899
1647536612066423597,53,1647536612066423597,r200141368/base_front_laser_link,0,1647536612066423597,v/m1vw10zy74w/map,-3.80586094898,-0.582718297705,0.165,0.0,0.0,0.188708496256,-0.982033147832,0,54.963848114,59.0318412781,86.7727584839,2.58030581474
1647536612223507279,54,1647536612223507279,r200141368/base_front_laser_link,0,1647536612223507279,v/m1vw10zy74w/map,-3.73301392012,-0.611750543939,0.165,0.0,0.0,0.188686733053,-0.982037329621,0,59.348400116,59.0375976562,86.707572937,2.55665874481
1647536612381023935,55,1647536612381023935,r200141368/base_front_laser_link,0,1647536612381023935,v/m1vw10zy74w/map,-3.66959949938,-0.646316787471,0.165,0.0,0.0,0.192094126592,-0.981376506,0,61.4803886414,59.0812187195,86.7439804077,2.55425453186
1647536612459643347,56,1647536612459643347,r200141368/base_front_laser_link,0,1647536612459643347,v/m1vw10zy74w/map,-3.63327067783,-0.661109803811,0.165,0.0,0.0,0.192096864988,-0.981375969984,0,60.8329124451,59.1119499207,86.7378234863,2.54195690155
1647536612773747925,57,1647536612773747925,r200141368/base_front_laser_link,0,1647536612773747925,v/m1vw10zy74w/map,-3.49772837368,-0.723100589122,0.165,0.0,0.0,0.195026001841,-0.980798072289,0,59.9025115967,59.125579834,86.6906738281,2.52169775963
1647536614428041495,58,1647536614428041495,r200141368/base_front_laser_link,0,1647536614428041495,v/m1vw10zy74w/map,-2.73951070651,-1.03003380668,0.165,0.0,0.0,0.194905129869,-0.980822099237,0,57.5169487,59.0983161926,86.6241760254,2.50862145424
1647536614822179896,59,1647536614822179896,r200141368/base_front_laser_link,0,1647536614822179896,v/m1vw10zy74w/map,-2.55117775876,-1.09732072649,0.165,0.0,0.0,0.191312857413,-0.981529108375,0,56.9950561523,59.0632591248,86.5694046021,2.50204825401
1647536615137220395,60,1647536615137220395,r200141368/base_front_laser_link,0,1647536615137220395,v/m1vw10zy74w/map,-2.4052535315,-1.15140867108,0.165,0.0,0.0,0.190225348883,-0.981740452789,0,59.2993240356,59.0671310425,86.5110168457,2.48129439354
1647536615531040504,61,1647536615531040504,r200141368/base_front_laser_link,0,1647536615531040504,v/m1vw10zy74w/map,-2.22346699069,-1.22585317138,0.165,0.0,0.0,0.190443296658,-0.98169819739,0,56.7543334961,59.0298271179,86.46484375,2.47833919525
1647536615846323565,62,1647536615846323565,r200141368/base_front_laser_link,0,1647536615846323565,v/m1vw10zy74w/map,-2.07144591348,-1.28539144288,0.165,0.0,0.0,0.190354882152,-0.981715345118,0,55.2328453064,58.9695587158,86.482711792,2.50438427925
1647536616083645029,63,1647536616083645029,r200141368/base_front_laser_link,0,1647536616083645029,v/m1vw10zy74w/map,-1.95796780058,-1.33047831878,0.165,0.0,0.0,0.191386018338,-0.981514845524,0,55.9222679138,58.9219436646,86.4623260498,2.51345944405
1647536616398434400,64,1647536616398434400,r200141368/base_front_laser_link,0,1647536616398434400,v/m1vw10zy74w/map,-1.81212099891,-1.37819757653,0.165,0.0,0.0,0.186473217073,-0.98246004464,0,52.2177886963,58.8188018799,86.7050018311,2.62873363495
1647536616793310915,65,1647536616793310915,r200141368/base_front_laser_link,0,1647536616793310915,v/m1vw10zy74w/map,-1.60532589438,-1.40752305637,0.165,0.0,0.0,0.152906210732,-0.988240704849,0,52.3996696472,58.7215423584,86.8979873657,2.725481987
1647536617345739806,66,1647536617345739806,r200141368/base_front_laser_link,0,1647536617345739806,v/m1vw10zy74w/map,-1.33103330146,-1.3744808715,0.165,0.0,0.0,0.0887692615762,-0.996052216603,0,54.4067878723,58.6571426392,86.9240722656,2.75564336777
1647536617503741719,67,1647536617503741719,r200141368/base_front_laser_link,0,1647536617503741719,v/m1vw10zy74w/map,-1.2858471525,-1.38198638848,0.165,0.0,0.0,0.0879041485372,-0.996128937774,0,52.4090499878,58.5652618408,87.0793075562,2.83801531792
1647536617740418453,68,1647536617740418453,r200141368/base_front_laser_link,0,1647536617740418453,v/m1vw10zy74w/map,-1.24871625132,-1.40342704221,0.165,0.0,0.0,0.0992531348845,-0.995062216756,0,53.4547691345,58.4911956787,87.1416015625,2.88346910477
1647536617975497841,69,1647536617975497841,r200141368/base_front_laser_link,0,1647536617975497841,v/m1vw10zy74w/map,-1.23261767847,-1.47188421274,0.165,0.0,0.0,0.141434700495,-0.989947587247,0,54.7477607727,58.4377174377,87.129486084,2.89725494385
1647536618054056098,70,1647536618054056098,r200141368/base_front_laser_link,0,1647536618054056098,v/m1vw10zy74w/map,-1.24119276437,-1.49075134016,0.165,0.0,0.0,0.158589805622,-0.987344556653,0,57.4253158569,58.4234580994,87.0604400635,2.87899398804
1647536618132596466,71,1647536618132596466,r200141368/base_front_laser_link,0,1647536618132596466,v/m1vw10zy74w/map,-1.24158436227,-1.52374609849,0.165,0.0,0.0,0.178585494516,-0.983924398086,0,54.3792266846,58.3672866821,87.0616149902,2.89810800552
1647536618289741240,72,1647536618289741240,r200141368/base_front_laser_link,0,1647536618289741240,v/m1vw10zy74w/map,-1.23002711104,-1.59381254623,0.165,0.0,0.0,0.218656917235,-0.975801799827,0,55.2131347656,58.3240814209,87.0285568237,2.90149259567
1647536618368860422,73,1647536618368860422,r200141368/base_front_laser_link,0,1647536618368860422,v/m1vw10zy74w/map,-1.22344565689,-1.63177842238,0.165,0.0,0.0,0.239245386425,-0.970959136666,0,53.4307899475,58.2579536438,87.0694351196,2.93715977669
1647536618526695659,74,1647536618526695659,r200141368/base_front_laser_link,0,1647536618526695659,v/m1vw10zy74w/map,-1.1980342206,-1.71628149466,0.165,0.0,0.0,0.281694820914,-0.959504053076,0,52.6045150757,58.1825752258,87.1507568359,2.98939442635
1647536618921075718,75,1647536618921075718,r200141368/base_front_laser_link,0,1647536618921075718,v/m1vw10zy74w/map,-1.15618721797,-1.9320736252,0.165,0.0,0.0,0.373362175776,-0.92768566104,0,56.9937171936,58.166934967,87.0845184326,2.97252821922
1647536620023056154,76,1647536620023056154,r200141368/base_front_laser_link,0,1647536620023056154,v/m1vw10zy74w/map,-1.21873397952,-2.58556423002,0.165,0.0,0.0,0.610459871007,-0.792047186657,0,57.7958297729,58.1621131897,87.0217437744,2.95321011543
1647536620338090016,77,1647536620338090016,r200141368/base_front_laser_link,0,1647536620338090016,v/m1vw10zy74w/map,-1.30252587316,-2.76026898171,0.165,0.0,0.0,0.671173044161,-0.741300711447,0,55.3798980713,58.1264457703,86.9789505005,2.95083451271
1647536620732895522,78,1647536620732895522,r200141368/base_front_laser_link,0,1647536620732895522,v/m1vw10zy74w/map,-1.4226677577,-2.9574889787,0.165,0.0,0.0,0.732097901114,-0.681199429818,0,56.9285850525,58.1112823486,86.9161453247,2.93495368958
1647536621048035065,79,1647536621048035065,r200141368/base_front_laser_link,0,1647536621048035065,v/m1vw10zy74w/map,-1.44660861636,-3.11277309196,0.165,0.0,0.0,0.739973017209,-0.672636554019,0,54.4040718079,58.0649414062,86.9018173218,2.94562530518
1647536621283397797,80,1647536621283397797,r200141368/base_front_laser_link,0,1647536621283397797,v/m1vw10zy74w/map,-1.42944699298,-3.24800047884,0.165,0.0,0.0,0.732269069683,-0.681015425365,0,53.2706184387,58.0057525635,86.9314575195,2.97523474693
1647536621440958275,81,1647536621440958275,r200141368/base_front_laser_link,0,1647536621440958275,v/m1vw10zy74w/map,-1.39873168048,-3.32606191294,0.165,0.0,0.0,0.716056679756,-0.698042141548,0,52.6578178406,57.9405326843,86.9861755371,3.01521515846
1647536624433686076,82,1647536624433686076,r200141368/base_front_laser_link,0,1647536624433686076,v/m1vw10zy74w/map,-1.33869252393,-3.93276056926,0.165,0.0,0.0,0.701452490217,-0.712716215593,0,52.4529914856,57.874420166,87.0445404053,3.0567073822
1647536624591605947,83,1647536624591605947,r200141368/base_front_laser_link,0,1647536624591605947,v/m1vw10zy74w/map,-1.33869222942,-3.93278024324,0.165,0.0,0.0,0.701452489591,-0.712716216209,0,51.4796638489,57.7982902527,87.1502609253,3.11732387543
1647536625142744853,84,1647536625142744853,r200141368/base_front_laser_link,0,1647536625142744853,v/m1vw10zy74w/map,-1.33867379971,-3.93286455368,0.165,0.0,0.0,0.701444225884,-0.712724349222,0,53.6158370972,57.7490844727,87.144317627,3.13174390793
1647536625378604834,85,1647536625378604834,r200141368/base_front_laser_link,0,1647536625378604834,v/m1vw10zy74w/map,-1.33867979284,-3.93293740216,0.165,0.0,0.0,0.701447655031,-0.712720974332,0,53.5933837891,57.7007637024,87.1368255615,3.14535307884
1647536625537881843,86,1647536625537881843,r200141368/base_front_laser_link,0,1647536625537881843,v/m1vw10zy74w/map,-1.33868400421,-3.93294691089,0.165,0.0,0.0,0.701449777835,-0.712718885098,0,54.2456130981,57.6610488892,87.1076812744,3.14887714386
1647536625852386826,87,1647536625852386826,r200141368/base_front_laser_link,0,1647536625852386826,v/m1vw10zy74w/map,-1.33868678408,-3.93293944103,0.165,0.0,0.0,0.701451068995,-0.71271761435,0,52.7064704895,57.6047477722,87.1296463013,3.17496609688
1647536626008887017,88,1647536626008887017,r200141368/base_front_laser_link,0,1647536626008887017,v/m1vw10zy74w/map,-1.33868367607,-3.93296645819,0.165,0.0,0.0,0.701449767208,-0.712718895557,0,53.1342735291,57.5545158386,87.1312408447,3.19224238396
1647536626167396376,89,1647536626167396376,r200141368/base_front_laser_link,0,1647536626167396376,v/m1vw10zy74w/map,-1.33867526431,-3.93295939182,0.165,0.0,0.0,0.701445655847,-0.712722941888,0,52.6330223083,57.4998321533,87.14894104,3.21636986732
1647536626483015014,90,1647536626483015014,r200141368/base_front_laser_link,0,1647536626483015014,v/m1vw10zy74w/map,-1.33867660298,-3.93295164055,0.165,0.0,0.0,0.701446243235,-0.712722363794,0,54.5632171631,57.4675636292,87.1072540283,3.21323156357
1647536626639926974,91,1647536626639926974,r200141368/base_front_laser_link,0,1647536626639926974,v/m1vw10zy74w/map,-1.33868224292,-3.93294710727,0.165,0.0,0.0,0.701448933017,-0.712719716557,0,53.2214546204,57.4214096069,87.0995483398,3.2260453701
1647536626798148267,92,1647536626798148267,r200141368/base_front_laser_link,0,1647536626798148267,v/m1vw10zy74w/map,-1.33868139839,-3.93292962226,0.165,0.0,0.0,0.701448393435,-0.712720247606,0,53.3620529175,57.3777618408,87.0856399536,3.23595929146
1647536627114231420,93,1647536627114231420,r200141368/base_front_laser_link,0,1647536627114231420,v/m1vw10zy74w/map,-1.33866998581,-3.93293822657,0.165,0.0,0.0,0.701442943689,-0.712725611122,0,53.0268707275,57.3314743042,87.0804214478,3.24964952469
1647536627271184802,94,1647536627271184802,r200141368/base_front_laser_link,0,1647536627271184802,v/m1vw10zy74w/map,-1.33866748656,-3.93292484805,0.165,0.0,0.0,0.701441635345,-0.712726898752,0,53.4582862854,57.2907028198,87.0606613159,3.25665307045
1647536627507388103,95,1647536627507388103,r200141368/base_front_laser_link,0,1647536627507388103,v/m1vw10zy74w/map,-1.33865724614,-3.93294430827,0.165,0.0,0.0,0.701436834063,-0.712731623979,0,53.8552780151,57.2549171448,87.0300827026,3.25838756561
1647536627744770897,96,1647536627744770897,r200141368/base_front_laser_link,0,1647536627744770897,v/m1vw10zy74w/map,-1.33865580059,-3.93294814443,0.165,0.0,0.0,0.701436166384,-0.712732281077,0,51.5999259949,57.1966209412,87.0721206665,3.29183459282
1647536627902491037,97,1647536627902491037,r200141368/base_front_laser_link,0,1647536627902491037,v/m1vw10zy74w/map,-1.33865399352,-3.93295843341,0.165,0.0,0.0,0.701435371757,-0.712733063109,0,51.253162384,57.1359710693,87.1241760254,3.32940196991
1647536628138333118,98,1647536628138333118,r200141368/base_front_laser_link,0,1647536628138333118,v/m1vw10zy74w/map,-1.33864985587,-3.93296891712,0.165,0.0,0.0,0.701433454159,-0.712734950306,0,51.9524040222,57.0836143494,87.1428833008,3.35309004784
1647536628374398883,99,1647536628374398883,r200141368/base_front_laser_link,0,1647536628374398883,v/m1vw10zy74w/map,-1.33865386069,-3.93298355476,0.165,0.0,0.0,0.701435501686,-0.71273293524,0,51.9902992249,57.0326805115,87.1569824219,3.37476873398
1647536628532700919,100,1647536628532700919,r200141368/base_front_laser_link,0,1647536628532700919,v/m1vw10zy74w/map,-1.3386535691,-3.93297357425,0.165,0.0,0.0,0.701435284752,-0.712733148734,0,51.8014717102,56.980884552,87.1747589111,3.39795804024
1647536628768790248,101,1647536628768790248,r200141368/base_front_laser_link,0,1647536628768790248,v/m1vw10zy74w/map,-1.33865845142,-3.93295976902,0.165,0.0,0.0,0.701437537023,-0.712730932159,0,52.707862854,56.9389915466,87.1613845825,3.40746355057
1647536629004316018,102,1647536629004316018,r200141368/base_front_laser_link,0,1647536629004316018,v/m1vw10zy74w/map,-1.33866152973,-3.93294923088,0.165,0.0,0.0,0.701438943044,-0.712729548413,0,52.6848258972,56.8976898193,87.1472854614,3.41653108597
1647536629241558594,103,1647536629241558594,r200141368/base_front_laser_link,0,1647536629241558594,v/m1vw10zy74w/map,-1.33865907335,-3.93293809703,0.165,0.0,0.0,0.701437670311,-0.712730800983,0,52.6713409424,56.8570518494,87.1322631836,3.42507052422
1647536629477630772,104,1647536629477630772,r200141368/base_front_laser_link,0,1647536629477630772,v/m1vw10zy74w/map,-1.33865890778,-3.93293819282,0.165,0.0,0.0,0.70143759108,-0.712730878958,0,51.5789833069,56.8067855835,87.1485748291,3.44726324081
1647536629634617219,105,1647536629634617219,r200141368/base_front_laser_link,0,1647536629634617219,v/m1vw10zy74w/map,-1.33865333563,-3.9329381149,0.165,0.0,0.0,0.701434898312,-0.712733529048,0,51.2987823486,56.7548217773,87.1716308594,3.47226929665
1647536629870493747,106,1647536629870493747,r200141368/base_front_laser_link,0,1647536629870493747,v/m1vw10zy74w/map,-1.33865405346,-3.93293382548,0.165,0.0,0.0,0.701435212164,-0.712733220171,0,52.2431907654,56.7126579285,87.1624603271,3.48326635361
1647536630028767126,107,1647536630028767126,r200141368/base_front_laser_link,0,1647536630028767126,v/m1vw10zy74w/map,-1.33865739636,-3.93292249402,0.165,0.0,0.0,0.701436739973,-0.712731716578,0,51.1120491028,56.6608009338,87.1865615845,3.50858712196
1647536630106604216,108,1647536630106604216,r200141368/base_front_laser_link,0,1647536630106604216,v/m1vw10zy74w/map,-1.33865761945,-3.93292745162,0.165,0.0,0.0,0.701436885742,-0.712731573119,0,49.7155799866,56.5970840454,87.2623825073,3.55509972572
1647536630185602499,109,1647536630185602499,r200141368/base_front_laser_link,0,1647536630185602499,v/m1vw10zy74w/map,-1.33865733948,-3.93293454421,0.165,0.0,0.0,0.701436805038,-0.712731652544,0,51.1767082214,56.5478057861,87.2766876221,3.57629394531
1647536630343670681,110,1647536630343670681,r200141368/base_front_laser_link,0,1647536630343670681,v/m1vw10zy74w/map,-1.33865064328,-3.93292782358,0.165,0.0,0.0,0.701433518152,-0.712734887327,0,52.0452003479,56.5072441101,87.263923645,3.58556127548
1647536630421582357,111,1647536630421582357,r200141368/base_front_laser_link,0,1647536630421582357,v/m1vw10zy74w/map,-1.33865043433,-3.93292771498,0.165,0.0,0.0,0.701433416346,-0.712734987518,0,50.7381591797,56.4557342529,87.2880172729,3.61076045036
1647536630500709917,112,1647536630500709917,r200141368/base_front_laser_link,0,1647536630500709917,v/m1vw10zy74w/map,-1.33865043377,-3.93292765782,0.165,0.0,0.0,0.701433415624,-0.712734988229,0,52.8221054077,56.423576355,87.2560424805,3.61082077026
1647536630974618561,113,1647536630974618561,r200141368/base_front_laser_link,0,1647536630974618561,v/m1vw10zy74w/map,-1.33866152991,-3.93292723231,0.165,0.0,0.0,0.701438773352,-0.712729715417,0,52.3383789062,56.3877410889,87.2330780029,3.61511278152
1647536631210881139,114,1647536631210881139,r200141368/base_front_laser_link,0,1647536631210881139,v/m1vw10zy74w/map,-1.33867511213,-3.93290047108,0.165,0.0,0.0,0.701445129467,-0.712723459938,0,50.0481376648,56.3326148987,87.2749633789,3.64744877815
1647536631605080196,115,1647536631605080196,r200141368/base_front_laser_link,0,1647536631605080196,v/m1vw10zy74w/map,-1.33867758277,-3.93289518473,0.165,0.0,0.0,0.701446282227,-0.712722325419,0,51.1624069214,56.2880439758,87.2774810791,3.66314578056
1647536632077302533,116,1647536632077302533,r200141368/base_front_laser_link,0,1647536632077302533,v/m1vw10zy74w/map,-1.3386671533,-3.93291221957,0.165,0.0,0.0,0.701441374514,-0.712727155453,0,52.9296913147,56.2593421936,87.2408828735,3.66051316261
1647536632392018122,117,1647536632392018122,r200141368/base_front_laser_link,0,1647536632392018122,v/m1vw10zy74w/map,-1.33866522856,-3.932898416,0.165,0.0,0.0,0.701440338238,-0.712728175318,0,52.1658630371,56.2246513367,87.2174453735,3.66426491737
1647536632549203370,118,1647536632549203370,r200141368/base_front_laser_link,0,1647536632549203370,v/m1vw10zy74w/map,-1.33866305286,-3.93286794373,0.165,0.0,0.0,0.701439052063,-0.712729441121,0,53.1004066467,56.1983947754,87.1781768799,3.65992808342
1647536632706778315,119,1647536632706778315,r200141368/base_front_laser_link,0,1647536632706778315,v/m1vw10zy74w/map,-1.33866831536,-3.93284556876,0.165,0.0,0.0,0.701441422038,-0.712727108682,0,51.4449691772,56.158782959,87.1695632935,3.67025923729
1647536633021514639,120,1647536633021514639,r200141368/base_front_laser_link,0,1647536633021514639,v/m1vw10zy74w/map,-1.33867277251,-3.93285347354,0.165,0.0,0.0,0.701443636313,-0.712724929462,0,51.7099266052,56.1220169067,87.1537475586,3.67724347115
1647536633179427265,121,1647536633179427265,r200141368/base_front_laser_link,0,1647536633179427265,v/m1vw10zy74w/map,-1.33867397583,-3.93285441069,0.165,0.0,0.0,0.701444224931,-0.71272435016,0,49.2835884094,56.0659637451,87.2079162598,3.71398425102
1647536633336252316,122,1647536633336252316,r200141368/base_front_laser_link,0,1647536633336252316,v/m1vw10zy74w/map,-1.33867891543,-3.93286180282,0.165,0.0,0.0,0.701446668397,-0.712721945358,0,50.2208747864,56.0184440613,87.2267150879,3.73609161377
1647536633652317861,123,1647536633652317861,r200141368/base_front_laser_link,0,1647536633652317861,v/m1vw10zy74w/map,-1.33868043843,-3.93288708501,0.165,0.0,0.0,0.701447599037,-0.712721029439,0,49.8551864624,55.9687385559,87.2541732788,3.76181268692
1647536633809284745,124,1647536633809284745,r200141368/base_front_laser_link,0,1647536633809284745,v/m1vw10zy74w/map,-1.33868171515,-3.93288188254,0.165,0.0,0.0,0.701448175825,-0.712720461774,0,48.8664855957,55.9119224548,87.3121795654,3.80008530617
1647536633965484878,125,1647536633965484878,r200141368/base_front_laser_link,0,1647536633965484878,v/m1vw10zy74w/map,-1.33867883859,-3.93286654835,0.165,0.0,0.0,0.701446667908,-0.712721945839,0,49.2859840393,55.8593330383,87.3511581421,3.8306081295
1647536634280562446,126,1647536634280562446,r200141368/base_front_laser_link,0,1647536634280562446,v/m1vw10zy74w/map,-1.33867863458,-3.93287528064,0.165,0.0,0.0,0.701446636589,-0.712721976663,0,49.0955467224,55.8060760498,87.3929672241,3.86229586601
1647536634437415941,127,1647536634437415941,r200141368/base_front_laser_link,0,1647536634437415941,v/m1vw10zy74w/map,-1.33868051405,-3.93286635727,0.165,0.0,0.0,0.701447475907,-0.712721150622,0,49.3674125671,55.7557754517,87.4225540161,3.88892626762
1647536634595404747,128,1647536634595404747,r200141368/base_front_laser_link,0,1647536634595404747,v/m1vw10zy74w/map,-1.33867808935,-3.93285576279,0.165,0.0,0.0,0.701446222816,-0.71272238389,0,49.4397010803,55.7068138123,87.4470672607,3.91341805458
1647536634830567432,129,1647536634830567432,r200141368/base_front_laser_link,0,1647536634830567432,v/m1vw10zy74w/map,-1.33867789029,-3.93286127498,0.165,0.0,0.0,0.701446169094,-0.712722436761,0,49.6392936707,55.6601371765,87.4632644653,3.93437552452
1647536635066502588,130,1647536635066502588,r200141368/base_front_laser_link,0,1647536635066502588,v/m1vw10zy74w/map,-1.33867285566,-3.93285150946,0.165,0.0,0.0,0.701443661412,-0.71272490476,0,49.5225372314,55.6132888794,87.4804763794,3.95572972298
1647536635225491598,131,1647536635225491598,r200141368/base_front_laser_link,0,1647536635225491598,v/m1vw10zy74w/map,-1.33867727826,-3.93284054119,0.165,0.0,0.0,0.701445713613,-0.712722885036,0,49.4570655823,55.5666503906,87.4972457886,3.97686600685
1647536635539011022,132,1647536635539011022,r200141368/base_front_laser_link,0,1647536635539011022,v/m1vw10zy74w/map,-1.33867081792,-3.93285607291,0.165,0.0,0.0,0.701442712064,-0.71272583908,0,48.4763946533,55.5133399963,87.5409164429,4.00919342041
1647536635776646155,133,1647536635776646155,r200141368/base_front_laser_link,0,1647536635776646155,v/m1vw10zy74w/map,-1.33867247542,-3.9328733222,0.165,0.0,0.0,0.701443645824,-0.712724920101,0,49.4226799011,55.4678878784,87.5536880493,4.02859973907
1647536635933151672,134,1647536635933151672,r200141368/base_front_laser_link,0,1647536635933151672,v/m1vw10zy74w/map,-1.33867327815,-3.93287234297,0.165,0.0,0.0,0.701444026115,-0.712724545829,0,49.7278594971,55.4253692627,87.556854248,4.04382944107
1647536636011729811,135,1647536636011729811,r200141368/base_front_laser_link,0,1647536636011729811,v/m1vw10zy74w/map,-1.33867347072,-3.93286326629,0.165,0.0,0.0,0.701444049194,-0.712724523115,0,48.5884361267,55.3750953674,87.5888671875,4.07125663757
1647536636168795365,136,1647536636168795365,r200141368/base_front_laser_link,0,1647536636168795365,v/m1vw10zy74w/map,-1.33866951371,-3.93287915297,0.165,0.0,0.0,0.70144225986,-0.712726284125,0,49.9248046875,55.3353118896,87.5840148926,4.08290147781
1647536636326934558,137,1647536636326934558,r200141368/base_front_laser_link,0,1647536636326934558,v/m1vw10zy74w/map,-1.33867489388,-3.93286585874,0.165,0.0,0.0,0.701444756768,-0.71272382674,0,49.0575141907,55.2898216248,87.5985946655,4.10292434692
1647536636483804060,138,1647536636483804060,r200141368/base_front_laser_link,0,1647536636483804060,v/m1vw10zy74w/map,-1.33868010131,-3.93288436278,0.165,0.0,0.0,0.701447415293,-0.712721210277,0,49.9249382019,55.2512245178,87.5910644531,4.11327934265
1647536636877885584,139,1647536636877885584,r200141368/base_front_laser_link,0,1647536636877885584,v/m1vw10zy74w/map,-1.33867484747,-3.93293160285,0.165,0.0,0.0,0.701445240872,-0.712723350296,0,48.6622505188,55.2041625977,87.6125106812,4.13611555099
1647536637271297218,140,1647536637271297218,r200141368/base_front_laser_link,0,1647536637271297218,v/m1vw10zy74w/map,-1.33868260551,-3.93293601831,0.165,0.0,0.0,0.701449023134,-0.712719627865,0,49.279586792,55.1621437073,87.6163711548,4.15140914917
1647536637587658665,141,1647536637587658665,r200141368/base_front_laser_link,0,1647536637587658665,v/m1vw10zy74w/map,-1.33868942616,-3.93294577344,0.165,0.0,0.0,0.701452393549,-0.712716310732,0,49.673084259,55.1234855652,87.6101760864,4.16222906113
1647536637981395978,142,1647536637981395978,r200141368/base_front_laser_link,0,1647536637981395978,v/m1vw10zy74w/map,-1.33869316851,-3.93295697055,0.165,0.0,0.0,0.701454287783,-0.71271444643,0,49.9904594421,55.0875930786,87.5966949463,4.16970014572
1647536638295081655,143,1647536638295081655,r200141368/base_front_laser_link,0,1647536638295081655,v/m1vw10zy74w/map,-1.33869214814,-3.9329683094,0.165,0.0,0.0,0.701453882043,-0.71271484576,0,50.8789024353,55.0583648682,87.5679779053,4.16987133026
1647536638610223141,144,1647536638610223141,r200141368/base_front_laser_link,0,1647536638610223141,v/m1vw10zy74w/map,-1.33869394406,-3.93297785866,0.165,0.0,0.0,0.701454823205,-0.712713919467,0,51.452671051,55.0334968567,87.5319213867,4.16614198685
1647536638767420447,145,1647536638767420447,r200141368/base_front_laser_link,0,1647536638767420447,v/m1vw10zy74w/map,-1.33869800791,-3.93296650731,0.165,0.0,0.0,0.701456699262,-0.712712073042,0,52.0670967102,55.0131797791,87.4901885986,4.15900325775
1647536638925632339,146,1647536638925632339,r200141368/base_front_laser_link,0,1647536638925632339,v/m1vw10zy74w/map,-1.3386995649,-3.93296036183,0.165,0.0,0.0,0.701457404232,-0.712711379205,0,52.443687439,54.9957008362,87.4461517334,4.15015029907
1647536639239550649,147,1647536639239550649,r200141368/base_front_laser_link,0,1647536639239550649,v/m1vw10zy74w/map,-1.33869516827,-3.9329713101,0.165,0.0,0.0,0.701455364272,-0.712713386947,0,52.6805076599,54.9800567627,87.4012145996,4.14038610458
1647536639397362686,148,1647536639397362686,r200141368/base_front_laser_link,0,1647536639397362686,v/m1vw10zy74w/map,-1.3386980041,-3.93295182402,0.165,0.0,0.0,0.701456584485,-0.712712186007,0,52.8219795227,54.9655723572,87.3560562134,4.13016033173
1647536639554352304,149,1647536639554352304,r200141368/base_front_laser_link,0,1647536639554352304,v/m1vw10zy74w/map,-1.33870078249,-3.93292338341,0.165,0.0,0.0,0.7014577081,-0.712711080135,0,53.4791908264,54.9556655884,87.3098602295,4.11806583405
1647536639790452881,150,1647536639790452881,r200141368/base_front_laser_link,0,1647536639790452881,v/m1vw10zy74w/map,-1.33869737696,-3.93291951496,0.165,0.0,0.0,0.701456032997,-0.712712728785,0,52.1463661194,54.9370613098,87.2690963745,4.11067819595
1647536640027060403,151,1647536640027060403,r200141368/base_front_laser_link,0,1647536640027060403,v/m1vw10zy74w/map,-1.33870266476,-3.9329089586,0.165,0.0,0.0,0.701458506533,-0.712710294308,0,53.3127479553,54.9263725281,87.2238616943,4.09916210175
1647536640184482619,152,1647536640184482619,r200141368/base_front_laser_link,0,1647536640184482619,v/m1vw10zy74w/map,-1.33869475778,-3.93291703289,0.165,0.0,0.0,0.701454748501,-0.712713992991,0,51.047958374,54.9010238647,87.1940307617,4.09766960144
1647536640420750346,153,1647536640420750346,r200141368/base_front_laser_link,0,1647536640420750346,v/m1vw10zy74w/map,-1.33868621206,-3.93292850951,0.165,0.0,0.0,0.701450708056,-0.712717969584,0,51.845993042,54.881187439,87.1561965942,4.09166908264
1647536640656593539,154,1647536640656593539,r200141368/base_front_laser_link,0,1647536640656593539,v/m1vw10zy74w/map,-1.33868962799,-3.93291770364,0.165,0.0,0.0,0.701452275238,-0.712716427174,0,52.4788703918,54.865688324,87.1144638062,4.08292531967
1647536640893490349,155,1647536640893490349,r200141368/base_front_laser_link,0,1647536640893490349,v/m1vw10zy74w/map,-1.33869916852,-3.93290025319,0.165,0.0,0.0,0.701456750319,-0.712712022791,0,51.7459030151,54.8456878662,87.0778656006,4.07739114761
1647536641049944174,156,1647536641049944174,r200141368/base_front_laser_link,0,1647536641049944174,v/m1vw10zy74w/map,-1.33870338876,-3.93290749791,0.165,0.0,0.0,0.701458845007,-0.712709961177,0,51.3506393433,54.8234291077,87.0450134277,4.07386207581
1647536641287981813,157,1647536641287981813,r200141368/base_front_laser_link,0,1647536641287981813,v/m1vw10zy74w/map,-1.33870888961,-3.93290650699,0.165,0.0,0.0,0.701461495002,-0.712707353007,0,51.123462677,54.8000106812,87.0145721436,4.07152175903
1647536641602053693,158,1647536641602053693,r200141368/base_front_laser_link,0,1647536641602053693,v/m1vw10zy74w/map,-1.33871314403,-3.93292717099,0.165,0.0,0.0,0.70146370922,-0.71270517372,0,50.469619751,54.7727737427,86.9921340942,4.07312011719
1647536641838734294,159,1647536641838734294,r200141368/base_front_laser_link,0,1647536641838734294,v/m1vw10zy74w/map,-1.33870969431,-3.9329506559,0.165,0.0,0.0,0.701462222994,-0.7127066365,0,50.4465904236,54.7457351685,86.9697494507,4.07467031479
1647536641917150022,160,1647536641917150022,r200141368/base_front_laser_link,0,1647536641917150022,v/m1vw10zy74w/map,-1.33870842624,-3.93294924265,0.165,0.0,0.0,0.701461599494,-0.712707250164,0,50.2289886475,54.7176818848,86.9501342773,4.07748508453
1647536642075811989,161,1647536642075811989,r200141368/base_front_laser_link,0,1647536642075811989,v/m1vw10zy74w/map,-1.3387065991,-3.9329590986,0.165,0.0,0.0,0.701460792478,-0.712708044445,0,51.4894104004,54.6977539062,86.9158782959,4.07270812988
1647536642232985732,162,1647536642232985732,r200141368/base_front_laser_link,0,1647536642232985732,v/m1vw10zy74w/map,-1.3387056796,-3.93294109479,0.165,0.0,0.0,0.701460209884,-0.712708617845,0,53.2375106812,54.6887969971,86.8739852905,4.06172943115
1647536642390042327,163,1647536642390042327,r200141368/base_front_laser_link,0,1647536642390042327,v/m1vw10zy74w/map,-1.33870409594,-3.93294715842,0.165,0.0,0.0,0.701459491365,-0.712709325023,0,53.2185783386,54.6798324585,86.8324661255,4.05087804794
1647536642547998275,164,1647536642547998275,r200141368/base_front_laser_link,0,1647536642547998275,v/m1vw10zy74w/map,-1.33870885104,-3.93293970527,0.165,0.0,0.0,0.701461731413,-0.712707120326,0,50.1656227112,54.6524734497,86.8137817383,4.05377054214
1647536642863148348,165,1647536642863148348,r200141368/base_front_laser_link,0,1647536642863148348,v/m1vw10zy74w/map,-1.33871948707,-3.93293049163,0.165,0.0,0.0,0.701466799257,-0.712702132409,0,50.4135856628,54.6269378662,86.7914505005,4.05483722687
1647536643178283378,166,1647536643178283378,r200141368/base_front_laser_link,0,1647536643178283378,v/m1vw10zy74w/map,-1.33871456879,-3.93292887919,0.165,0.0,0.0,0.701464410722,-0.712704483282,0,52.2770957947,54.612865448,86.7529449463,4.04669284821
1647536643493315233,167,1647536643493315233,r200141368/base_front_laser_link,0,1647536643493315233,v/m1vw10zy74w/map,-1.33871964586,-3.93296941238,0.165,0.0,0.0,0.701467174877,-0.712701762711,0,50.1126289368,54.5860786438,86.7344894409,4.04947042465
1647536643887419266,168,1647536643887419266,r200141368/base_front_laser_link,0,1647536643887419266,v/m1vw10zy74w/map,-1.3387038169,-3.93299450377,0.165,0.0,0.0,0.701459720116,-0.712709099882,0,50.9872817993,54.5647850037,86.7054214478,4.04688024521
1647536644123252460,169,1647536644123252460,r200141368/base_front_laser_link,0,1647536644123252460,v/m1vw10zy74w/map,-1.3387106847,-3.93298233752,0.165,0.0,0.0,0.701462944664,-0.712705926216,0,50.6198768616,54.5415802002,86.680229187,4.04621744156
1647536644596196676,170,1647536644596196676,r200141368/base_front_laser_link,0,1647536644596196676,v/m1vw10zy74w/map,-1.33870468757,-3.93300138609,0.165,0.0,0.0,0.701460193649,-0.712708633823,0,50.9764442444,54.5207290649,86.6512298584,4.04350090027
1647536644991396817,171,1647536644991396817,r200141368/base_front_laser_link,0,1647536644991396817,v/m1vw10zy74w/map,-1.33869579132,-3.93303145354,0.165,0.0,0.0,0.70145612675,-0.712712636512,0,52.0557975769,54.506401062,86.6145172119,4.03603887558
1647536645306425704,172,1647536645306425704,r200141368/base_front_laser_link,0,1647536645306425704,v/m1vw10zy74w/map,-1.33869251462,-3.93304272359,0.165,0.0,0.0,0.701454630364,-0.712714109262,0,50.1886253357,54.4814414978,86.5944061279,4.03765630722
1647536645621307765,173,1647536645621307765,r200141368/base_front_laser_link,0,1647536645621307765,v/m1vw10zy74w/map,-1.33868679248,-3.93304446172,0.165,0.0,0.0,0.701451879156,-0.712716816995,0,51.3805885315,54.4636192322,86.5621032715,4.03282690048
1647536645858535955,174,1647536645858535955,r200141368/base_front_laser_link,0,1647536645858535955,v/m1vw10zy74w/map,-1.33868679275,-3.9330434721,0.165,0.0,0.0,0.701451871664,-0.712716824369,0,50.7254676819,54.4422607422,86.5356750488,4.03113794327
1647536646015552716,175,1647536646015552716,r200141368/base_front_laser_link,0,1647536646015552716,v/m1vw10zy74w/map,-1.33868679444,-3.9330433659,0.165,0.0,0.0,0.701451871664,-0.712716824369,0,49.2399253845,54.4127006531,86.5287628174,4.03868675232
1647536646173608829,176,1647536646173608829,r200141368/base_front_laser_link,0,1647536646173608829,v/m1vw10zy74w/map,-1.33868679489,-3.93304333777,0.165,0.0,0.0,0.701451871664,-0.712716824369,0,49.2918205261,54.383769989,86.5204162598,4.0455493927
1647536646488810080,177,1647536646488810080,r200141368/base_front_laser_link,0,1647536646488810080,v/m1vw10zy74w/map,-1.33869089785,-3.933050784,0.165,0.0,0.0,0.701453911249,-0.712714817015,0,49.930065155,54.3587493896,86.5024261475,4.04789304733
1647536646646014144,178,1647536646646014144,r200141368/base_front_laser_link,0,1647536646646014144,v/m1vw10zy74w/map,-1.33869258351,-3.9330436886,0.165,0.0,0.0,0.701454671049,-0.712714069219,0,50.0132026672,54.3344726562,86.4831314087,4.04955339432
1647536646882613538,179,1647536646882613538,r200141368/base_front_laser_link,0,1647536646882613538,v/m1vw10zy74w/map,-1.33869487437,-3.93305278263,0.165,0.0,0.0,0.70145584781,-0.712712911047,0,51.8072967529,54.3204307556,86.4482803345,4.04261636734
1647536647119033882,180,1647536647119033882,r200141368/base_front_laser_link,0,1647536647119033882,v/m1vw10zy74w/map,-1.33869603595,-3.93305007493,0.165,0.0,0.0,0.701456388176,-0.712712379215,0,51.0065383911,54.3021240234,86.4187927246,4.03888940811
1647536647277541135,181,1647536647277541135,r200141368/base_front_laser_link,0,1647536647277541135,v/m1vw10zy74w/map,-1.33869672906,-3.93305851188,0.165,0.0,0.0,0.701456787931,-0.712711985773,0,50.285446167,54.2800521851,86.3961715698,4.03870630264
1647536647591017365,182,1647536647591017365,r200141368/base_front_laser_link,0,1647536647591017365,v/m1vw10zy74w/map,-1.33869761784,-3.93308468196,0.165,0.0,0.0,0.701457418579,-0.712711365084,0,52.4379997253,54.2699890137,86.3596801758,4.02989721298
1647536647749181695,183,1647536647749181695,r200141368/base_front_laser_link,0,1647536647749181695,v/m1vw10zy74w/map,-1.33869922761,-3.93307595628,0.165,0.0,0.0,0.701458129209,-0.712710665675,0,52.1134223938,54.258266449,86.3243103027,4.02201461792
1647536647984994621,184,1647536647984994621,r200141368/base_front_laser_link,0,1647536647984994621,v/m1vw10zy74w/map,-1.33869491556,-3.93309428112,0.165,0.0,0.0,0.70145618683,-0.712712577381,0,51.0974884033,54.2411804199,86.2945709229,4.01779651642
1647536648142731006,185,1647536648142731006,r200141368/base_front_laser_link,0,1647536648142731006,v/m1vw10zy74w/map,-1.3386945213,-3.93309539708,0.165,0.0,0.0,0.701456004939,-0.7127127564,0,51.2395477295,54.2250442505,86.2639312744,4.01296281815
1647536648220994713,186,1647536648220994713,r200141368/base_front_laser_link,0,1647536648220994713,v/m1vw10zy74w/map,-1.33869376432,-3.93309976512,0.165,0.0,0.0,0.701455672813,-0.71271308328,0,50.3140945435,54.2041282654,86.2412261963,4.0123667717
1647536648379007118,187,1647536648379007118,r200141368/base_front_laser_link,0,1647536648379007118,v/m1vw10zy74w/map,-1.33869154671,-3.93310562275,0.165,0.0,0.0,0.701454646473,-0.712714093407,0,51.0417633057,54.1873092651,86.2121047974,4.00826501846
1647536648537052127,188,1647536648537052127,r200141368/base_front_laser_link,0,1647536648537052127,v/m1vw10zy74w/map,-1.33869393621,-3.93311538334,0.165,0.0,0.0,0.701455876012,-0.71271288329,0,50.6162223816,54.1684150696,86.1864776611,4.0060210228
1647536648931226224,189,1647536648931226224,r200141368/base_front_laser_link,0,1647536648931226224,v/m1vw10zy74w/map,-1.33870261058,-3.93309973663,0.165,0.0,0.0,0.701459946543,-0.712708877028,0,49.0293464661,54.1413650513,86.1796646118,4.01276636124
1647536649246386352,190,1647536649246386352,r200141368/base_front_laser_link,0,1647536649246386352,v/m1vw10zy74w/map,-1.33870868558,-3.93310471868,0.165,0.0,0.0,0.701462919816,-0.712705950672,0,51.0984535217,54.1254348755,86.1501693726,4.00824451447
1647536650584773338,191,1647536650584773338,r200141368/base_front_laser_link,0,1647536650584773338,v/m1vw10zy74w/map,-1.33869671278,-3.93307337081,0.165,0.0,0.0,0.701456894269,-0.712711881115,0,48.3465309143,54.0953369141,86.1536331177,4.01943302155
1647536653498205624,192,1647536653498205624,r200141368/base_front_laser_link,0,1647536653498205624,v/m1vw10zy74w/map,-1.33871639086,-3.93310413518,0.165,0.0,0.0,0.701466637402,-0.712702291712,0,48.523525238,54.0664672852,86.1533584595,4.0289645195
1647536653734932171,193,1647536653734932171,r200141368/base_front_laser_link,0,1647536653734932171,v/m1vw10zy74w/map,-1.33871884045,-3.93310955263,0.165,0.0,0.0,0.701467862466,-0.712701085959,0,48.7972145081,54.0393066406,86.148147583,4.03628110886
1647536653969894090,194,1647536653969894090,r200141368/base_front_laser_link,0,1647536653969894090,v/m1vw10zy74w/map,-1.33870895095,-3.93312630261,0.165,0.0,0.0,0.701463213177,-0.712705661938,0,49.1967926025,54.0144729614,86.1367874146,4.04077291489
1647536654127004964,195,1647536654127004964,r200141368/base_front_laser_link,0,1647536654127004964,v/m1vw10zy74w/map,-1.33871202886,-3.93313171699,0.165,0.0,0.0,0.701464741797,-0.712704157428,0,48.0164070129,53.98387146,86.1431884766,4.05310583115
1647536654206035390,196,1647536654206035390,r200141368/base_front_laser_link,0,1647536654206035390,v/m1vw10zy74w/map,-1.33871433804,-3.93314569339,0.165,0.0,0.0,0.701465964764,-0.712702953746,0,48.8342514038,53.9577293396,86.1358337402,4.05936765671
1647536654362942893,197,1647536654362942893,r200141368/base_front_laser_link,0,1647536654362942893,v/m1vw10zy74w/map,-1.33871232392,-3.93315649734,0.165,0.0,0.0,0.70146507464,-0.712703829834,0,50.2606315613,53.9390563965,86.1117553711,4.0575671196
1647536654442139965,198,1647536654442139965,r200141368/base_front_laser_link,0,1647536654442139965,v/m1vw10zy74w/map,-1.33871131413,-3.93315752695,0.165,0.0,0.0,0.701464594693,-0.712704302212,0,49.8488578796,53.9185028076,86.091545105,4.05768013
1647536654521107955,199,1647536654521107955,r200141368/base_front_laser_link,0,1647536654521107955,v/m1vw10zy74w/map,-1.3387082416,-3.93317152563,0.165,0.0,0.0,0.70146321778,-0.712705657408,0,50.2299003601,53.9000587463,86.0676651001,4.05586719513
1647536655072196801,200,1647536655072196801,r200141368/base_front_laser_link,0,1647536655072196801,v/m1vw10zy74w/map,-1.33869538106,-3.93321110661,0.165,0.0,0.0,0.70145730867,-0.712711473258,0,51.0253829956,53.8857574463,86.0381393433,4.05079317093
1647536655308057648,201,1647536655308057648,r200141368/base_front_laser_link,0,1647536655308057648,v/m1vw10zy74w/map,-1.33869611505,-3.93321071999,0.165,0.0,0.0,0.701457660313,-0.712711127168,0,50.6017379761,53.8694992065,86.0114135742,4.04730510712
1647536655466161555,202,1647536655466161555,r200141368/base_front_laser_link,0,1647536655466161555,v/m1vw10zy74w/map,-1.33869611575,-3.933210676,0.165,0.0,0.0,0.701457660313,-0.712711127168,0,50.0156784058,53.8505172729,85.9894943237,4.04632520676
1647536655623351125,203,1647536655623351125,r200141368/base_front_laser_link,0,1647536655623351125,v/m1vw10zy74w/map,-1.33869822304,-3.93321984502,0.165,0.0,0.0,0.70145874892,-0.712710055748,0,47.9132118225,53.8214111328,85.9944992065,4.05769586563
1647536655938350247,204,1647536655938350247,r200141368/base_front_laser_link,0,1647536655938350247,v/m1vw10zy74w/map,-1.33870201716,-3.93321115479,0.165,0.0,0.0,0.701460515168,-0.712708317378,0,48.4997634888,53.7954521179,85.9897537231,4.06476688385
1647536656096642487,205,1647536656096642487,r200141368/base_front_laser_link,0,1647536656096642487,v/m1vw10zy74w/map,-1.33870202265,-3.93321085413,0.165,0.0,0.0,0.701460515511,-0.712708317041,0,49.4146842957,53.7741889954,85.9731216431,4.06631231308
1647536656332634056,206,1647536656332634056,r200141368/base_front_laser_link,0,1647536656332634056,v/m1vw10zy74w/map,-1.33869084359,-3.93320959713,0.165,0.0,0.0,0.701455104896,-0.712713642226,0,50.6242828369,53.758972168,85.9459762573,4.06233453751
1647536656489531368,207,1647536656489531368,r200141368/base_front_laser_link,0,1647536656489531368,v/m1vw10zy74w/map,-1.33869065865,-3.93319498274,0.165,0.0,0.0,0.701454903134,-0.712713840801,0,52.0724029541,53.7508621216,85.9134521484,4.05419683456
1647536656726455663,208,1647536656726455663,r200141368/base_front_laser_link,0,1647536656726455663,v/m1vw10zy74w/map,-1.33869336774,-3.93319532643,0.165,0.0,0.0,0.701456214637,-0.712712550014,0,50.1969680786,53.7338562012,85.8895645142,4.05190372467
1647536656962491170,209,1647536656962491170,r200141368/base_front_laser_link,0,1647536656962491170,v/m1vw10zy74w/map,-1.33868781559,-3.93319977554,0.165,0.0,0.0,0.701453566429,-0.712715156387,0,50.7825965881,53.7198028564,85.8617782593,4.04732561111
1647536657120699162,210,1647536657120699162,r200141368/base_front_laser_link,0,1647536657120699162,v/m1vw10zy74w/map,-1.33868967188,-3.93321779291,0.165,0.0,0.0,0.70145460191,-0.712714137266,0,52.5735778809,53.7143707275,85.8297195435,4.03844833374
1647536657434814973,211,1647536657434814973,r200141368/base_front_laser_link,0,1647536657434814973,v/m1vw10zy74w/map,-1.33869240579,-3.93322872573,0.165,0.0,0.0,0.701456006852,-0.712712754517,0,52.4822387695,53.7085609436,85.7978286743,4.02975606918
1647536657591899553,212,1647536657591899553,r200141368/base_front_laser_link,0,1647536657591899553,v/m1vw10zy74w/map,-1.33868904857,-3.93322956022,0.165,0.0,0.0,0.701454391288,-0.712714344561,0,51.5406150818,53.6983833313,85.7673339844,4.02298402786
1647536657829174834,213,1647536657829174834,r200141368/base_front_laser_link,0,1647536657829174834,v/m1vw10zy74w/map,-1.33869667909,-3.93319328923,0.165,0.0,0.0,0.70145779887,-0.712710990798,0,52.0063743591,53.6904754639,85.7360610962,4.01519536972
1647536657986638768,214,1647536657986638768,r200141368/base_front_laser_link,0,1647536657986638768,v/m1vw10zy74w/map,-1.33869226795,-3.93320741678,0.165,0.0,0.0,0.70145577636,-0.712712981368,0,52.2564315796,53.6838035583,85.7047958374,4.00699710846
1647536658222588552,215,1647536658222588552,r200141368/base_front_laser_link,0,1647536658222588552,v/m1vw10zy74w/map,-1.33869433195,-3.93320518145,0.165,0.0,0.0,0.701456756358,-0.712712016848,0,51.2707176208,53.6726341248,85.675743103,4.00103807449
1647536658458756734,216,1647536658458756734,r200141368/base_front_laser_link,0,1647536658458756734,v/m1vw10zy74w/map,-1.3386983409,-3.93320151786,0.165,0.0,0.0,0.701458665041,-0.712710138302,0,52.4100646973,53.6668167114,85.6448745728,3.99268555641
1647536658616636037,217,1647536658616636037,r200141368/base_front_laser_link,0,1647536658616636037,v/m1vw10zy74w/map,-1.33869663355,-3.93319098423,0.165,0.0,0.0,0.701457759174,-0.712711029868,0,53.0577354431,53.6640205383,85.6150894165,3.98368883133
1647536658852071650,218,1647536658852071650,r200141368/base_front_laser_link,0,1647536658852071650,v/m1vw10zy74w/map,-1.33868874399,-3.93321741806,0.165,0.0,0.0,0.701454150763,-0.712714581285,0,52.591003418,53.659122467,85.5847320557,3.97520256042
1647536659088723364,219,1647536659088723364,r200141368/base_front_laser_link,0,1647536659088723364,v/m1vw10zy74w/map,-1.33868721877,-3.9332202169,0.165,0.0,0.0,0.701453435426,-0.71271528532,0,53.296421051,53.6574745178,85.5560455322,3.96619176865
1647536659245891510,220,1647536659245891510,r200141368/base_front_laser_link,0,1647536659245891510,v/m1vw10zy74w/map,-1.33868713843,-3.93322116495,0.165,0.0,0.0,0.701453403909,-0.712715316339,0,52.0965080261,53.6504096985,85.5260925293,3.95856046677
1647536659482934048,221,1647536659482934048,r200141368/base_front_laser_link,0,1647536659482934048,v/m1vw10zy74w/map,-1.33868584201,-3.93322747907,0.165,0.0,0.0,0.70145282615,-0.712715884968,0,52.3721847534,53.6446533203,85.4962310791,3.95052576065
1647536659639891144,222,1647536659639891144,r200141368/base_front_laser_link,0,1647536659639891144,v/m1vw10zy74w/map,-1.33868550467,-3.93322322299,0.165,0.0,0.0,0.701452630411,-0.712716077614,0,51.366519928,53.634437561,85.4681472778,3.94456934929
1647536659877083504,223,1647536659877083504,r200141368/base_front_laser_link,0,1647536659877083504,v/m1vw10zy74w/map,-1.33868394324,-3.93323101365,0.165,0.0,0.0,0.701451935993,-0.712716761057,0,50.6179275513,53.620967865,85.4435882568,3.9408724308
1647536659955867842,224,1647536659955867842,r200141368/base_front_laser_link,0,1647536659955867842,v/m1vw10zy74w/map,-1.33868427035,-3.93322947693,0.165,0.0,0.0,0.701452082201,-0.71271661716,0,49.6783180237,53.6034469604,85.4259719849,3.94084119797
1647536660034013165,225,1647536660034013165,r200141368/base_front_laser_link,0,1647536660034013165,v/m1vw10zy74w/map,-1.33868661695,-3.93322208841,0.165,0.0,0.0,0.701453159058,-0.712715557321,0,49.4801063538,53.5852012634,85.4100875854,3.94162845612
1647536660113129417,226,1647536660113129417,r200141368/base_front_laser_link,0,1647536660113129417,v/m1vw10zy74w/map,-1.33868784392,-3.93320053987,0.165,0.0,0.0,0.701453586005,-0.712715137121,0,49.8170890808,53.5686035156,85.39112854,3.94084239006
1647536660271044893,227,1647536660271044893,r200141368/base_front_laser_link,0,1647536660271044893,v/m1vw10zy74w/map,-1.33869110006,-3.93319159298,0.165,0.0,0.0,0.701455090339,-0.712713656553,0,51.6930618286,53.5603752136,85.3627166748,3.93411397934
1647536660428038559,228,1647536660428038559,r200141368/base_front_laser_link,0,1647536660428038559,v/m1vw10zy74w/map,-1.33868740245,-3.93319971044,0.165,0.0,0.0,0.701453366354,-0.712715353301,0,52.0173606873,53.5536384583,85.3340377808,3.92680120468
1647536660585206052,229,1647536660585206052,r200141368/base_front_laser_link,0,1647536660585206052,v/m1vw10zy74w/map,-1.33868738769,-3.93319995954,0.165,0.0,0.0,0.701453361141,-0.712715358432,0,50.7735557556,53.5415496826,85.3090591431,3.92250370979
1647536660980054036,230,1647536660980054036,r200141368/base_front_laser_link,0,1647536660980054036,v/m1vw10zy74w/map,-1.33868125353,-3.93322056007,0.165,0.0,0.0,0.70145055607,-0.712718119167,0,50.0493850708,53.5264320374,85.2885513306,3.92070555687
1647536661294109254,231,1647536661294109254,r200141368/base_front_laser_link,0,1647536661294109254,v/m1vw10zy74w/map,-1.33867982752,-3.93322254585,0.165,0.0,0.0,0.701449882395,-0.712718782191,0,49.3191223145,53.5082969666,85.2741470337,3.9219493866
1647536661688165053,232,1647536661688165053,r200141368/base_front_laser_link,0,1647536661688165053,v/m1vw10zy74w/map,-1.33868736643,-3.9332000421,0.165,0.0,0.0,0.701453351486,-0.712715367934,0,49.6926803589,53.4919204712,85.2563095093,3.92146277428
1647536662003465275,233,1647536662003465275,r200141368/base_front_laser_link,0,1647536662003465275,v/m1vw10zy74w/map,-1.33867595318,-3.9332401618,0.165,0.0,0.0,0.701448146177,-0.712720490954,0,47.8401908875,53.4677696228,85.2590942383,3.93044233322
1647536662475255418,234,1647536662475255418,r200141368/base_front_laser_link,0,1647536662475255418,v/m1vw10zy74w/map,-1.33867501751,-3.93324171972,0.165,0.0,0.0,0.701447706139,-0.712720924031,0,48.7550048828,53.4477157593,85.2499084473,3.93406510353
1647536662554708857,235,1647536662554708857,r200141368/base_front_laser_link,0,1647536662554708857,v/m1vw10zy74w/map,-1.33867304645,-3.93325058989,0.165,0.0,0.0,0.701446822174,-0.712721794014,0,48.3116226196,53.4259529114,85.2456436157,3.93989682198
1647536662632369235,236,1647536662632369235,r200141368/base_front_laser_link,0,1647536662632369235,v/m1vw10zy74w/map,-1.33867200417,-3.9332513264,0.165,0.0,0.0,0.701446324282,-0.712722284028,0,48.5886268616,53.4055404663,85.2377700806,3.94407725334
1647536663025418651,237,1647536663025418651,r200141368/base_front_laser_link,0,1647536663025418651,v/m1vw10zy74w/map,-1.33867815075,-3.93323160184,0.165,0.0,0.0,0.701449141991,-0.712719510888,0,48.5413131714,53.3851051331,85.2301712036,3.94835710526
1647536663340506957,238,1647536663340506957,r200141368/base_front_laser_link,0,1647536663340506957,v/m1vw10zy74w/map,-1.33867810785,-3.93323081936,0.165,0.0,0.0,0.701449115237,-0.712719537219,0,49.4437217712,53.3686103821,85.2134933472,3.94829320908
