%time,field.header.seq,field.header.stamp,field.header.frame_id,field.pose.header.seq,field.pose.header.stamp,field.pose.header.frame_id,field.pose.pose.position.x,field.pose.pose.position.y,field.pose.pose.position.z,field.pose.pose.orientation.x,field.pose.pose.orientation.y,field.pose.pose.orientation.z,field.pose.pose.orientation.w,field.label,field.current_error,field.mean,field.threshold,field.std_dev
1647422829987342590,0,1647422829987342590,r200141368/base_front_laser_link,0,1647422829987342590,v/m1vw10zy74w/map,-10.0890599222,2.95779300599,0.165,0.0,0.0,0.999321999195,0.036817684954,0,56.5551452637,56.5551452637,nan,nan
1647422830540420162,1,1647422830540420162,r200141368/base_front_laser_link,0,1647422830540420162,v/m1vw10zy74w/map,-10.161344761,2.99970117131,0.165,0.0,0.0,0.99818211862,0.060269876951,0,54.8467979431,55.7009735107,79.3249206543,1.20798182487
1647422830698442011,2,1647422830698442011,r200141368/base_front_laser_link,0,1647422830698442011,v/m1vw10zy74w/map,-10.1870719918,3.0093990966,0.165,0.0,0.0,0.997910286561,0.0646147040278,0,56.2684173584,55.89012146,78.6346511841,0.914844751358
1647422830855395140,3,1647422830855395140,r200141368/base_front_laser_link,0,1647422830855395140,v/m1vw10zy74w/map,-10.2156207025,3.01568621167,0.165,0.0,0.0,0.99779947958,0.0663038351048,0,57.5945358276,56.3162231445,79.715927124,1.133233428
1647422831012440700,4,1647422831012440700,r200141368/base_front_laser_link,0,1647422831012440700,v/m1vw10zy74w/map,-10.2479852373,3.01999161854,0.165,0.0,0.0,0.99780029269,0.0662915975674,0,60.1776504517,57.088508606,83.0473327637,1.98627543449
1647422831249607954,5,1647422831249607954,r200141368/base_front_laser_link,0,1647422831249607954,v/m1vw10zy74w/map,-10.2754380774,3.01624039031,0.165,0.0,0.0,0.997666768472,0.0682716565377,0,57.5032501221,57.1576309204,82.5115203857,1.78462898731
1647422831327575507,6,1647422831327575507,r200141368/base_front_laser_link,0,1647422831327575507,v/m1vw10zy74w/map,-10.2942639303,3.01569335568,0.165,0.0,0.0,0.997806855438,0.06619274312,0,57.5135574341,57.208480835,82.1125183105,1.63468074799
1647422831485648354,7,1647422831485648354,r200141368/base_front_laser_link,0,1647422831485648354,v/m1vw10zy74w/map,-10.3353086979,3.01202942833,0.165,0.0,0.0,0.998186668397,0.0601944767782,1,58.3381767273,57.3496932983,82.0454025269,1.56523752213
1647422831800716251,8,1647422831800716251,r200141368/base_front_laser_link,0,1647422831800716251,v/m1vw10zy74w/map,-10.4193899935,2.98674654711,0.165,0.0,0.0,0.999298673813,0.0374454338449,1,58.3722343445,57.463306427,81.973197937,1.50329613686
1647422831958729912,9,1647422831958729912,r200141368/base_front_laser_link,0,1647422831958729912,v/m1vw10zy74w/map,-10.4606521416,2.96837481903,0.165,0.0,0.0,0.999728588499,0.0232969813085,1,56.9478034973,57.4117584229,81.6917495728,1.42666518688
1647422832116659225,10,1647422832116659225,r200141368/base_front_laser_link,0,1647422832116659225,v/m1vw10zy74w/map,-10.501037955,2.96067181292,0.165,0.0,0.0,0.999885754701,0.0151154737484,1,57.5081787109,57.4205207825,81.4818191528,1.35376572609
1647422832273762656,11,1647422832273762656,r200141368/base_front_laser_link,0,1647422832273762656,v/m1vw10zy74w/map,-10.5393753401,2.93682579325,0.165,0.0,0.0,0.999999160583,-0.00129569833398,1,57.3190498352,57.4120674133,81.2853546143,1.29109728336
1647422832510747047,12,1647422832510747047,r200141368/base_front_laser_link,0,1647422832510747047,v/m1vw10zy74w/map,-10.5932497833,2.89635793403,0.165,0.0,0.0,0.99961609234,-0.0277068210794,1,55.5380973816,57.2679138184,81.2907791138,1.34095358849
1647422832667974684,13,1647422832667974684,r200141368/base_front_laser_link,0,1647422832667974684,v/m1vw10zy74w/map,-10.6262282986,2.86756535308,0.165,0.0,0.0,0.998995970096,-0.0448001309272,1,55.3866996765,57.1335411072,81.2824707031,1.38297522068
1647422832826555205,14,1647422832826555205,r200141368/base_front_laser_link,0,1647422832826555205,v/m1vw10zy74w/map,-10.6593596465,2.84088707625,0.165,0.0,0.0,0.997962156813,-0.063808569719,1,54.5113677979,56.958732605,81.4430923462,1.49478781223
1647422833849947233,15,1647422833849947233,r200141368/base_front_laser_link,0,1647422833849947233,v/m1vw10zy74w/map,-10.7395475064,2.72361973091,0.165,0.0,0.0,0.989620858127,-0.14370301723,1,55.3165817261,56.856098175,81.3600692749,1.50132334232
1647422834244052519,16,1647422834244052519,r200141368/base_front_laser_link,0,1647422834244052519,v/m1vw10zy74w/map,-10.7396370884,2.76783630238,0.165,0.0,0.0,0.992852710075,-0.119346118898,1,58.8933906555,56.9759368896,81.5819396973,1.53533375263
1647422834558573494,17,1647422834558573494,r200141368/base_front_laser_link,0,1647422834558573494,v/m1vw10zy74w/map,-10.7517643589,2.83091533768,0.165,0.0,0.0,0.997108703513,-0.0759883765978,1,58.6757965088,57.0703735352,81.6976928711,1.5424387455
1647422838338896107,18,1647422838338896107,r200141368/base_front_laser_link,0,1647422838338896107,v/m1vw10zy74w/map,-10.8931881925,2.97684176958,0.165,0.0,0.0,0.999710535074,0.024059219885,1,57.1429710388,57.0741958618,81.5714187622,1.4990735054
1647422838575901288,19,1647422838575901288,r200141368/base_front_laser_link,0,1647422838575901288,v/m1vw10zy74w/map,-10.9229711532,2.9738955852,0.165,0.0,0.0,0.999674785593,0.0255014322852,1,54.5606231689,56.9485168457,81.6393203735,1.56360113621
1647422838732874903,20,1647422838732874903,r200141368/base_front_laser_link,0,1647422838732874903,v/m1vw10zy74w/map,-10.9508916691,2.97389404121,0.165,0.0,0.0,0.999689579868,0.0249147326418,1,60.955165863,57.1393089294,82.4103088379,1.75699913502
1647422838968743380,21,1647422838968743380,r200141368/base_front_laser_link,0,1647422838968743380,v/m1vw10zy74w/map,-10.9960594538,2.97425873936,0.165,0.0,0.0,0.999719572895,0.0236807003744,1,55.888710022,57.0824623108,82.2882537842,1.73526215553
1647422839126123119,22,1647422839126123119,r200141368/base_front_laser_link,0,1647422839126123119,v/m1vw10zy74w/map,-11.0291986512,2.97604697162,0.165,0.0,0.0,0.999716129597,0.0238256211716,1,56.2154846191,57.0447692871,82.1596984863,1.70497667789
1647422839284116281,23,1647422839284116281,r200141368/base_front_laser_link,0,1647422839284116281,v/m1vw10zy74w/map,-11.0647434511,2.98063928077,0.165,0.0,0.0,0.999668365422,0.0257518770954,1,55.034122467,56.9609909058,82.1127929688,1.71726596355
1647422839440085308,24,1647422839440085308,r200141368/base_front_laser_link,0,1647422839440085308,v/m1vw10zy74w/map,-11.1016962384,2.98958398195,0.165,0.0,0.0,0.999537138894,0.0304221625113,1,58.4420166016,57.0202331543,82.141242981,1.70700442791
1647422839598058463,25,1647422839598058463,r200141368/base_front_laser_link,0,1647422839598058463,v/m1vw10zy74w/map,-11.1412407892,3.00402625706,0.165,0.0,0.0,0.999263351522,0.038376481137,1,55.4690704346,56.9605712891,82.0604400635,1.69995653629
1647422839677237181,26,1647422839677237181,r200141368/base_front_laser_link,0,1647422839677237181,v/m1vw10zy74w/map,-11.161959856,3.01306723244,0.165,0.0,0.0,0.99906019934,0.0433441817906,1,59.0232696533,57.0369682312,82.1776504517,1.71355950832
1647422839834105643,27,1647422839834105643,r200141368/base_front_laser_link,0,1647422839834105643,v/m1vw10zy74w/map,-11.2173027118,3.04168048508,0.165,0.0,0.0,0.998276266212,0.0586898314651,1,55.4758338928,56.981212616,82.1028518677,1.70721280575
1647422839913126618,28,1647422839913126618,r200141368/base_front_laser_link,0,1647422839913126618,v/m1vw10zy74w/map,-11.2390449681,3.0539052373,0.165,0.0,0.0,0.997878813978,0.065098944795,1,58.9333190918,57.0485267639,82.1941070557,1.71519303322
1647422840229204485,29,1647422840229204485,r200141368/base_front_laser_link,0,1647422840229204485,v/m1vw10zy74w/map,-11.3302889277,3.11193162392,0.165,0.0,0.0,0.995558264481,0.0941474483089,1,56.5300369263,57.0312461853,82.0952987671,1.68801772594
1647422840464256792,30,1647422840464256792,r200141368/base_front_laser_link,0,1647422840464256792,v/m1vw10zy74w/map,-11.4004408164,3.16518935649,0.165,0.0,0.0,0.992858345859,0.119299224887,1,57.7882347107,57.0556640625,82.0512771606,1.66520524025
1647422840936457125,31,1647422840936457125,r200141368/base_front_laser_link,0,1647422840936457125,v/m1vw10zy74w/map,-11.546814355,3.30922187786,0.165,0.0,0.0,0.982486801605,0.186332189038,1,57.6898918152,57.0754852295,82.0013580322,1.64195919037
1647422841172680133,32,1647422841172680133,r200141368/base_front_laser_link,0,1647422841172680133,v/m1vw10zy74w/map,-11.6310473258,3.40282892591,0.165,0.0,0.0,0.974427433483,0.224702418492,1,57.9274673462,57.1013031006,81.9699783325,1.62289106846
1647422841407274918,33,1647422841407274918,r200141368/base_front_laser_link,0,1647422841407274918,v/m1vw10zy74w/map,-11.6896770907,3.5082912422,0.165,0.0,0.0,0.963560031853,0.267492177484,1,58.3601417542,57.1383247375,81.9762115479,1.61262893677
1647422841565540037,34,1647422841565540037,r200141368/base_front_laser_link,0,1647422841565540037,v/m1vw10zy74w/map,-11.7313185249,3.59983338537,0.165,0.0,0.0,0.952597889786,0.304232247429,1,58.6563835144,57.1816978455,82.0096740723,1.60932517052
1647422841722717398,35,1647422841722717398,r200141368/base_front_laser_link,0,1647422841722717398,v/m1vw10zy74w/map,-11.7514234909,3.69448410699,0.165,0.0,0.0,0.938803985373,0.344451850115,1,58.6490745544,57.2224578857,82.0371932983,1.60491144657
1647422841958425120,36,1647422841958425120,r200141368/base_front_laser_link,0,1647422841958425120,v/m1vw10zy74w/map,-11.7498250963,3.85481551851,0.165,0.0,0.0,0.911137138016,0.412103282841,1,59.4260025024,57.2820167542,82.1522140503,1.62339901924
1647422842116572285,37,1647422842116572285,r200141368/base_front_laser_link,0,1647422842116572285,v/m1vw10zy74w/map,-11.7434974388,3.95585033235,0.165,0.0,0.0,0.889945419597,0.456067045662,1,64.6248168945,57.4752464294,83.4625244141,1.99575984478
1647422842273564436,38,1647422842273564436,r200141368/base_front_laser_link,0,1647422842273564436,v/m1vw10zy74w/map,-11.7270205634,4.06582213943,0.165,0.0,0.0,0.865666587747,0.500620973251,1,64.115196228,57.6455001831,84.3595581055,2.23801803589
1647422842431495609,39,1647422842431495609,r200141368/base_front_laser_link,0,1647422842431495609,v/m1vw10zy74w/map,-11.6893210591,4.16803471997,0.165,0.0,0.0,0.84060376849,0.541650537155,1,66.6038894653,57.8694610596,85.7421646118,2.62423539162
1647422842590528922,40,1647422842590528922,r200141368/base_front_laser_link,0,1647422842590528922,v/m1vw10zy74w/map,-11.6654089338,4.269365624,0.165,0.0,0.0,0.816796597887,0.576925747112,1,66.0726547241,58.0695381165,86.7414169312,2.89062714577
1647422842826462206,41,1647422842826462206,r200141368/base_front_laser_link,0,1647422842826462206,v/m1vw10zy74w/map,-11.6041790946,4.42205533497,0.165,0.0,0.0,0.780106724729,0.625646464094,1,66.4733886719,58.2696304321,87.6771392822,3.13583612442
1647422843063563908,42,1647422843063563908,r200141368/base_front_laser_link,0,1647422843063563908,v/m1vw10zy74w/map,-11.5650773478,4.57304632907,0.165,0.0,0.0,0.748867914507,0.662719281915,1,65.2114715576,58.4310684204,88.2535018921,3.27414345741
1647422843219702318,43,1647422843219702318,r200141368/base_front_laser_link,0,1647422843219702318,v/m1vw10zy74w/map,-11.5077933664,4.67017479436,0.165,0.0,0.0,0.729025847629,0.684486167493,1,66.2424545288,58.6086006165,88.9390106201,3.44346928596
1647422843378699877,44,1647422843378699877,r200141368/base_front_laser_link,0,1647422843378699877,v/m1vw10zy74w/map,-11.4907368475,4.76689218239,0.165,0.0,0.0,0.712363899902,0.701810283564,1,66.5442428589,58.7849464417,89.5963668823,3.6038069725
1647422843534858096,45,1647422843534858096,r200141368/base_front_laser_link,0,1647422843534858096,v/m1vw10zy74w/map,-11.4233832704,4.85709839488,0.165,0.0,0.0,0.696098048925,0.717946729418,1,65.5229721069,58.931427002,90.0297241211,3.69943118095
1647422843770964788,46,1647422843770964788,r200141368/base_front_laser_link,0,1647422843770964788,v/m1vw10zy74w/map,-11.3717342155,4.99160498116,0.165,0.0,0.0,0.672575733463,0.740028298618,1,65.4509658813,59.0701408386,90.411819458,3.7805583477
1647422843929306906,47,1647422843929306906,r200141368/base_front_laser_link,0,1647422843929306906,v/m1vw10zy74w/map,-11.3177703281,5.07724070056,0.165,0.0,0.0,0.655021157023,0.75561053715,1,64.3350753784,59.1798248291,90.6294631958,3.81654477119
1647422844087081808,48,1647422844087081808,r200141368/base_front_laser_link,0,1647422844087081808,v/m1vw10zy74w/map,-11.2617219847,5.1648008513,0.165,0.0,0.0,0.636382994889,0.771373245463,1,63.1984634399,59.2618408203,90.7217330933,3.81996536255
1647422844244344733,49,1647422844244344733,r200141368/base_front_laser_link,0,1647422844244344733,v/m1vw10zy74w/map,-11.2007122302,5.24750967002,0.165,0.0,0.0,0.614297889852,0.789074205967,1,63.7777709961,59.3521575928,90.8551940918,3.83434605598
1647422844401886634,50,1647422844401886634,r200141368/base_front_laser_link,0,1647422844401886634,v/m1vw10zy74w/map,-11.0892317972,5.28781930586,0.165,0.0,0.0,0.589082261056,0.808073072011,1,66.286605835,59.4881286621,91.2422485352,3.91804027557
1647422844637773109,51,1647422844637773109,r200141368/base_front_laser_link,0,1647422844637773109,v/m1vw10zy74w/map,-10.9589773123,5.38949332925,0.165,0.0,0.0,0.541344045856,0.840801179837,1,71.1769180298,59.7129135132,92.3262939453,4.20446157455
1647422844795105502,52,1647422844795105502,r200141368/base_front_laser_link,0,1647422844795105502,v/m1vw10zy74w/map,-10.8305418694,5.42019876696,0.165,0.0,0.0,0.507426753482,0.861694893713,1,69.2719268799,59.8932723999,92.9911499023,4.36595916748
1647422844952968531,53,1647422844952968531,r200141368/base_front_laser_link,0,1647422844952968531,v/m1vw10zy74w/map,-10.6948806695,5.45376805703,0.165,0.0,0.0,0.468843820086,0.883281083442,1,70.0439834595,60.0812454224,93.7007293701,4.53982782364
1647422845188944194,54,1647422845188944194,r200141368/base_front_laser_link,0,1647422845188944194,v/m1vw10zy74w/map,-10.5119335026,5.47598976485,0.165,0.0,0.0,0.402022944661,0.915629593212,1,65.6932601929,60.1832847595,93.8657150269,4.56081151962
1647422845346136971,55,1647422845346136971,r200141368/base_front_laser_link,0,1647422845346136971,v/m1vw10zy74w/map,-10.3515951445,5.4468182227,0.165,0.0,0.0,0.359099454134,0.933299299282,1,65.4183654785,60.2767677307,93.9957275391,4.57298564911
1647422845504091175,56,1647422845504091175,r200141368/base_front_laser_link,0,1647422845504091175,v/m1vw10zy74w/map,-10.1901671725,5.41284960115,0.165,0.0,0.0,0.319346523502,0.947638009963,1,67.8697433472,60.4099769592,94.3366470337,4.64222192764
1647422845661308724,57,1647422845661308724,r200141368/base_front_laser_link,0,1647422845661308724,v/m1vw10zy74w/map,-10.0317424994,5.39146272295,0.165,0.0,0.0,0.282379408725,0.959302803878,1,65.8361663818,60.5035324097,94.4720001221,4.65615701675
1647422845740244675,58,1647422845740244675,r200141368/base_front_laser_link,0,1647422845740244675,v/m1vw10zy74w/map,-9.9619123209,5.38181940996,0.165,0.0,0.0,0.263603922307,0.964631003101,1,65.4289932251,60.5870132446,94.567527771,4.66017150879
1647422845818370244,59,1647422845818370244,r200141368/base_front_laser_link,0,1647422845818370244,v/m1vw10zy74w/map,-9.90523383749,5.3759818739,0.165,0.0,0.0,0.242000661097,0.970276084436,1,63.3661766052,60.6333351135,94.5365905762,4.63441896439
1647422846133403426,60,1647422846133403426,r200141368/base_front_laser_link,0,1647422846133403426,v/m1vw10zy74w/map,-9.60013901298,5.33281845775,0.165,0.0,0.0,0.182241256997,0.983253845275,1,60.9164886475,60.6379776001,94.4253158569,4.59577941895
1647422846370252593,61,1647422846370252593,r200141368/base_front_laser_link,0,1647422846370252593,v/m1vw10zy74w/map,-9.42263842957,5.31556185169,0.165,0.0,0.0,0.135381053217,0.990793606373,1,62.7859954834,60.6726226807,94.3709487915,4.56611013412
1647422846685516783,62,1647422846685516783,r200141368/base_front_laser_link,0,1647422846685516783,v/m1vw10zy74w/map,-9.2206337388,5.27954551764,0.165,0.0,0.0,0.0803557596353,0.996766247369,1,62.1638412476,60.6962928772,94.2953872681,4.53303194046
1647422847000298678,63,1647422847000298678,r200141368/base_front_laser_link,0,1647422847000298678,v/m1vw10zy74w/map,-9.02326030908,5.24987284036,0.165,0.0,0.0,0.0405442561025,0.999177743596,1,59.7940635681,60.6821937561,94.1771697998,4.4983253479
1647422847158465660,64,1647422847158465660,r200141368/base_front_laser_link,0,1647422847158465660,v/m1vw10zy74w/map,-8.92738340123,5.23222509692,0.165,0.0,0.0,0.0243731170101,0.999702931459,1,62.5344161987,60.7106895447,94.1175460815,4.46895313263
1647422847395528134,65,1647422847395528134,r200141368/base_front_laser_link,0,1647422847395528134,v/m1vw10zy74w/map,-8.78910425413,5.2014572097,0.165,0.0,0.0,0.0043069861448,0.999990724892,1,58.7849884033,60.68151474,94.0038375854,4.44077396393
1647422847473634368,66,1647422847473634368,r200141368/base_front_laser_link,0,1647422847473634368,v/m1vw10zy74w/map,-8.74227324433,5.19431000627,0.165,0.0,0.0,-0.000663615827321,0.999999779807,1,60.662273407,60.681224823,93.9022369385,4.40700387955
1647422847709615004,67,1647422847709615004,r200141368/base_front_laser_link,0,1647422847709615004,v/m1vw10zy74w/map,-8.59785680442,5.17983169247,0.165,0.0,0.0,-0.0121706386627,0.999925935034,1,60.5714912415,60.6796112061,93.801651001,4.37401247025
1647422847867593601,68,1647422847867593601,r200141368/base_front_laser_link,0,1647422847867593601,v/m1vw10zy74w/map,-8.5037389959,5.16776472865,0.165,0.0,0.0,-0.0184008528242,0.999830689975,1,64.2074279785,60.7307395935,93.8180999756,4.36245346069
1647422848104480084,69,1647422848104480084,r200141368/base_front_laser_link,0,1647422848104480084,v/m1vw10zy74w/map,-8.36015014787,5.14499017361,0.165,0.0,0.0,-0.0284668643522,0.999594736698,1,59.9214057922,60.7191772461,93.7145996094,4.3318066597
1647422848261690336,70,1647422848261690336,r200141368/base_front_laser_link,0,1647422848261690336,v/m1vw10zy74w/map,-8.26642249152,5.13734036401,0.165,0.0,0.0,-0.0299170861608,0.999552383798,1,61.9929275513,60.7371177673,93.6473464966,4.30340957642
1647422848419624565,71,1647422848419624565,r200141368/base_front_laser_link,0,1647422848419624565,v/m1vw10zy74w/map,-8.15990902028,5.14400675582,0.165,0.0,0.0,-0.0299269280128,0.999552089178,1,59.5066223145,60.7200279236,93.5463943481,4.27545642853
1647422848577653862,72,1647422848577653862,r200141368/base_front_laser_link,0,1647422848577653862,v/m1vw10zy74w/map,-8.06472961161,5.13845646474,0.165,0.0,0.0,-0.0300610893469,0.99954806333,1,59.6922340393,60.705947876,93.4480438232,4.24736595154
1647422848813865401,73,1647422848813865401,r200141368/base_front_laser_link,0,1647422848813865401,v/m1vw10zy74w/map,-7.92449543018,5.13183008245,0.165,0.0,0.0,-0.0312212566699,0.999512497737,1,59.9417304993,60.6956214905,93.3529510498,4.21910953522
1647422849050957084,74,1647422849050957084,r200141368/base_front_laser_link,0,1647422849050957084,v/m1vw10zy74w/map,-7.7820664882,5.12304612993,0.165,0.0,0.0,-0.0312784132778,0.999510710729,1,62.2993736267,60.7170028687,93.3007888794,4.19459486008
1647422849286797441,75,1647422849286797441,r200141368/base_front_laser_link,0,1647422849286797441,v/m1vw10zy74w/map,-7.64055353141,5.11675865929,0.165,0.0,0.0,-0.0299603709917,0.999551087324,1,64.0537643433,60.7609100342,93.3131484985,4.18408060074
1647422849444273616,76,1647422849444273616,r200141368/base_front_laser_link,0,1647422849444273616,v/m1vw10zy74w/map,-7.54618470486,5.11300329014,0.165,0.0,0.0,-0.028736091001,0.999587033266,1,65.0354766846,60.8164215088,93.3711547852,4.18491077423
1647422851650337451,77,1647422851650337451,r200141368/base_front_laser_link,0,1647422851650337451,v/m1vw10zy74w/map,-6.862848791,5.09577540751,0.165,0.0,0.0,-0.0245682595196,0.999698154757,1,63.0316123962,60.8448219299,93.3404388428,4.16520595551
1647422851729388810,78,1647422851729388810,r200141368/base_front_laser_link,0,1647422851729388810,v/m1vw10zy74w/map,-6.84982655235,5.09494967953,0.165,0.0,0.0,-0.0246919013514,0.999695108524,1,61.6299819946,60.854763031,93.2728500366,4.13936281204
1647422851887304858,79,1647422851887304858,r200141368/base_front_laser_link,0,1647422851887304858,v/m1vw10zy74w/map,-6.82167822179,5.09346184224,0.165,0.0,0.0,-0.0247545319316,0.999693559622,1,63.6615638733,60.8898468018,93.2649536133,4.12503433228
1647422852281435067,80,1647422852281435067,r200141368/base_front_laser_link,0,1647422852281435067,v/m1vw10zy74w/map,-6.74089385484,5.09089848456,0.165,0.0,0.0,-0.0237987829263,0.999716768856,1,61.5829086304,60.8984031677,93.1980895996,4.09989500046
1647422852438798215,81,1647422852438798215,r200141368/base_front_laser_link,0,1647422852438798215,v/m1vw10zy74w/map,-6.6902676617,5.08695565248,0.165,0.0,0.0,-0.0229246508454,0.999737195659,1,61.3044815063,60.9033546448,93.1276245117,4.0747551918
1647422852753508459,82,1647422852753508459,r200141368/base_front_laser_link,0,1647422852753508459,v/m1vw10zy74w/map,-6.60931756715,5.09081662075,0.165,0.0,0.0,-0.0180362283559,0.999837334003,1,62.2947387695,60.9201202393,93.0782546997,4.05271196365
1647422852990656762,83,1647422852990656762,r200141368/base_front_laser_link,0,1647422852990656762,v/m1vw10zy74w/map,-6.54206932231,5.0949835291,0.165,0.0,0.0,-0.0137541409528,0.999905407329,1,61.1597557068,60.9229698181,93.0078964233,4.02830886841
1647422853463636539,84,1647422853463636539,r200141368/base_front_laser_link,0,1647422853463636539,v/m1vw10zy74w/map,-6.38572002877,5.11726295799,0.165,0.0,0.0,-0.0036918585329,0.999993185067,1,63.549621582,60.9538726807,92.9970169067,4.01438140869
1647422853699778570,85,1647422853699778570,r200141368/base_front_laser_link,0,1647422853699778570,v/m1vw10zy74w/map,-6.30128559946,5.1170129267,0.165,0.0,0.0,-0.00345816473865,0.99999402053,1,63.0137023926,60.9778251648,92.9684448242,3.99687409401
1647422854094697595,86,1647422854094697595,r200141368/base_front_laser_link,0,1647422854094697595,v/m1vw10zy74w/map,-6.16920540396,5.12015417692,0.165,0.0,0.0,-0.00464374540697,0.999989217756,1,60.1233253479,60.9680023193,92.8918762207,3.97462439537
1647422854252853271,87,1647422854252853271,r200141368/base_front_laser_link,0,1647422854252853271,v/m1vw10zy74w/map,-6.10361015596,5.11918879812,0.165,0.0,0.0,-0.00487206857143,0.999988131403,1,65.5522079468,61.0200958252,92.9655456543,3.98181653023
1647422854488672291,88,1647422854488672291,r200141368/base_front_laser_link,0,1647422854488672291,v/m1vw10zy74w/map,-6.00159664564,5.11803813998,0.165,0.0,0.0,-0.00497187635814,0.999987640146,1,60.5404510498,61.014705658,92.8930740356,3.95945453644
1647422854645976389,89,1647422854645976389,r200141368/base_front_laser_link,0,1647422854645976389,v/m1vw10zy74w/map,-5.90756141832,5.10932474727,0.165,0.0,0.0,-0.00667171776138,0.999977743843,1,61.6000213623,61.0212097168,92.8341064453,3.9376308918
1647422854882173705,90,1647422854882173705,r200141368/base_front_laser_link,0,1647422854882173705,v/m1vw10zy74w/map,-5.79623813517,5.10962642799,0.165,0.0,0.0,-0.00551436805201,0.999984795757,1,58.029296875,60.9883308411,92.7730331421,3.9282348156
1647422855040453910,91,1647422855040453910,r200141368/base_front_laser_link,0,1647422855040453910,v/m1vw10zy74w/map,-5.71830667954,5.11137589641,0.165,0.0,0.0,-0.0038216930695,0.999992697304,1,58.8147850037,60.9647064209,92.7041854858,3.91315841675
1647422855197223019,92,1647422855197223019,r200141368/base_front_laser_link,0,1647422855197223019,v/m1vw10zy74w/map,-5.64570322658,5.11160563446,0.165,0.0,0.0,-0.00201667451505,0.99999796651,1,54.9648933411,60.9001922607,92.7239379883,3.94124817848
1647422855434254438,93,1647422855434254438,r200141368/base_front_laser_link,0,1647422855434254438,v/m1vw10zy74w/map,-5.52027311628,5.11594545711,0.165,0.0,0.0,0.00101721626469,0.999999482635,1,60.2289924622,60.8930511475,92.6548919678,3.92061257362
1647422855591082555,94,1647422855591082555,r200141368/base_front_laser_link,0,1647422855591082555,v/m1vw10zy74w/map,-5.43970660868,5.11294972315,0.165,0.0,0.0,0.000643191427003,0.999999793152,1,58.9921913147,60.8730430603,92.586769104,3.90457606316
1647422855749074163,95,1647422855749074163,r200141368/base_front_laser_link,0,1647422855749074163,v/m1vw10zy74w/map,-5.35009813124,5.11642691156,0.165,0.0,0.0,0.0028163727536,0.999996034014,1,56.4377288818,60.8268432617,92.5576248169,3.91026210785
1647422855986064784,96,1647422855986064784,r200141368/base_front_laser_link,0,1647422855986064784,v/m1vw10zy74w/map,-5.21127175198,5.12030427218,0.165,0.0,0.0,0.00552423002026,0.999984741325,1,59.810256958,60.8163604736,92.4899978638,3.89121222496
1647422856143179212,97,1647422856143179212,r200141368/base_front_laser_link,0,1647422856143179212,v/m1vw10zy74w/map,-5.12863045047,5.1263656113,0.165,0.0,0.0,0.00933348662175,0.999956442065,1,63.5990791321,60.8447570801,92.4886398315,3.88129472733
1647422856301152492,98,1647422856301152492,r200141368/base_front_laser_link,0,1647422856301152492,v/m1vw10zy74w/map,-5.03425950364,5.12990024208,0.165,0.0,0.0,0.0104499134385,0.999945398164,1,60.511051178,60.8413848877,92.4261474609,3.86158704758
1647422856537129737,99,1647422856537129737,r200141368/base_front_laser_link,0,1647422856537129737,v/m1vw10zy74w/map,-4.88461259024,5.13848803332,0.165,0.0,0.0,0.0100010812331,0.999949987936,1,58.6514549255,60.8194885254,92.3642959595,3.8482708931
1647422856773361583,100,1647422856773361583,r200141368/base_front_laser_link,0,1647422856773361583,v/m1vw10zy74w/map,-4.74331487343,5.13809821342,0.165,0.0,0.0,0.00799502570388,0.999968039271,1,63.1977615356,60.8430328369,92.3518981934,3.83628702164
1647422856931261838,101,1647422856931261838,r200141368/base_front_laser_link,0,1647422856931261838,v/m1vw10zy74w/map,-4.6651472104,5.13291205061,0.165,0.0,0.0,0.00561160691803,0.99998425481,1,63.0569343567,60.8647384644,92.3353500366,3.82353711128
1647422857089469390,102,1647422857089469390,r200141368/base_front_laser_link,0,1647422857089469390,v/m1vw10zy74w/map,-4.57031026464,5.13157069046,0.165,0.0,0.0,0.00407923867357,0.999991679871,1,60.1560783386,60.8578605652,92.2740249634,3.80538892746
1647422857325443107,103,1647422857325443107,r200141368/base_front_laser_link,0,1647422857325443107,v/m1vw10zy74w/map,-4.43209671821,5.12404088521,0.165,0.0,0.0,0.000401196370001,0.999999919521,1,63.4351348877,60.8826408386,92.2685241699,3.79529452324
1647422857483536832,104,1647422857483536832,r200141368/base_front_laser_link,0,1647422857483536832,v/m1vw10zy74w/map,-4.33740881285,5.12420421865,0.165,0.0,0.0,0.000457762489984,0.999999895227,1,66.1343841553,60.9326553345,92.3675079346,3.81161808968
1647422857640488569,105,1647422857640488569,r200141368/base_front_laser_link,0,1647422857640488569,v/m1vw10zy74w/map,-4.25621027627,5.1236133314,0.165,0.0,0.0,0.00140021824187,0.999999019694,1,66.1089324951,60.9814910889,92.4612808228,3.82659626007
1647422857798491208,106,1647422857798491208,r200141368/base_front_laser_link,0,1647422857798491208,v/m1vw10zy74w/map,-4.16102059611,5.12421054049,0.165,0.0,0.0,0.00152463650106,0.999998837741,1,66.4166107178,61.032283783,92.5660171509,3.84457778931
1647422857877535513,107,1647422857877535513,r200141368/base_front_laser_link,0,1647422857877535513,v/m1vw10zy74w/map,-4.11360024064,5.12442383812,0.165,0.0,0.0,0.00156944570255,0.999998768419,1,65.4929199219,61.0735855103,92.625289917,3.85056805611
1647422858272373057,108,1647422858272373057,r200141368/base_front_laser_link,0,1647422858272373057,v/m1vw10zy74w/map,-3.89190629703,5.13333537027,0.165,0.0,0.0,0.00364031515819,0.999993374031,1,63.1023483276,61.0922012329,92.6050720215,3.83762288094
1647422858587479225,109,1647422858587479225,r200141368/base_front_laser_link,0,1647422858587479225,v/m1vw10zy74w/map,-3.70770326484,5.14201552636,0.165,0.0,0.0,0.00352117020978,0.999993800661,1,63.2073669434,61.1114273071,92.5873260498,3.82529854774
1647422858902788202,110,1647422858902788202,r200141368/base_front_laser_link,0,1647422858902788202,v/m1vw10zy74w/map,-3.4932905685,5.14454077579,0.165,0.0,0.0,0.00383369462096,0.999992651366,1,58.6468544006,61.089225769,92.5343704224,3.81504964828
1647422859059660929,111,1647422859059660929,r200141368/base_front_laser_link,0,1647422859059660929,v/m1vw10zy74w/map,-3.39938632261,5.14337742191,0.165,0.0,0.0,0.00263139028418,0.999996537887,1,58.0728111267,61.0622940063,92.4878082275,3.80850625038
1647422859533503137,112,1647422859533503137,r200141368/base_front_laser_link,0,1647422859533503137,v/m1vw10zy74w/map,-3.128432926,5.13263167858,0.165,0.0,0.0,0.0010120103405,0.999999487917,1,60.6562080383,61.0587005615,92.4336776733,3.79165840149
1647422859927709288,113,1647422859927709288,r200141368/base_front_laser_link,0,1647422859927709288,v/m1vw10zy74w/map,-2.9122918814,5.11814864177,0.165,0.0,0.0,0.000258911020219,0.999999966483,1,58.1563606262,61.033241272,92.3870925903,3.78461837769
1647422860084767336,114,1647422860084767336,r200141368/base_front_laser_link,0,1647422860084767336,v/m1vw10zy74w/map,-2.8196318007,5.12221635381,0.165,0.0,0.0,0.00265454603318,0.999996476686,1,57.4020385742,61.001663208,92.3511657715,3.78316688538
1647422860322006711,115,1647422860322006711,r200141368/base_front_laser_link,0,1647422860322006711,v/m1vw10zy74w/map,-2.67756527119,5.1266554832,0.165,0.0,0.0,0.0049454185837,0.999987771343,1,57.1091003418,60.9681091309,92.3200531006,3.78398156166
1647422860558052973,116,1647422860558052973,r200141368/base_front_laser_link,0,1647422860558052973,v/m1vw10zy74w/map,-2.54754584598,5.12704379135,0.165,0.0,0.0,0.0048067889024,0.999988447323,1,55.5499191284,60.9217987061,92.3241653442,3.80078864098
1647422860715161040,117,1647422860715161040,r200141368/base_front_laser_link,0,1647422860715161040,v/m1vw10zy74w/map,-2.45367571487,5.12971797376,0.165,0.0,0.0,0.0059311131542,0.999982410794,1,57.4764785767,60.8926010132,92.2859344482,3.79777812958
1647422860873532098,118,1647422860873532098,r200141368/base_front_laser_link,0,1647422860873532098,v/m1vw10zy74w/map,-2.353063717,5.13991436565,0.165,0.0,0.0,0.00577385611585,0.999983331154,1,56.5958976746,60.8564949036,92.2628173828,3.80210852623
1647422861110056408,119,1647422861110056408,r200141368/base_front_laser_link,0,1647422861110056408,v/m1vw10zy74w/map,-2.21151678984,5.14113606777,0.165,0.0,0.0,0.00549904304879,0.999984880148,1,56.3862266541,60.8192405701,92.2433242798,3.80802798271
1647422861266906393,120,1647422861266906393,r200141368/base_front_laser_link,0,1647422861266906393,v/m1vw10zy74w/map,-2.12154638629,5.16284228244,0.165,0.0,0.0,0.00892639065635,0.999960158981,1,52.3261871338,60.7490501404,92.3588485718,3.86993122101
1647422861424010925,121,1647422861424010925,r200141368/base_front_laser_link,0,1647422861424010925,v/m1vw10zy74w/map,-2.02760165368,5.16347810667,0.165,0.0,0.0,0.00826346813272,0.999965856964,1,52.8316841125,60.6841545105,92.4441604614,3.92000055313
1647422861661134282,122,1647422861661134282,r200141368/base_front_laser_link,0,1647422861661134282,v/m1vw10zy74w/map,-1.89618005783,5.15024313852,0.165,0.0,0.0,0.00564430911223,0.99998407076,1,53.3718605042,60.6247062683,92.5022659302,3.95918726921
1647422861819244333,123,1647422861819244333,r200141368/base_front_laser_link,0,1647422861819244333,v/m1vw10zy74w/map,-1.80177196843,5.15113635564,0.165,0.0,0.0,0.00553446847085,0.999984684712,1,55.6448631287,60.5845451355,92.4895629883,3.96833896637
1647422861897189969,124,1647422861897189969,r200141368/base_front_laser_link,0,1647422861897189969,v/m1vw10zy74w/map,-1.75504855351,5.15162934349,0.165,0.0,0.0,0.00551861556162,0.999984772325,1,56.5095977783,60.5519447327,92.4591751099,3.96907520294
1647422862055291613,125,1647422862055291613,r200141368/base_front_laser_link,0,1647422862055291613,v/m1vw10zy74w/map,-1.65447324953,5.13669176945,0.165,0.0,0.0,0.000880255198621,0.999999612575,1,55.1037216187,60.5087051392,92.4572601318,3.98285198212
1647422862291323239,126,1647422862291323239,r200141368/base_front_laser_link,0,1647422862291323239,v/m1vw10zy74w/map,-1.51307190542,5.1369903692,0.165,0.0,0.0,0.000909162359163,0.999999586712,1,55.6989402771,60.4708328247,92.4405593872,3.98990821838
1647422862449553225,127,1647422862449553225,r200141368/base_front_laser_link,0,1647422862449553225,v/m1vw10zy74w/map,-1.40969128101,5.15442710261,0.165,0.0,0.0,0.00534300042118,0.999985726071,1,55.8542938232,60.4347686768,92.4199523926,3.99506235123
1647422862686327809,128,1647422862686327809,r200141368/base_front_laser_link,0,1647422862686327809,v/m1vw10zy74w/map,-1.26778701251,5.15589247543,0.165,0.0,0.0,0.00531233634187,0.999985889442,1,58.3514175415,60.4186172485,92.3695678711,3.98365116119
1647422862844320989,129,1647422862844320989,r200141368/base_front_laser_link,0,1647422862844320989,v/m1vw10zy74w/map,-1.18072411928,5.15214474223,0.165,0.0,0.0,0.00502243900889,0.999987387474,1,60.2941513062,60.4176597595,92.3222503662,3.9681956768
1647422863002256115,130,1647422863002256115,r200141368/base_front_laser_link,0,1647422863002256115,v/m1vw10zy74w/map,-1.08628079579,5.15235791216,0.165,0.0,0.0,0.00454589859567,0.99998966735,1,60.7355155945,60.420085907,92.2790908813,3.95300149918
1647422863158274885,131,1647422863158274885,r200141368/base_front_laser_link,0,1647422863158274885,v/m1vw10zy74w/map,-1.02045398048,5.15196962931,0.165,0.0,0.0,0.00282939472537,0.999995997255,1,62.2027702332,60.4335899353,92.2564163208,3.94094061852
1647422863395387391,132,1647422863395387391,r200141368/base_front_laser_link,0,1647422863395387391,v/m1vw10zy74w/map,-0.878843191276,5.1516877594,0.165,0.0,0.0,0.00233231906577,0.99999728014,1,57.2682228088,60.4097900391,92.2164916992,3.93556714058
1647422863631466454,133,1647422863631466454,r200141368/base_front_laser_link,0,1647422863631466454,v/m1vw10zy74w/map,-0.752812277037,5.15174107178,0.165,0.0,0.0,0.00124768993507,0.999999221635,1,59.0136795044,60.3993721008,92.1671676636,3.92259836197
1647422863789434351,134,1647422863789434351,r200141368/base_front_laser_link,0,1647422863789434351,v/m1vw10zy74w/map,-0.658280033658,5.15194541756,0.165,0.0,0.0,0.00122766290565,0.999999246422,1,60.6669425964,60.4013557434,92.1253585815,3.90800213814
1647422863868482852,135,1647422863868482852,r200141368/base_front_laser_link,0,1647422863868482852,v/m1vw10zy74w/map,-0.611004178692,5.1521118193,0.165,0.0,0.0,0.0012604758851,0.9999992056,1,58.1027145386,60.3844528198,92.0799179077,3.89848732948
1647422864263459587,136,1647422864263459587,r200141368/base_front_laser_link,0,1647422864263459587,v/m1vw10zy74w/map,-0.383041813912,5.14675010332,0.165,0.0,0.0,-0.00134247709974,0.999999098877,1,56.7424468994,60.3578681946,92.0475845337,3.8965716362
1647422864498534212,137,1647422864498534212,r200141368/base_front_laser_link,0,1647422864498534212,v/m1vw10zy74w/map,-0.253139541267,5.14530039796,0.165,0.0,0.0,-0.00212611144807,0.999997739823,1,53.1587944031,60.3057022095,92.0968856812,3.93039417267
1647422864656575155,138,1647422864656575155,r200141368/base_front_laser_link,0,1647422864656575155,v/m1vw10zy74w/map,-0.158465355099,5.14671631661,0.165,0.0,0.0,-0.000959005836695,0.999999540154,1,55.109577179,60.2683181763,92.0908660889,3.94085001945
1647422864892714742,139,1647422864892714742,r200141368/base_front_laser_link,0,1647422864892714742,v/m1vw10zy74w/map,-0.0193590598047,5.13939164468,0.165,0.0,0.0,-0.00376334860379,0.999992918579,1,56.3025856018,60.2399940491,92.0627746582,3.94092702866
1647422865129523840,140,1647422865129523840,r200141368/base_front_laser_link,0,1647422865129523840,v/m1vw10zy74w/map,0.120699216573,5.14429094817,0.165,0.0,0.0,-0.00296824868353,0.99999559474,1,59.6551971436,60.2358436584,92.017250061,3.92713594437
1647422865287335011,141,1647422865287335011,r200141368/base_front_laser_link,0,1647422865287335011,v/m1vw10zy74w/map,0.215103355694,5.14513675297,0.165,0.0,0.0,-0.00195575990492,0.9999980875,1,59.4309196472,60.2301750183,91.9714813232,3.91376805305
1647422865445507595,142,1647422865445507595,r200141368/base_front_laser_link,0,1647422865445507595,v/m1vw10zy74w/map,0.309854090479,5.14667535233,0.165,0.0,0.0,-0.000735109801864,0.999999729807,1,63.0220069885,60.2496986389,91.9705352783,3.90694451332
1647422865601700563,143,1647422865601700563,r200141368/base_front_laser_link,0,1647422865601700563,v/m1vw10zy74w/map,0.396450748081,5.15189622994,0.165,0.0,0.0,0.000949069031188,0.999999549634,1,61.0009346008,60.2549171448,91.9362106323,3.89376330376
1647422865838782409,144,1647422865838782409,r200141368/base_front_laser_link,0,1647422865838782409,v/m1vw10zy74w/map,0.538351134101,5.15196681959,0.165,0.0,0.0,0.00081116181933,0.999999671008,1,60.765625,60.2584381104,91.8997955322,3.88045144081
1647422865995740650,145,1647422865995740650,r200141368/base_front_laser_link,0,1647422865995740650,v/m1vw10zy74w/map,0.625894316785,5.157599524,0.165,0.0,0.0,-0.000995668042958,0.999999504322,1,57.5710792542,60.240032196,91.8603439331,3.87343788147
1647422866153849463,146,1647422866153849463,r200141368/base_front_laser_link,0,1647422866153849463,v/m1vw10zy74w/map,0.720629788181,5.15260450054,0.165,0.0,0.0,-0.00408734488921,0.999991646771,1,54.9656791687,60.2041511536,91.8579101562,3.88458514214
1647422866389798830,147,1647422866389798830,r200141368/base_front_laser_link,0,1647422866389798830,v/m1vw10zy74w/map,0.85860700253,5.15887849544,0.165,0.0,0.0,-0.00911010776553,0.999958502107,1,58.4102897644,60.1920318604,91.8144989014,3.87415671349
1647422866548070074,148,1647422866548070074,r200141368/base_front_laser_link,0,1647422866548070074,v/m1vw10zy74w/map,0.952997470052,5.14818227946,0.165,0.0,0.0,-0.0148582094974,0.999889610712,1,58.0098686218,60.1773872375,91.77293396,3.86518263817
1647422866704908140,149,1647422866704908140,r200141368/base_front_laser_link,0,1647422866704908140,v/m1vw10zy74w/map,1.05072814255,5.14835435435,0.165,0.0,0.0,-0.0200339655231,0.999799299972,1,54.8343162537,60.1417655945,91.7722091675,3.87681484222
1647422866862956743,150,1647422866862956743,r200141368/base_front_laser_link,0,1647422866862956743,v/m1vw10zy74w/map,1.14487440826,5.13124198522,0.165,0.0,0.0,-0.0288204466896,0.99958460465,1,58.8447494507,60.1331748962,91.7291107178,3.86531186104
1647422867098863919,151,1647422867098863919,r200141368/base_front_laser_link,0,1647422867098863919,v/m1vw10zy74w/map,1.28468639386,5.10758571724,0.165,0.0,0.0,-0.0446645458199,0.999002041212,1,53.3719787598,60.0886955261,91.7626800537,3.89132881165
1647422867256805575,152,1647422867256805575,r200141368/base_front_laser_link,0,1647422867256805575,v/m1vw10zy74w/map,1.37608213528,5.07977535577,0.165,0.0,0.0,-0.0576170758096,0.998338756422,1,56.4432067871,60.064868927,91.7339324951,3.88968873024
1647422867415355171,153,1647422867415355171,r200141368/base_front_laser_link,0,1647422867415355171,v/m1vw10zy74w/map,1.46723307488,5.0459252531,0.165,0.0,0.0,-0.0723798572008,0.997377138434,1,51.7888679504,60.0111274719,91.8128204346,3.93389701843
1647422867651223131,154,1647422867651223131,r200141368/base_front_laser_link,0,1647422867651223131,v/m1vw10zy74w/map,1.60627428432,4.99869135652,0.165,0.0,0.0,-0.0945102680309,0.995523886824,1,53.0157737732,59.9659957886,91.8494644165,3.96115708351
1647422867808290918,155,1647422867808290918,r200141368/base_front_laser_link,0,1647422867808290918,v/m1vw10zy74w/map,1.69293076091,4.95414041549,0.165,0.0,0.0,-0.111987264182,0.993709642029,1,58.9815788269,59.9596862793,91.8071212769,3.94914507866
1647422867967047480,156,1647422867967047480,r200141368/base_front_laser_link,0,1647422867967047480,v/m1vw10zy74w/map,1.76953339103,4.90267367512,0.165,0.0,0.0,-0.133369588882,0.991066371522,1,55.2857055664,59.9299163818,91.7922210693,3.95410180092
1647422868281455740,157,1647422868281455740,r200141368/base_front_laser_link,0,1647422868281455740,v/m1vw10zy74w/map,1.92671940155,4.77299065825,0.165,0.0,0.0,-0.182409178749,0.983222706973,1,57.0566635132,59.91173172,91.7560653687,3.94811177254
1647422868440098511,158,1647422868440098511,r200141368/base_front_laser_link,0,1647422868440098511,v/m1vw10zy74w/map,1.99739742457,4.69700263982,0.165,0.0,0.0,-0.211011044431,0.977483677167,1,53.9775390625,59.8744087219,91.7653121948,3.96363544464
1647422868596761725,159,1647422868596761725,r200141368/base_front_laser_link,0,1647422868596761725,v/m1vw10zy74w/map,2.06114606562,4.61444472538,0.165,0.0,0.0,-0.241545069044,0.970389601975,1,55.8150215149,59.8490371704,91.7415237427,3.96416330338
1647422868754253101,160,1647422868754253101,r200141368/base_front_laser_link,0,1647422868754253101,v/m1vw10zy74w/map,2.12115352865,4.5232258023,0.165,0.0,0.0,-0.27587167935,0.961194473836,1,52.0518836975,59.8006095886,91.7983551025,3.99924826622
1647422868991286697,161,1647422868991286697,r200141368/base_front_laser_link,0,1647422868991286697,v/m1vw10zy74w/map,2.18861831435,4.37503932381,0.165,0.0,0.0,-0.32651683816,0.945191385063,1,53.9165687561,59.7642860413,91.8048553467,4.01352214813
1647422869147962169,162,1647422869147962169,r200141368/base_front_laser_link,0,1647422869147962169,v/m1vw10zy74w/map,2.21443221195,4.28137526314,0.165,0.0,0.0,-0.36057359345,0.932730766999,1,54.8469085693,59.7341194153,91.7929534912,4.01961088181
1647422869305631055,163,1647422869305631055,r200141368/base_front_laser_link,0,1647422869305631055,v/m1vw10zy74w/map,2.23359478136,4.18800241492,0.165,0.0,0.0,-0.39457009753,0.918865843383,1,53.3611602783,59.6952590942,91.8093948364,4.03804397583
1647422869463256359,164,1647422869463256359,r200141368/base_front_laser_link,0,1647422869463256359,v/m1vw10zy74w/map,2.25570218523,4.08172001587,0.165,0.0,0.0,-0.427810663414,0.903868373309,1,55.6589584351,59.6707954407,91.7846755981,4.03795862198
1647422869699587143,165,1647422869699587143,r200141368/base_front_laser_link,0,1647422869699587143,v/m1vw10zy74w/map,2.277283514,3.93919304587,0.165,0.0,0.0,-0.476764905268,0.879030844228,1,58.7900238037,59.6654891968,91.7443466187,4.02628421783
1647422869777463251,166,1647422869777463251,r200141368/base_front_laser_link,0,1647422869777463251,v/m1vw10zy74w/map,2.2791460174,3.88525351705,0.165,0.0,0.0,-0.492800622181,0.870142256633,1,57.4965820312,59.6525039673,91.7054443359,4.01764583588
1647422869935545950,167,1647422869935545950,r200141368/base_front_laser_link,0,1647422869935545950,v/m1vw10zy74w/map,2.28079085863,3.76846191391,0.165,0.0,0.0,-0.525744431384,0.85064257645,1,55.7683982849,59.6293830872,91.6797637939,4.01679229736
1647422870329620858,168,1647422870329620858,r200141368/base_front_laser_link,0,1647422870329620858,v/m1vw10zy74w/map,2.24936806118,3.5075899586,0.165,0.0,0.0,-0.592657601611,0.805454509735,1,59.0090103149,59.6257133484,91.6410217285,4.00510406494
1647422870645618054,169,1647422870645618054,r200141368/base_front_laser_link,0,1647422870645618054,v/m1vw10zy74w/map,2.21671387343,3.31908629538,0.165,0.0,0.0,-0.630733140839,0.775999809953,1,58.0196456909,59.6162643433,91.6016769409,3.9951364994
1647422870959833872,170,1647422870959833872,r200141368/base_front_laser_link,0,1647422870959833872,v/m1vw10zy74w/map,2.21343326014,3.14032775406,0.165,0.0,0.0,-0.649567576127,0.760303862969,1,55.2809028625,59.5909118652,91.5823364258,3.99714159966
1647422871196724812,171,1647422871196724812,r200141368/base_front_laser_link,0,1647422871196724812,v/m1vw10zy74w/map,2.20338799901,2.99687183977,0.165,0.0,0.0,-0.65925514761,0.751919311063,1,54.5786170959,59.5617713928,91.5729293823,4.00371980667
1647422871353710056,172,1647422871353710056,r200141368/base_front_laser_link,0,1647422871353710056,v/m1vw10zy74w/map,2.20939788784,2.90290141206,0.165,0.0,0.0,-0.662279098351,0.749257229453,1,55.1237106323,59.5361175537,91.555015564,4.00629854202
1647422871511861818,173,1647422871511861818,r200141368/base_front_laser_link,0,1647422871511861818,v/m1vw10zy74w/map,2.21500194808,2.81227884566,0.165,0.0,0.0,-0.664959908835,0.746879052888,1,57.224105835,59.5228309631,91.5184707642,3.9985461235
1647422871826998392,174,1647422871826998392,r200141368/base_front_laser_link,0,1647422871826998392,v/m1vw10zy74w/map,2.21946497407,2.62498390167,0.165,0.0,0.0,-0.665443172497,0.746448514083,1,56.0766792297,59.5031394958,91.4897613525,3.99554085732
1647422871984984124,175,1647422871984984124,r200141368/base_front_laser_link,0,1647422871984984124,v/m1vw10zy74w/map,2.24043726427,2.53497025245,0.165,0.0,0.0,-0.661972245435,0.749528349213,1,56.7723693848,59.4876213074,91.4558868408,3.98942255974
1647422872143230038,176,1647422872143230038,r200141368/base_front_laser_link,0,1647422872143230038,v/m1vw10zy74w/map,2.25833310281,2.44160116736,0.165,0.0,0.0,-0.658979674517,0.752160746499,1,55.0361442566,59.4624710083,91.4388275146,3.99211931229
1647422872300120749,177,1647422872300120749,r200141368/base_front_laser_link,0,1647422872300120749,v/m1vw10zy74w/map,2.24803744227,2.34946159942,0.165,0.0,0.0,-0.658682150902,0.752421307569,1,53.387676239,59.4283447266,91.4486923218,4.00678157806
1647422872536182683,178,1647422872536182683,r200141368/base_front_laser_link,0,1647422872536182683,v/m1vw10zy74w/map,2.27853812067,2.21093892164,0.165,0.0,0.0,-0.653091221215,0.757279246231,1,55.4914855957,59.4063529968,91.4253463745,4.00633144379
1647422872773914395,179,1647422872773914395,r200141368/base_front_laser_link,0,1647422872773914395,v/m1vw10zy74w/map,2.31187847375,2.08404037044,0.165,0.0,0.0,-0.645806650172,0.763500995804,1,55.4440498352,59.3843383789,91.4024124146,4.00602579117
1647422872930898218,180,1647422872930898218,r200141368/base_front_laser_link,0,1647422872930898218,v/m1vw10zy74w/map,2.33795336923,1.99293941137,0.165,0.0,0.0,-0.640607052549,0.767868871764,1,53.2234268188,59.3502998352,91.4134292603,4.02104377747
1647422873088226584,181,1647422873088226584,r200141368/base_front_laser_link,0,1647422873088226584,v/m1vw10zy74w/map,2.35652495924,1.90872223999,0.165,0.0,0.0,-0.635667511411,0.771962962153,1,54.8743629456,59.3257064819,91.3965759277,4.02362251282
1647422873325168249,182,1647422873325168249,r200141368/base_front_laser_link,0,1647422873325168249,v/m1vw10zy74w/map,2.40637816311,1.77383236943,0.165,0.0,0.0,-0.624547438209,0.780986874043,1,56.4098472595,59.3097724915,91.3647918701,4.01833868027
1647422873404142479,183,1647422873404142479,r200141368/base_front_laser_link,0,1647422873404142479,v/m1vw10zy74w/map,2.42417293656,1.72931690496,0.165,0.0,0.0,-0.620631359044,0.784102490859,1,55.4715194702,59.2889137268,91.3408813477,4.01732206345
1647422873639290976,184,1647422873639290976,r200141368/base_front_laser_link,0,1647422873639290976,v/m1vw10zy74w/map,2.47316120578,1.60023318715,0.165,0.0,0.0,-0.610015541593,0.792389449081,1,56.9153137207,59.2760848999,91.3066482544,4.01018953323
1647422873875425843,185,1647422873875425843,r200141368/base_front_laser_link,0,1647422873875425843,v/m1vw10zy74w/map,2.52652147484,1.47522483636,0.165,0.0,0.0,-0.597141047696,0.802136253486,1,55.3191490173,59.2548103333,91.2843475342,4.00984668732
1647422874034165584,186,1647422874034165584,r200141368/base_front_laser_link,0,1647422874034165584,v/m1vw10zy74w/map,2.56450267706,1.38384329061,0.165,0.0,0.0,-0.59034271091,0.807152701584,1,55.4667701721,59.2345504761,91.2604598999,4.00863552094
1647422874190445754,187,1647422874190445754,r200141368/base_front_laser_link,0,1647422874190445754,v/m1vw10zy74w/map,2.60810959289,1.2999299106,0.165,0.0,0.0,-0.581980212776,0.813202946341,1,56.3854408264,59.2193984985,91.2292938232,4.0032992363
1647422874428269275,188,1647422874428269275,r200141368/base_front_laser_link,0,1647422874428269275,v/m1vw10zy74w/map,2.66545735487,1.15824373695,0.165,0.0,0.0,-0.570281255174,0.821449505446,1,55.9120903015,59.2018966675,91.2015380859,3.99987912178
1647422874663483377,189,1647422874663483377,r200141368/base_front_laser_link,0,1647422874663483377,v/m1vw10zy74w/map,2.73907532381,1.02726416444,0.165,0.0,0.0,-0.558554225146,0.82946800877,1,53.8217048645,59.1735801697,91.1985778809,4.00833272934
1647422874822361433,190,1647422874822361433,r200141368/base_front_laser_link,0,1647422874822361433,v/m1vw10zy74w/map,2.80845728085,0.93174594006,0.165,0.0,0.0,-0.550303856211,0.834964469807,1,55.9942932129,59.1569366455,91.1700897217,4.00438404083
1647422874978554886,191,1647422874978554886,r200141368/base_front_laser_link,0,1647422874978554886,v/m1vw10zy74w/map,2.876623478,0.812218178403,0.165,0.0,0.0,-0.542188691951,0.840256759759,1,54.7721099854,59.134098053,91.1533126831,4.00640439987
1647422875293618195,192,1647422875293618195,r200141368/base_front_laser_link,0,1647422875293618195,v/m1vw10zy74w/map,3.05946297246,0.529028339419,0.165,0.0,0.0,-0.525033238437,0.851081722596,1,57.8804969788,59.1276016235,91.1185302734,3.99697613716
1647422875372575265,193,1647422875372575265,r200141368/base_front_laser_link,0,1647422875372575265,v/m1vw10zy74w/map,3.11000980733,0.444925534994,0.165,0.0,0.0,-0.520947434545,0.853588759556,1,55.8401641846,59.1106567383,91.0914230347,3.99358868599
1647422875608765453,194,1647422875608765453,r200141368/base_front_laser_link,0,1647422875608765453,v/m1vw10zy74w/map,3.31891283207,0.200553291574,0.165,0.0,0.0,-0.499724626582,0.866184332338,1,57.2889137268,59.1013145447,91.0575714111,3.9854183197
1647422875687742511,195,1647422875687742511,r200141368/base_front_laser_link,0,1647422875687742511,v/m1vw10zy74w/map,3.38457854098,0.113162360356,0.165,0.0,0.0,-0.492454305863,0.870338300109,1,56.2888412476,59.0869674683,91.0277404785,3.98025918007
1647422875844720987,196,1647422875844720987,r200141368/base_front_laser_link,0,1647422875844720987,v/m1vw10zy74w/map,3.53831305555,-0.0384357445007,0.165,0.0,0.0,-0.47165821024,0.881781454054,1,58.1975212097,59.0824508667,90.9942474365,3.97059822083
1647422875923648482,197,1647422875923648482,r200141368/base_front_laser_link,0,1647422875923648482,v/m1vw10zy74w/map,3.6118725071,-0.119987759021,0.165,0.0,0.0,-0.462578587563,0.886578282121,1,60.207485199,59.0881347656,90.972076416,3.96131467819
1647422876238747845,198,1647422876238747845,r200141368/base_front_laser_link,0,1647422876238747845,v/m1vw10zy74w/map,3.91963517958,-0.434607013293,0.165,0.0,0.0,-0.428245081397,0.903662630775,1,61.6521568298,59.1010169983,90.9674453735,3.95547676086
1647422876474801311,199,1647422876474801311,r200141368/base_front_laser_link,0,1647422876474801311,v/m1vw10zy74w/map,4.1599822471,-0.628922197865,0.165,0.0,0.0,-0.399917068462,0.916551328815,1,56.6600837708,59.0888137817,90.9367141724,3.94929933548
1647422876789764136,200,1647422876789764136,r200141368/base_front_laser_link,0,1647422876789764136,v/m1vw10zy74w/map,4.50245077942,-0.89646646885,0.165,0.0,0.0,-0.368967783573,0.929442184692,1,58.5669746399,59.0862159729,90.9049758911,3.93958568573
1647422877025935905,201,1647422877025935905,r200141368/base_front_laser_link,0,1647422877025935905,v/m1vw10zy74w/map,4.77871996118,-1.10560290331,0.165,0.0,0.0,-0.357697649925,0.933837454399,1,62.7980651855,59.1045913696,90.919921875,3.93844223022
1647422877263152392,202,1647422877263152392,r200141368/base_front_laser_link,0,1647422877263152392,v/m1vw10zy74w/map,5.04123340062,-1.32574324815,0.165,0.0,0.0,-0.356925973285,0.934132672373,1,62.1222686768,59.1194572449,90.9226150513,3.93438649178
1647422877577946133,203,1647422877577946133,r200141368/base_front_laser_link,0,1647422877577946133,v/m1vw10zy74w/map,5.37630993531,-1.61168686585,0.165,0.0,0.0,-0.367566859669,0.929997098744,1,65.8169403076,59.1522903442,91.0100784302,3.9525976181
1647422877735057076,204,1647422877735057076,r200141368/base_front_laser_link,0,1647422877735057076,v/m1vw10zy74w/map,5.50832157557,-1.78593042394,0.165,0.0,0.0,-0.383017980223,0.923740887276,1,67.1142959595,59.1911277771,91.1368865967,3.98191928864
1647422878049990760,205,1647422878049990760,r200141368/base_front_laser_link,0,1647422878049990760,v/m1vw10zy74w/map,5.77543046677,-2.11136381613,0.165,0.0,0.0,-0.414716783052,0.909950542532,1,63.4701728821,59.2118988037,91.1620025635,3.98336815834
1647422878286396703,206,1647422878286396703,r200141368/base_front_laser_link,0,1647422878286396703,v/m1vw10zy74w/map,5.9286608605,-2.34035478829,0.165,0.0,0.0,-0.440842820032,0.897584318059,1,59.3948326111,59.2127838135,91.1339111328,3.97370815277
1647422878524029923,207,1647422878524029923,r200141368/base_front_laser_link,0,1647422878524029923,v/m1vw10zy74w/map,6.0127821186,-2.52319015238,0.165,0.0,0.0,-0.467913537257,0.883774248126,1,58.4597930908,59.2091636658,91.1024932861,3.96444201469
1647422878681082262,208,1647422878681082262,r200141368/base_front_laser_link,0,1647422878681082262,v/m1vw10zy74w/map,6.03918695525,-2.61670466817,0.165,0.0,0.0,-0.484994359886,0.874517278777,1,55.5939712524,59.1918640137,91.0802612305,3.96279883385
1647422878838890222,209,1647422878838890222,r200141368/base_front_laser_link,0,1647422878838890222,v/m1vw10zy74w/map,6.02409071361,-2.67234656111,0.165,0.0,0.0,-0.498414578728,0.866938814284,1,61.1622581482,59.2012481689,91.0681838989,3.95564460754
1647422878997073538,210,1647422878997073538,r200141368/base_front_laser_link,0,1647422878997073538,v/m1vw10zy74w/map,6.03337142217,-2.72214539985,0.165,0.0,0.0,-0.507942236338,0.861391133309,1,58.9402389526,59.200012207,91.0387802124,3.94625616074
1647422879233368106,211,1647422879233368106,r200141368/base_front_laser_link,0,1647422879233368106,v/m1vw10zy74w/map,6.04382701218,-2.7643375369,0.165,0.0,0.0,-0.513924609869,0.857835354465,1,61.4640693665,59.2106895447,91.0305786133,3.93996334076
1647422879390699732,212,1647422879390699732,r200141368/base_front_laser_link,0,1647422879390699732,v/m1vw10zy74w/map,6.05807450698,-2.79899732291,0.165,0.0,0.0,-0.516060395667,0.856552198073,1,58.7779808044,59.2086601257,91.0009765625,3.9307718277
1647422879627371049,213,1647422879627371049,r200141368/base_front_laser_link,0,1647422879627371049,v/m1vw10zy74w/map,6.08542211388,-2.84566902914,0.165,0.0,0.0,-0.51470719454,0.857366026787,1,60.2492179871,59.21352005,90.9800567627,3.92217874527
1647422880416380263,214,1647422880416380263,r200141368/base_front_laser_link,0,1647422880416380263,v/m1vw10zy74w/map,6.16595403644,-2.92365157098,0.165,0.0,0.0,-0.494431268403,0.869216728339,1,58.009677887,59.2079238892,90.9495162964,3.91386532784
1647422880573338500,215,1647422880573338500,r200141368/base_front_laser_link,0,1647422880573338500,v/m1vw10zy74w/map,6.16256637721,-2.92690505153,0.165,0.0,0.0,-0.497127798979,0.867677331432,1,57.7731513977,59.2012786865,90.9191970825,3.90597271919
1647422880730449659,216,1647422880730449659,r200141368/base_front_laser_link,0,1647422880730449659,v/m1vw10zy74w/map,6.15199059645,-2.93422329632,0.165,0.0,0.0,-0.504647723149,0.863325359017,1,54.9662895203,59.1817626953,90.904296875,3.90751099586
1647422880966634829,217,1647422880966634829,r200141368/base_front_laser_link,0,1647422880966634829,v/m1vw10zy74w/map,6.11751754262,-2.95338409431,0.165,0.0,0.0,-0.52754493622,0.849527127447,1,57.3133163452,59.1731948853,90.8748474121,3.90055036545
1647422881123801354,218,1647422881123801354,r200141368/base_front_laser_link,0,1647422881123801354,v/m1vw10zy74w/map,6.08855955948,-2.96740594469,0.165,0.0,0.0,-0.545947306144,0.837819514522,1,55.2039680481,59.1550674438,90.8575439453,3.90082597733
1647422884671113122,219,1647422884671113122,r200141368/base_front_laser_link,0,1647422884671113122,v/m1vw10zy74w/map,6.01097690828,-3.09698839516,0.165,0.0,0.0,-0.609328469076,0.792917913011,1,58.7017784119,59.1530075073,90.8290939331,3.89202976227
1647422884829228851,220,1647422884829228851,r200141368/base_front_laser_link,0,1647422884829228851,v/m1vw10zy74w/map,6.01676380688,-3.1217041562,0.165,0.0,0.0,-0.60973264931,0.792607151347,1,61.9482345581,59.1656570435,90.8288269043,3.88772368431
1647422885065097347,221,1647422885065097347,r200141368/base_front_laser_link,0,1647422885065097347,v/m1vw10zy74w/map,6.01062565729,-3.15984151936,0.165,0.0,0.0,-0.611933521191,0.790909201896,1,64.0063247681,59.187461853,90.8649597168,3.89249968529
1647422885222287501,222,1647422885222287501,r200141368/base_front_laser_link,0,1647422885222287501,v/m1vw10zy74w/map,6.02126715347,-3.18866789976,0.165,0.0,0.0,-0.610318407555,0.792156197603,1,61.6113548279,59.1983299255,90.8596725464,3.88711333275
1647422885379393072,223,1647422885379393072,r200141368/base_front_laser_link,0,1647422885379393072,v/m1vw10zy74w/map,6.0329765038,-3.22021644546,0.165,0.0,0.0,-0.608588438509,0.793486050611,1,63.5393867493,59.2177124023,90.8853683472,3.88921880722
1647422885615430034,224,1647422885615430034,r200141368/base_front_laser_link,0,1647422885615430034,v/m1vw10zy74w/map,6.05128749705,-3.27133113574,0.165,0.0,0.0,-0.606280714488,0.795250712191,1,62.3184623718,59.2314910889,90.8895797729,3.88602972031
1647422885852292202,225,1647422885852292202,r200141368/base_front_laser_link,0,1647422885852292202,v/m1vw10zy74w/map,6.07131667539,-3.32832769826,0.165,0.0,0.0,-0.604085751201,0.796919321636,1,60.3525772095,59.23645401,90.8707580566,3.8781015873
1647422886009500304,226,1647422886009500304,r200141368/base_front_laser_link,0,1647422886009500304,v/m1vw10zy74w/map,6.08548182543,-3.36916550472,0.165,0.0,0.0,-0.60271284402,0.797958161593,1,62.9678268433,59.2528915405,90.8851776123,3.87742948532
1647422886167528159,227,1647422886167528159,r200141368/base_front_laser_link,0,1647422886167528159,v/m1vw10zy74w/map,6.09059484545,-3.4147303716,0.165,0.0,0.0,-0.603837919237,0.7971071241,1,62.5032234192,59.2671470642,90.8917388916,3.87486338615
1647422886324458868,228,1647422886324458868,r200141368/base_front_laser_link,0,1647422886324458868,v/m1vw10zy74w/map,6.11988398748,-3.45007111223,0.165,0.0,0.0,-0.602310271665,0.79826207266,1,60.4192733765,59.2721786499,90.8734970093,3.86710596085
1647422886482660329,229,1647422886482660329,r200141368/base_front_laser_link,0,1647422886482660329,v/m1vw10zy74w/map,6.13257173699,-3.49942804431,0.165,0.0,0.0,-0.603019078888,0.79772676431,1,62.7133750916,59.2871398926,90.8830947876,3.8653190136
1647422886718381666,230,1647422886718381666,r200141368/base_front_laser_link,0,1647422886718381666,v/m1vw10zy74w/map,6.15134463187,-3.57752119902,0.165,0.0,0.0,-0.60468432571,0.796465232286,1,58.7728843689,59.2849121094,90.8560791016,3.85705542564
1647422886876697819,231,1647422886876697819,r200141368/base_front_laser_link,0,1647422886876697819,v/m1vw10zy74w/map,6.16431871305,-3.63326500507,0.165,0.0,0.0,-0.605979565012,0.795480211437,1,60.2403259277,59.2890319824,90.8366546631,3.84920883179
1647422887033750323,232,1647422887033750323,r200141368/base_front_laser_link,0,1647422887033750323,v/m1vw10zy74w/map,6.18026353839,-3.6876913131,0.165,0.0,0.0,-0.611218137601,0.791462183726,1,61.4914703369,59.2984848022,90.8293228149,3.84361338615
1647422887192448511,233,1647422887192448511,r200141368/base_front_laser_link,0,1647422887192448511,v/m1vw10zy74w/map,6.19148121438,-3.74872043522,0.165,0.0,0.0,-0.612934553417,0.790133680605,1,62.3406333923,59.3114852905,90.8330078125,3.84050893784
1647422887428925929,234,1647422887428925929,r200141368/base_front_laser_link,0,1647422887428925929,v/m1vw10zy74w/map,6.21277230507,-3.84351636315,0.165,0.0,0.0,-0.614407707242,0.788988700351,1,61.8635025024,59.3223419189,90.8300704956,3.83590817451
1647422887507559097,235,1647422887507559097,r200141368/base_front_laser_link,0,1647422887507559097,v/m1vw10zy74w/map,6.220687717,-3.87585683381,0.165,0.0,0.0,-0.614537996574,0.788887223097,1,62.7505531311,59.3368682861,90.8395843506,3.83423733711
1647422887585548015,236,1647422887585548015,r200141368/base_front_laser_link,0,1647422887585548015,v/m1vw10zy74w/map,6.22885577755,-3.90861649463,0.165,0.0,0.0,-0.614588071825,0.788848212251,1,61.6972122192,59.3468284607,90.8343582153,3.82917618752
1647422887743848295,237,1647422887743848295,r200141368/base_front_laser_link,0,1647422887743848295,v/m1vw10zy74w/map,6.25864980581,-3.97353847259,0.165,0.0,0.0,-0.615799747134,0.787902704291,1,60.8389434814,59.353099823,90.8200378418,3.8223130703
1647422887822759297,238,1647422887822759297,r200141368/base_front_laser_link,0,1647422887822759297,v/m1vw10zy74w/map,6.26732975349,-4.00867580476,0.165,0.0,0.0,-0.615833564745,0.787876272351,1,62.9207801819,59.3680267334,90.8317718506,3.82124948502
1647422888137930944,239,1647422888137930944,r200141368/base_front_laser_link,0,1647422888137930944,v/m1vw10zy74w/map,6.30278411536,-4.15475367634,0.165,0.0,0.0,-0.616274642292,0.787531310659,1,63.5709953308,59.3855400085,90.8541946411,3.82288575172
