%time,field.header.seq,field.header.stamp,field.header.frame_id,field.pose.header.seq,field.pose.header.stamp,field.pose.header.frame_id,field.pose.pose.position.x,field.pose.pose.position.y,field.pose.pose.position.z,field.pose.pose.orientation.x,field.pose.pose.orientation.y,field.pose.pose.orientation.z,field.pose.pose.orientation.w,field.label,field.current_error,field.mean,field.threshold,field.std_dev
1647331585784081255,0,1647331585784081255,r2002313a3/base_front_laser_link,0,1647331585784081255,v/m1vw10zy74w/map,-10.735970908,2.91954837943,0.165,0.0,0.0,-0.999993964154,-0.00347442869291,0,54.4587211609,54.4587211609,nan,nan
1647331586648828642,1,1647331586648828642,r2002313a3/base_front_laser_link,0,1647331586648828642,v/m1vw10zy74w/map,-10.8435138945,2.97188006606,0.165,0.0,0.0,-0.999364711454,-0.0356394935566,0,57.0094299316,55.7340774536,81.1449508667,1.80362355709
1647331586885434739,2,1647331586885434739,r2002313a3/base_front_laser_link,0,1647331586885434739,v/m1vw10zy74w/map,-10.8870315093,2.9759046519,0.165,0.0,0.0,-0.999343427657,-0.0362313896851,0,56.6678009033,56.0453186035,80.1991424561,1.38460922241
1647331587120881210,3,1647331587120881210,r2002313a3/base_front_laser_link,0,1647331587120881210,v/m1vw10zy74w/map,-10.9535952471,2.97843276865,0.165,0.0,0.0,-0.999396420177,-0.0347389599268,0,56.3433227539,56.1198196411,79.5407333374,1.14030563831
1647331587279880213,4,1647331587279880213,r2002313a3/base_front_laser_link,0,1647331587279880213,v/m1vw10zy74w/map,-10.9894981671,2.98018212479,0.165,0.0,0.0,-0.999413395557,-0.0342471134673,0,55.1288795471,55.9216308594,79.1688690186,1.08241140842
1647331587514358449,5,1647331587514358449,r2002313a3/base_front_laser_link,0,1647331587514358449,v/m1vw10zy74w/map,-11.046332675,2.98970416158,0.165,0.0,0.0,-0.999279278634,-0.0379594954282,0,54.506111145,55.685710907,79.0681915283,1.12749350071
1647331587672079750,6,1647331587672079750,r2002313a3/base_front_laser_link,0,1647331587672079750,v/m1vw10zy74w/map,-11.087119559,3.00462059701,0.165,0.0,0.0,-0.9989530301,-0.0457476081879,0,55.6757965088,55.6842956543,78.7720870972,1.02926290035
1647331587908064340,7,1647331587908064340,r2002313a3/base_front_laser_link,0,1647331587908064340,v/m1vw10zy74w/map,-11.1513566746,3.03396053353,0.165,0.0,0.0,-0.998141952396,-0.0609314603991,0,58.7555732727,56.0682067871,80.4022827148,1.44469177723
1647331588144138621,8,1647331588144138621,r2002313a3/base_front_laser_link,0,1647331588144138621,v/m1vw10zy74w/map,-11.2144165068,3.06906885769,0.165,0.0,0.0,-0.996961188535,-0.0778998623559,0,56.5578727722,56.1226119995,80.2062301636,1.36120688915
1647331588301137613,9,1647331588301137613,r2002313a3/base_front_laser_link,0,1647331588301137613,v/m1vw10zy74w/map,-11.2621824111,3.0957539476,0.165,0.0,0.0,-0.995913648274,-0.0903106039217,0,58.2370872498,56.3340606689,80.6753692627,1.44710338116
1647331588537048647,10,1647331588537048647,r2002313a3/base_front_laser_link,0,1647331588537048647,v/m1vw10zy74w/map,-11.3366525417,3.14093320428,0.165,0.0,0.0,-0.993907138793,-0.110220685244,0,56.8382606506,56.3798942566,80.5235977173,1.38123428822
1647331588616720746,11,1647331588616720746,r2002313a3/base_front_laser_link,0,1647331588616720746,v/m1vw10zy74w/map,-11.3623900185,3.15865970485,0.165,0.0,0.0,-0.993018798618,-0.117956202008,0,59.4194564819,56.6331939697,81.3806686401,1.58249211311
1647331588694695500,12,1647331588694695500,r2002313a3/base_front_laser_link,0,1647331588694695500,v/m1vw10zy74w/map,-11.3798548694,3.18166013627,0.165,0.0,0.0,-0.991833052737,-0.127542916301,0,60.3500900269,56.9191093445,82.4168167114,1.8325688839
1647331588851799691,13,1647331588851799691,r2002313a3/base_front_laser_link,0,1647331588851799691,v/m1vw10zy74w/map,-11.4366891836,3.22302153356,0.165,0.0,0.0,-0.989315110785,-0.145793043635,0,55.1512260437,56.7928314209,82.2617416382,1.82297027111
1647331589167090691,14,1647331589167090691,r2002313a3/base_front_laser_link,0,1647331589167090691,v/m1vw10zy74w/map,-11.5361589294,3.3258017525,0.165,0.0,0.0,-0.981999574639,-0.188883126322,0,54.5541496277,56.6435852051,82.1915283203,1.84931349754
1647331589323892367,15,1647331589323892367,r2002313a3/base_front_laser_link,0,1647331589323892367,v/m1vw10zy74w/map,-11.5828519597,3.37945559567,0.165,0.0,0.0,-0.977848443345,-0.209314170203,0,58.5540084839,56.7629852295,82.3110198975,1.84934318066
1647331589638094605,16,1647331589638094605,r2002313a3/base_front_laser_link,0,1647331589638094605,v/m1vw10zy74w/map,-11.672785971,3.51300145837,0.165,0.0,0.0,-0.965244272386,-0.261349372729,0,58.0368499756,56.8379211426,82.2891540527,1.8170773983
1647331589796107926,17,1647331589796107926,r2002313a3/base_front_laser_link,0,1647331589796107926,v/m1vw10zy74w/map,-11.7105043217,3.59640688586,0.165,0.0,0.0,-0.955189879139,-0.295993741133,0,59.5181617737,56.9868240356,82.6046295166,1.87260317802
1647331589953032675,18,1647331589953032675,r2002313a3/base_front_laser_link,0,1647331589953032675,v/m1vw10zy74w/map,-11.7339799593,3.69312658355,0.165,0.0,0.0,-0.941541118913,-0.336898087551,0,58.9535255432,57.0903320312,82.7151565552,1.8749409914
1647331590110207878,19,1647331590110207878,r2002313a3/base_front_laser_link,0,1647331590110207878,v/m1vw10zy74w/map,-11.7440567027,3.79658471406,0.165,0.0,0.0,-0.924651629891,-0.380814079755,0,57.175617218,57.0945968628,82.569694519,1.82503318787
1647331590267997181,20,1647331590267997181,r2002313a3/base_front_laser_link,0,1647331590267997181,v/m1vw10zy74w/map,-11.7395328794,3.90888698706,0.165,0.0,0.0,-0.90351675323,-0.428552769951,0,54.4894943237,56.9705429077,82.5728988647,1.86745250225
1647331590426100790,21,1647331590426100790,r2002313a3/base_front_laser_link,0,1647331590426100790,v/m1vw10zy74w/map,-11.7347770582,4.02458189286,0.165,0.0,0.0,-0.87960294737,-0.475708581989,0,55.6583938599,56.910900116,82.4422836304,1.84379339218
1647331590741120774,22,1647331590741120774,r2002313a3/base_front_laser_link,0,1647331590741120774,v/m1vw10zy74w/map,-11.6891135129,4.24759976822,0.165,0.0,0.0,-0.83186849918,-0.55497279219,0,55.6486816406,56.8560218811,82.3176040649,1.82052671909
1647331590820099171,23,1647331590820099171,r2002313a3/base_front_laser_link,0,1647331590820099171,v/m1vw10zy74w/map,-11.6769215213,4.29603808501,0.165,0.0,0.0,-0.820003653188,-0.572358287053,0,57.3915405273,56.8783340454,82.2299194336,1.78386259079
1647331590899255129,24,1647331590899255129,r2002313a3/base_front_laser_link,0,1647331590899255129,v/m1vw10zy74w/map,-11.6657645675,4.35471946325,0.165,0.0,0.0,-0.80846658946,-0.58854207473,0,54.2944793701,56.7749824524,82.2384643555,1.82116115093
1647331591213841964,25,1647331591213841964,r2002313a3/base_front_laser_link,0,1647331591213841964,v/m1vw10zy74w/map,-11.6162171224,4.57204028777,0.165,0.0,0.0,-0.764517783746,-0.644602635998,0,54.5234947205,56.6883850098,82.2029495239,1.8381870985
1647331591292211532,26,1647331591292211532,r2002313a3/base_front_laser_link,0,1647331591292211532,v/m1vw10zy74w/map,-11.6012873321,4.62405932809,0.165,0.0,0.0,-0.753093121717,-0.657913938158,0,54.4331665039,56.6048583984,82.1668777466,1.85400748253
1647331591449898636,27,1647331591449898636,r2002313a3/base_front_laser_link,0,1647331591449898636,v/m1vw10zy74w/map,-11.5575670516,4.72945333465,0.165,0.0,0.0,-0.728338944978,-0.685217032208,0,57.5111961365,56.6372299194,82.1194152832,1.8273948431
1647331591607190751,28,1647331591607190751,r2002313a3/base_front_laser_link,0,1647331591607190751,v/m1vw10zy74w/map,-11.5079312578,4.83007991532,0.165,0.0,0.0,0.703396828943,0.710797369884,0,57.6769676208,56.6730804443,82.0875473022,1.80482316017
1647331591765695907,29,1647331591765695907,r2002313a3/base_front_laser_link,0,1647331591765695907,v/m1vw10zy74w/map,-11.4566575071,4.93048843567,0.165,0.0,0.0,0.678011632631,0.73505117238,0,55.228477478,56.6249275208,82.0037384033,1.79293763638
1647331591843194411,30,1647331591843194411,r2002313a3/base_front_laser_link,0,1647331591843194411,v/m1vw10zy74w/map,-11.4298685996,4.97449414594,0.165,0.0,0.0,0.66672030472,0.745308013693,0,55.8406944275,56.5996284485,81.9048919678,1.76842045784
1647331592000088860,31,1647331592000088860,r2002313a3/base_front_laser_link,0,1647331592000088860,v/m1vw10zy74w/map,-11.3708806567,5.0701850734,0.165,0.0,0.0,0.643737110683,0.765246713374,0,57.8805580139,56.6396598816,81.902671814,1.75433862209
1647331592079251213,32,1647331592079251213,r2002313a3/base_front_laser_link,0,1647331592079251213,v/m1vw10zy74w/map,-11.3384000415,5.11227112702,0.165,0.0,0.0,0.631149521245,0.775661190103,0,55.0327224731,56.590965271,81.8386306763,1.74922144413
1647331592394250182,33,1647331592394250182,r2002313a3/base_front_laser_link,0,1647331592394250182,v/m1vw10zy74w/map,-11.1762088374,5.26793666815,0.165,0.0,0.0,0.568840531614,0.822447840044,0,58.2999000549,56.6412277222,81.8830337524,1.74726963043
1647331592708345037,34,1647331592708345037,r2002313a3/base_front_laser_link,0,1647331592708345037,v/m1vw10zy74w/map,-10.9625118236,5.38541084379,0.165,0.0,0.0,0.487483900925,0.873131975327,0,57.4621620178,56.664680481,81.8455810547,1.72696661949
1647331592865105667,35,1647331592865105667,r2002313a3/base_front_laser_link,0,1647331592865105667,v/m1vw10zy74w/map,-10.8433600127,5.42202917209,0.165,0.0,0.0,0.439764410138,0.898113168579,0,57.6455154419,56.6919288635,81.8217773438,1.70994877815
1647331593023329601,36,1647331593023329601,r2002313a3/base_front_laser_link,0,1647331593023329601,v/m1vw10zy74w/map,-10.7167572627,5.42873161726,0.165,0.0,0.0,0.38768439883,0.92179217121,0,61.5264167786,56.8225898743,82.4145050049,1.86397111416
1647331593338404726,37,1647331593338404726,r2002313a3/base_front_laser_link,0,1647331593338404726,v/m1vw10zy74w/map,-10.4683836477,5.4089280629,0.165,0.0,0.0,0.279465579829,0.960155711169,0,59.136051178,56.8834686279,82.5130310059,1.87652087212
1647331593496336643,38,1647331593496336643,r2002313a3/base_front_laser_link,0,1647331593496336643,v/m1vw10zy74w/map,-10.3549173615,5.39050387552,0.165,0.0,0.0,0.232300475284,0.97264407117,0,57.1134757996,56.8893661499,82.4454650879,1.85203146935
1647331593653378749,39,1647331593653378749,r2002313a3/base_front_laser_link,0,1647331593653378749,v/m1vw10zy74w/map,-10.251382322,5.38005300161,0.165,0.0,0.0,0.192614332588,0.981274537977,0,55.533416748,56.85546875,82.377456665,1.84066188335
1647331593732047348,40,1647331593732047348,r2002313a3/base_front_laser_link,0,1647331593732047348,v/m1vw10zy74w/map,-10.1973726237,5.37542944121,0.165,0.0,0.0,0.173967470544,0.984751399691,0,57.0178565979,56.8594284058,82.3124847412,1.81768488884
1647331593812053011,41,1647331593812053011,r2002313a3/base_front_laser_link,0,1647331593812053011,v/m1vw10zy74w/map,-10.1471135924,5.36612856361,0.165,0.0,0.0,0.156083669016,0.987743837372,0,53.2846870422,56.7743148804,82.4089279175,1.87820398808
1647331593890170024,42,1647331593890170024,r2002313a3/base_front_laser_link,0,1647331593890170024,v/m1vw10zy74w/map,-10.09149257,5.3581270627,0.165,0.0,0.0,0.139303164337,0.990249780816,0,54.3204612732,56.717250824,82.3964385986,1.89306402206
1647331594047426739,43,1647331594047426739,r2002313a3/base_front_laser_link,0,1647331594047426739,v/m1vw10zy74w/map,-9.99203259719,5.33913144436,0.165,0.0,0.0,0.110042044794,0.993926933118,0,55.4698867798,56.6888999939,82.3299484253,1.88034880161
1647331594205297152,44,1647331594205297152,r2002313a3/base_front_laser_link,0,1647331594205297152,v/m1vw10zy74w/map,-9.8920006147,5.31976061753,0.165,0.0,0.0,0.0841335094237,0.996454490979,0,54.729927063,56.6453666687,82.2903366089,1.88165724277
1647331594284315902,45,1647331594284315902,r2002313a3/base_front_laser_link,0,1647331594284315902,v/m1vw10zy74w/map,-9.8416497904,5.30994849992,0.165,0.0,0.0,0.0711507047072,0.99746557696,0,57.7476234436,56.6693305969,82.2724838257,1.86771667004
1647331594598651507,46,1647331594598651507,r2002313a3/base_front_laser_link,0,1647331594598651507,v/m1vw10zy74w/map,-9.64823944274,5.27381490183,0.165,0.0,0.0,0.0332062321824,0.999448521008,0,56.9000091553,56.6742362976,82.2170715332,1.84761023521
1647331594914710604,47,1647331594914710604,r2002313a3/base_front_laser_link,0,1647331594914710604,v/m1vw10zy74w/map,-9.45365478304,5.24350408743,0.165,0.0,0.0,0.0072476870199,0.999973735172,0,56.7817993164,56.6764793396,82.1602249146,1.82791507244
1647331595308108660,48,1647331595308108660,r2002313a3/base_front_laser_link,0,1647331595308108660,v/m1vw10zy74w/map,-9.22100129777,5.20379754683,0.165,0.0,0.0,-0.01575510931,0.999875880562,0,59.8565711975,56.7413787842,82.3362426758,1.8649533987
1647331595464887421,49,1647331595464887421,r2002313a3/base_front_laser_link,0,1647331595464887421,v/m1vw10zy74w/map,-9.12510685888,5.19640704231,0.165,0.0,0.0,-0.021992090806,0.999758144724,0,54.5949325562,56.6984481812,82.3103103638,1.8706189394
1647331595858505932,50,1647331595858505932,r2002313a3/base_front_laser_link,0,1647331595858505932,v/m1vw10zy74w/map,-8.89958591382,5.1630773094,0.165,0.0,0.0,-0.0332257530616,0.999447872244,0,54.1599235535,56.6486740112,82.3055496216,1.88562619686
1647331596094286867,51,1647331596094286867,r2002313a3/base_front_laser_link,0,1647331596094286867,v/m1vw10zy74w/map,-8.75856204001,5.15513801176,0.165,0.0,0.0,-0.0322899073899,0.999478544983,0,54.7292251587,56.6117630005,82.2695465088,1.8859269619
1647331596408639565,52,1647331596408639565,r2002313a3/base_front_laser_link,0,1647331596408639565,v/m1vw10zy74w/map,-8.58000811374,5.11952166629,0.165,0.0,0.0,-0.0333886544109,0.999442443444,0,52.1005058289,56.5266456604,82.4300994873,1.96781885624
1647331596723510296,53,1647331596723510296,r2002313a3/base_front_laser_link,0,1647331596723510296,v/m1vw10zy74w/map,-8.38926923594,5.11592135173,0.165,0.0,0.0,-0.0305766813722,0.999532423964,0,53.3927841187,56.4686088562,82.4544372559,1.99527454376
1647331597038510912,54,1647331597038510912,r2002313a3/base_front_laser_link,0,1647331597038510912,v/m1vw10zy74w/map,-8.19418969035,5.10711744331,0.165,0.0,0.0,-0.0291076700185,0.999576282005,0,56.5906677246,56.47082901,82.4011764526,1.9767819643
1647331597274613428,55,1647331597274613428,r2002313a3/base_front_laser_link,0,1647331597274613428,v/m1vw10zy74w/map,-8.05254435417,5.10303791177,0.165,0.0,0.0,-0.0265073722004,0.999648617875,0,54.1246643066,56.4289321899,82.3799209595,1.98366141319
1647331597667556268,56,1647331597667556268,r2002313a3/base_front_laser_link,0,1647331597667556268,v/m1vw10zy74w/map,-7.81477364356,5.09940778226,0.165,0.0,0.0,-0.0212663916495,0.99977384472,0,55.680770874,56.4158096313,82.3209075928,1.96836650372
1647331597824606428,57,1647331597824606428,r2002313a3/base_front_laser_link,0,1647331597824606428,v/m1vw10zy74w/map,-7.71324039731,5.101666946,0.165,0.0,0.0,-0.0183422184364,0.99983176736,0,54.7576408386,56.3872184753,82.2766265869,1.96313500404
1647331598139744606,58,1647331598139744606,r2002313a3/base_front_laser_link,0,1647331598139744606,v/m1vw10zy74w/map,-7.53643322108,5.09596701856,0.165,0.0,0.0,-0.0146031562755,0.999893368228,0,52.819568634,56.326751709,82.3291397095,2.0007956028
1647331598375812224,59,1647331598375812224,r2002313a3/base_front_laser_link,0,1647331598375812224,v/m1vw10zy74w/map,-7.39248970764,5.09739706445,0.165,0.0,0.0,-0.0113257757049,0.999935861345,0,55.8101043701,56.3181381226,82.2728042603,1.98488819599
1647331598532649143,60,1647331598532649143,r2002313a3/base_front_laser_link,0,1647331598532649143,v/m1vw10zy74w/map,-7.29821947434,5.09660546796,0.165,0.0,0.0,-0.011089030982,0.999938514806,0,53.1933250427,56.2669143677,82.2925033569,2.00852966309
1647331598690595216,61,1647331598690595216,r2002313a3/base_front_laser_link,0,1647331598690595216,v/m1vw10zy74w/map,-7.20378097608,5.10096144903,0.165,0.0,0.0,-0.0093790805117,0.999956015457,0,55.7104988098,56.257938385,82.2376937866,1.99325120449
1647331599005707170,62,1647331599005707170,r2002313a3/base_front_laser_link,0,1647331599005707170,v/m1vw10zy74w/map,-7.01070230466,5.10775289012,0.165,0.0,0.0,-0.00699743099459,0.99997551768,0,53.9603347778,56.2214698792,82.2160415649,1.99818980694
1647331599163649184,63,1647331599163649184,r2002313a3/base_front_laser_link,0,1647331599163649184,v/m1vw10zy74w/map,-6.91606463897,5.10835453724,0.165,0.0,0.0,-0.00576543613713,0.999983379735,0,55.5429420471,56.2108650208,82.1631088257,1.98408138752
1647331599319799918,64,1647331599319799918,r2002313a3/base_front_laser_link,0,1647331599319799918,v/m1vw10zy74w/map,-6.81834283799,5.11198522879,0.165,0.0,0.0,-0.00532275758281,0.999985834026,0,56.1236495972,56.209526062,82.1151733398,1.96854948997
1647331599556711262,65,1647331599556711262,r2002313a3/base_front_laser_link,0,1647331599556711262,v/m1vw10zy74w/map,-6.67085726898,5.11208663529,0.165,0.0,0.0,-0.00361291687241,0.999993473395,0,59.3179130554,56.2566223145,82.2280273438,1.99046826363
1647331599792374571,66,1647331599792374571,r2002313a3/base_front_laser_link,0,1647331599792374571,v/m1vw10zy74w/map,-6.53905370712,5.11152192524,0.165,0.0,0.0,-0.00194194890246,0.999998114415,0,55.7687530518,56.2493400574,82.1780319214,1.97623038292
1647331599948622784,67,1647331599948622784,r2002313a3/base_front_laser_link,0,1647331599948622784,v/m1vw10zy74w/map,-6.44568115296,5.11122492969,0.165,0.0,0.0,-0.00190084279361,0.999998193397,0,57.3821182251,56.2659988403,82.1646957397,1.96623146534
1647331600105701739,68,1647331600105701739,r2002313a3/base_front_laser_link,0,1647331600105701739,v/m1vw10zy74w/map,-6.35516188997,5.1079057793,0.165,0.0,0.0,-0.00272928175633,0.999996275504,0,55.5048103333,56.2549667358,82.1165771484,1.95387029648
1647331600184607641,69,1647331600184607641,r2002313a3/base_front_laser_link,0,1647331600184607641,v/m1vw10zy74w/map,-6.29423019615,5.10974947671,0.165,0.0,0.0,-0.00193618532338,0.999998125591,0,55.0208129883,56.2373352051,82.0731201172,1.9452611208
1647331600657898324,70,1647331600657898324,r2002313a3/base_front_laser_link,0,1647331600657898324,v/m1vw10zy74w/map,-6.01296963425,5.11224253581,0.165,0.0,0.0,-0.000547655157205,0.999999850037,0,53.0248527527,56.1920890808,82.0978546143,1.96858727932
1647331600892868535,71,1647331600892868535,r2002313a3/base_front_laser_link,0,1647331600892868535,v/m1vw10zy74w/map,-5.88230817639,5.10922015844,0.165,0.0,0.0,-0.000619593685747,0.999999808052,0,56.4711112976,56.1959648132,82.0608215332,1.95495140553
1647331601207685415,72,1647331601207685415,r2002313a3/base_front_laser_link,0,1647331601207685415,v/m1vw10zy74w/map,-5.69100196314,5.10950470704,0.165,0.0,0.0,0.000824785401504,0.999999659864,0,56.3204536438,56.1976699829,82.0218200684,1.94138252735
1647331601443806552,73,1647331601443806552,r2002313a3/base_front_laser_link,0,1647331601443806552,v/m1vw10zy74w/map,-5.5509144251,5.11358390056,0.165,0.0,0.0,0.00162873872314,0.999998673604,0,55.4647293091,56.1877670288,81.9775314331,1.92992126942
1647331601678910949,74,1647331601678910949,r2002313a3/base_front_laser_link,0,1647331601678910949,v/m1vw10zy74w/map,-5.41117299998,5.11747090885,0.165,0.0,0.0,0.00269985015467,0.999996355398,0,55.463634491,56.17811203,81.9340896606,1.91865968704
1647331601993708621,75,1647331601993708621,r2002313a3/base_front_laser_link,0,1647331601993708621,v/m1vw10zy74w/map,-5.21829067134,5.11560483425,0.165,0.0,0.0,0.0016305945326,0.99999867058,0,58.2021484375,56.2047424316,81.9644927979,1.91991567612
1647331602230930729,76,1647331602230930729,r2002313a3/base_front_laser_link,0,1647331602230930729,v/m1vw10zy74w/map,-5.07966273161,5.11132547032,0.165,0.0,0.0,0.00202640716306,0.999997946835,0,53.1291465759,56.1647987366,81.9823455811,1.93918097019
1647331602388602357,77,1647331602388602357,r2002313a3/base_front_laser_link,0,1647331602388602357,v/m1vw10zy74w/map,-4.98522425039,5.11250993697,0.165,0.0,0.0,0.00252838211509,0.999996803637,0,55.1318511963,56.1515579224,81.9418411255,1.93009471893
1647331602703949170,78,1647331602703949170,r2002313a3/base_front_laser_link,0,1647331602703949170,v/m1vw10zy74w/map,-4.79533378866,5.11538731869,0.165,0.0,0.0,0.00409610085417,0.999991610944,0,55.3174629211,56.1409988403,81.900932312,1.91997718811
1647331602860837091,79,1647331602860837091,r2002313a3/base_front_laser_link,0,1647331602860837091,v/m1vw10zy74w/map,-4.69365490503,5.11172803494,0.165,0.0,0.0,0.00372726762559,0.999993053714,0,53.6445579529,56.1097946167,81.8940811157,1.92809557915
1647331603018682348,80,1647331603018682348,r2002313a3/base_front_laser_link,0,1647331603018682348,v/m1vw10zy74w/map,-4.5927257683,5.11212993949,0.165,0.0,0.0,0.00393909065332,0.999992241752,0,54.5386734009,56.0903968811,81.8622283936,1.92394328117
1647331603255408385,81,1647331603255408385,r2002313a3/base_front_laser_link,0,1647331603255408385,v/m1vw10zy74w/map,-4.45575636059,5.11521362717,0.165,0.0,0.0,0.00511010583646,0.999986943324,0,55.3672523499,56.081577301,81.8226699829,1.91369712353
1647331603491660415,82,1647331603491660415,r2002313a3/base_front_laser_link,0,1647331603491660415,v/m1vw10zy74w/map,-4.31288815654,5.12233358114,0.165,0.0,0.0,0.0069110378589,0.999976118493,0,56.5718154907,56.0874824524,81.7957458496,1.90275347233
1647331603647908800,83,1647331603647908800,r2002313a3/base_front_laser_link,0,1647331603647908800,v/m1vw10zy74w/map,-4.22484982132,5.12523235843,0.165,0.0,0.0,0.00736000331935,0.999972914809,0,56.3247184753,56.0903091431,81.7646102905,1.8914334774
1647331603963063179,84,1647331603963063179,r2002313a3/base_front_laser_link,0,1647331603963063179,v/m1vw10zy74w/map,-4.03102427042,5.12316675329,0.165,0.0,0.0,0.00650545432704,0.999978839308,0,53.0131492615,56.054107666,81.7827148438,1.90953660011
1647331604119977188,85,1647331604119977188,r2002313a3/base_front_laser_link,0,1647331604119977188,v/m1vw10zy74w/map,-3.93608800906,5.1297484725,0.165,0.0,0.0,0.00692343753798,0.999976032719,0,51.3401641846,55.999294281,81.894744873,1.96515095234
1647331604356786731,86,1647331604356786731,r2002313a3/base_front_laser_link,0,1647331604356786731,v/m1vw10zy74w/map,-3.79426348366,5.13156938065,0.165,0.0,0.0,0.00683348034992,0.999976651501,0,52.5448684692,55.9595870972,81.9250411987,1.98848557472
1647331604592589218,87,1647331604592589218,r2002313a3/base_front_laser_link,0,1647331604592589218,v/m1vw10zy74w/map,-3.65381804246,5.13816170859,0.165,0.0,0.0,0.0085814348677,0.99996317881,0,55.5593757629,55.955039978,81.8874969482,1.97748482227
1647331604828006854,88,1647331604828006854,r2002313a3/base_front_laser_link,0,1647331604828006854,v/m1vw10zy74w/map,-3.51888048591,5.14191433206,0.165,0.0,0.0,0.00921882687231,0.999957505713,0,56.3300590515,55.9592514038,81.8591079712,1.96661877632
1647331604986641183,89,1647331604986641183,r2002313a3/base_front_laser_link,0,1647331604986641183,v/m1vw10zy74w/map,-3.41569193361,5.14292177748,0.165,0.0,0.0,0.00950732963386,0.99995480432,0,55.9179954529,55.9587936401,81.8254241943,1.9555439949
1647331605144133624,90,1647331605144133624,r2002313a3/base_front_laser_link,0,1647331605144133624,v/m1vw10zy74w/map,-3.32138449266,5.14455698675,0.165,0.0,0.0,0.00940493549332,0.999955772616,0,59.8267936707,56.0013008118,81.9607162476,1.98647248745
1647331605380841675,91,1647331605380841675,r2002313a3/base_front_laser_link,0,1647331605380841675,v/m1vw10zy74w/map,-3.18596833226,5.15031924074,0.165,0.0,0.0,0.00898380125081,0.999959644843,0,58.9285545349,56.0331192017,82.0300064087,1.99896192551
1647331605615985780,92,1647331605615985780,r2002313a3/base_front_laser_link,0,1647331605615985780,v/m1vw10zy74w/map,-3.05386506307,5.14973198674,0.165,0.0,0.0,0.00873866827319,0.999961817109,0,59.0301856995,56.0653457642,82.1019821167,2.0122127533
1647331605852827516,93,1647331605852827516,r2002313a3/base_front_laser_link,0,1647331605852827516,v/m1vw10zy74w/map,-2.91438664002,5.15420828946,0.165,0.0,0.0,0.00916677763903,0.999957984211,0,60.0728187561,56.1079788208,82.23878479,2.043602705
1647331606010078765,94,1647331606010078765,r2002313a3/base_front_laser_link,0,1647331606010078765,v/m1vw10zy74w/map,-2.83090660707,5.15088624163,0.165,0.0,0.0,0.00836704160184,0.999964995695,0,57.3337860107,56.120880127,82.2306518555,2.03659033775
1647331606088037733,95,1647331606088037733,r2002313a3/base_front_laser_link,0,1647331606088037733,v/m1vw10zy74w/map,-2.78636535763,5.15613254076,0.165,0.0,0.0,0.00944124250198,0.999955430477,0,60.1585578918,56.162940979,82.3649368286,2.06733202934
1647331606245154091,96,1647331606245154091,r2002313a3/base_front_laser_link,0,1647331606245154091,v/m1vw10zy74w/map,-2.69221747843,5.15722808746,0.165,0.0,0.0,0.00899533730824,0.999959541135,0,58.734046936,56.1894454956,82.4085617065,2.07303953171
1647331606324128054,97,1647331606324128054,r2002313a3/base_front_laser_link,0,1647331606324128054,v/m1vw10zy74w/map,-2.64496921977,5.15722297058,0.165,0.0,0.0,0.00843144383659,0.999964454746,0,59.9041519165,56.2273521423,82.5159072876,2.09618592262
1647331606716876825,98,1647331606716876825,r2002313a3/base_front_laser_link,0,1647331606716876825,v/m1vw10zy74w/map,-2.41618227276,5.1521096943,0.165,0.0,0.0,0.00506003711883,0.99998719793,0,57.3571739197,56.2387619019,82.5044250488,2.08855271339
1647331606952896565,99,1647331606952896565,r2002313a3/base_front_laser_link,0,1647331606952896565,v/m1vw10zy74w/map,-2.28215785225,5.14874960794,0.165,0.0,0.0,0.0039919025482,0.999992032325,0,56.4231987,56.2406082153,82.4747848511,2.07805943489
1647331607268724417,100,1647331607268724417,r2002313a3/base_front_laser_link,0,1647331607268724417,v/m1vw10zy74w/map,-2.09079489394,5.15211914425,0.165,0.0,0.0,0.00388232987062,0.999992463729,0,56.3412437439,56.2416038513,82.4446029663,2.06766724586
1647331607661113137,101,1647331607661113137,r2002313a3/base_front_laser_link,0,1647331607661113137,v/m1vw10zy74w/map,-1.85355325094,5.1452989477,0.165,0.0,0.0,0.000668630976357,0.999999776466,0,52.4251060486,56.2041893005,82.4796524048,2.09182214737
1647331607897733616,102,1647331607897733616,r2002313a3/base_front_laser_link,0,1647331607897733616,v/m1vw10zy74w/map,-1.71189071282,5.14566557778,0.165,0.0,0.0,0.000781356902232,0.999999694741,0,52.1371078491,56.1647033691,82.5240020752,2.11976742744
1647331608212098338,103,1647331608212098338,r2002313a3/base_front_laser_link,0,1647331608212098338,v/m1vw10zy74w/map,-1.52539021489,5.14329040799,0.165,0.0,0.0,0.000565491998224,0.999999840109,0,54.6555175781,56.150188446,82.494102478,2.11463689804
1647331608528096824,104,1647331608528096824,r2002313a3/base_front_laser_link,0,1647331608528096824,v/m1vw10zy74w/map,-1.33535779241,5.14649920554,0.165,0.0,0.0,0.00236758218232,0.999997197273,0,57.9078979492,56.1669311523,82.5012054443,2.11142516136
1647331608685032791,105,1647331608685032791,r2002313a3/base_front_laser_link,0,1647331608685032791,v/m1vw10zy74w/map,-1.24116463868,5.14702737735,0.165,0.0,0.0,0.00241947706835,0.999997073061,0,59.4348144531,56.1977577209,82.5733108521,2.12518310547
1647331608841330830,106,1647331608841330830,r2002313a3/base_front_laser_link,0,1647331608841330830,v/m1vw10zy74w/map,-1.14377890856,5.15098569705,0.165,0.0,0.0,0.00252968793033,0.999996800334,0,60.8135070801,56.2408981323,82.7259674072,2.16169118881
1647331609156425975,107,1647331609156425975,r2002313a3/base_front_laser_link,0,1647331609156425975,v/m1vw10zy74w/map,-0.962615800677,5.1492766974,0.165,0.0,0.0,0.00227274617503,0.999997417309,0,62.537322998,56.2991981506,83.0049362183,2.2352449894
1647331609313296916,108,1647331609313296916,r2002313a3/base_front_laser_link,0,1647331609313296916,v/m1vw10zy74w/map,-0.853981053214,5.15341750162,0.165,0.0,0.0,0.00327278337936,0.99999464443,0,57.6228256226,56.311340332,82.9967880249,2.22848176956
1647331609549104803,109,1647331609549104803,r2002313a3/base_front_laser_link,0,1647331609549104803,v/m1vw10zy74w/map,-0.725992338743,5.15026329173,0.165,0.0,0.0,0.00251169507531,0.999996845689,0,56.4372596741,56.3124847412,82.9672927856,2.21826839447
1647331609785057142,110,1647331609785057142,r2002313a3/base_front_laser_link,0,1647331609785057142,v/m1vw10zy74w/map,-0.582712735413,5.14941642931,0.165,0.0,0.0,0.00319976651861,0.999994880734,0,57.2442970276,56.3208808899,82.9506759644,2.20993280411
1647331609942538168,111,1647331609942538168,r2002313a3/base_front_laser_link,0,1647331609942538168,v/m1vw10zy74w/map,-0.49936022538,5.14650904821,0.165,0.0,0.0,0.00197967321069,0.999998040445,0,57.7739257812,56.3338546753,82.9465637207,2.20423603058
1647331610100396550,112,1647331610100396550,r2002313a3/base_front_laser_link,0,1647331610100396550,v/m1vw10zy74w/map,-0.395468246846,5.14775627402,0.165,0.0,0.0,0.00220586298011,0.999997567081,0,53.9347343445,56.3126220703,82.9304733276,2.20594906807
1647331610415644805,113,1647331610415644805,r2002313a3/base_front_laser_link,0,1647331610415644805,v/m1vw10zy74w/map,-0.202787186209,5.15353332333,0.165,0.0,0.0,0.00454630776829,0.999989665489,0,50.84897995,56.2646942139,83.0296783447,2.25499486923
1647331610651698421,114,1647331610651698421,r2002313a3/base_front_laser_link,0,1647331610651698421,v/m1vw10zy74w/map,-0.0614585312574,5.15480969854,0.165,0.0,0.0,0.00454324790938,0.999989679396,0,48.2308578491,56.1948356628,83.2951660156,2.36677765846
1647331610887606179,115,1647331610887606179,r2002313a3/base_front_laser_link,0,1647331610887606179,v/m1vw10zy74w/map,0.0879882487105,5.1565464169,0.165,0.0,0.0,0.00454139061139,0.999989687832,0,53.776512146,56.1739883423,83.2754058838,2.36713814735
1647331611122760382,116,1647331611122760382,r2002313a3/base_front_laser_link,0,1647331611122760382,v/m1vw10zy74w/map,0.234820431367,5.15025948468,0.165,0.0,0.0,0.0030548905242,0.999995333811,0,55.2159729004,56.165802002,83.2415313721,2.35857653618
1647331611279717536,117,1647331611279717536,r2002313a3/base_front_laser_link,0,1647331611279717536,v/m1vw10zy74w/map,0.309434526603,5.15337417258,0.165,0.0,0.0,0.00346967512799,0.999993980659,0,55.1648788452,56.1573181152,83.2081680298,2.35028219223
1647331611515870724,118,1647331611515870724,r2002313a3/base_front_laser_link,0,1647331611515870724,v/m1vw10zy74w/map,0.456604582043,5.15485112234,0.165,0.0,0.0,0.00223976566805,0.999997491722,0,57.3001213074,56.1669197083,83.1948623657,2.34264588356
1647331611752754015,119,1647331611752754015,r2002313a3/base_front_laser_link,0,1647331611752754015,v/m1vw10zy74w/map,0.598388245411,5.1496741687,0.165,0.0,0.0,-0.00139651923581,0.999999024867,0,55.9630737305,56.165222168,83.1637878418,2.33285617828
1647331611909556020,120,1647331611909556020,r2002313a3/base_front_laser_link,0,1647331611909556020,v/m1vw10zy74w/map,0.696819510434,5.14415916891,0.165,0.0,0.0,-0.00433490578688,0.999990604252,0,59.831325531,56.1955223083,83.2362213135,2.34690070152
1647331612146630839,121,1647331612146630839,r2002313a3/base_front_laser_link,0,1647331612146630839,v/m1vw10zy74w/map,0.830217622949,5.12318069338,0.165,0.0,0.0,-0.0121277951531,0.999926455588,0,54.4425430298,56.1811523438,83.2088470459,2.34256505966
1647331612225644425,122,1647331612225644425,r2002313a3/base_front_laser_link,0,1647331612225644425,v/m1vw10zy74w/map,0.877385938295,5.11802189389,0.165,0.0,0.0,-0.0147731260349,0.999890871419,0,50.5539550781,56.1354026794,83.2978515625,2.38748240471
1647331612540743654,123,1647331612540743654,r2002313a3/base_front_laser_link,0,1647331612540743654,v/m1vw10zy74w/map,1.0727833586,5.09817365799,0.165,0.0,0.0,-0.0264387514443,0.999650435113,0,54.7082328796,56.1238937378,83.2675170898,2.38120913506
1647331612778624018,124,1647331612778624018,r2002313a3/base_front_laser_link,0,1647331612778624018,v/m1vw10zy74w/map,1.19898761107,5.05993334636,0.165,0.0,0.0,-0.0414123869011,0.999142139143,0,51.271446228,56.0850753784,83.3180007935,2.41097474098
1647331613014262501,125,1647331613014262501,r2002313a3/base_front_laser_link,0,1647331613014262501,v/m1vw10zy74w/map,1.33743730977,5.02513311248,0.165,0.0,0.0,-0.0558626395945,0.998438463551,0,50.5070266724,56.040802002,83.3973770142,2.45219039917
1647331613250783525,126,1647331613250783525,r2002313a3/base_front_laser_link,0,1647331613250783525,v/m1vw10zy74w/map,1.47372297629,4.982408488,0.165,0.0,0.0,-0.0735207799659,0.997293685387,0,51.2854537964,56.0033607483,83.4392318726,2.47862291336
1647331613487740831,127,1647331613487740831,r2002313a3/base_front_laser_link,0,1647331613487740831,v/m1vw10zy74w/map,1.61994953209,4.92914787296,0.165,0.0,0.0,-0.0928306313269,0.99568191401,0,55.0345306396,55.9957923889,83.4067840576,2.47032999992
1647331613645748972,128,1647331613645748972,r2002313a3/base_front_laser_link,0,1647331613645748972,v/m1vw10zy74w/map,1.69190427442,4.88974233197,0.165,0.0,0.0,-0.108151486804,0.994134425469,0,53.3835983276,55.9755401611,83.3897018433,2.47138619423
1647331613881907810,129,1647331613881907810,r2002313a3/base_front_laser_link,0,1647331613881907810,v/m1vw10zy74w/map,1.83113713735,4.81686251571,0.165,0.0,0.0,-0.136008639554,0.990707651109,0,53.571231842,55.9570465088,83.3694610596,2.47080349922
1647331614117786916,130,1647331614117786916,r2002313a3/base_front_laser_link,0,1647331614117786916,v/m1vw10zy74w/map,1.94847106539,4.72142313164,0.165,0.0,0.0,-0.172484389085,0.985012251458,0,52.7015838623,55.9321975708,83.3651809692,2.47766232491
1647331614275892121,131,1647331614275892121,r2002313a3/base_front_laser_link,0,1647331614275892121,v/m1vw10zy74w/map,2.0331133342,4.64971149279,0.165,0.0,0.0,-0.199755437855,0.97984578636,0,55.3308067322,55.9276390076,83.3338699341,2.46874237061
1647331614511822931,132,1647331614511822931,r2002313a3/base_front_laser_link,0,1647331614511822931,v/m1vw10zy74w/map,2.12352734421,4.5180400377,0.165,0.0,0.0,-0.251404293737,0.967882162813,0,53.1852149963,55.9070205688,83.3195495605,2.47084307671
1647331614749017955,133,1647331614749017955,r2002313a3/base_front_laser_link,0,1647331614749017955,v/m1vw10zy74w/map,2.20016897602,4.36674404199,0.165,0.0,0.0,-0.307575169737,0.951523785809,0,53.7959976196,55.8912658691,83.2961120605,2.46828269958
1647331614907240314,134,1647331614907240314,r2002313a3/base_front_laser_link,0,1647331614907240314,v/m1vw10zy74w/map,2.23860534573,4.26208712245,0.165,0.0,0.0,-0.345344422101,0.938476014677,0,53.1777000427,55.8711662292,83.2815322876,2.47012090683
1647331615064875098,135,1647331615064875098,r2002313a3/base_front_laser_link,0,1647331615064875098,v/m1vw10zy74w/map,2.2618062011,4.15314325777,0.165,0.0,0.0,-0.384146961411,0.923271959955,0,53.6716003418,55.8549919128,83.259513855,2.4681725502
1647331615222202230,136,1647331615222202230,r2002313a3/base_front_laser_link,0,1647331615222202230,v/m1vw10zy74w/map,2.29183699294,4.04665368741,0.165,0.0,0.0,-0.421605677286,0.90677927462,0,54.0696563721,55.841960907,83.2333831787,2.46380758286
1647331615537949093,137,1647331615537949093,r2002313a3/base_front_laser_link,0,1647331615537949093,v/m1vw10zy74w/map,2.30077534146,3.82545757079,0.165,0.0,0.0,-0.495866025953,0.868399035182,0,55.3170547485,55.8381576538,83.2037734985,2.45520591736
1647331615617052564,138,1647331615617052564,r2002313a3/base_front_laser_link,0,1647331615617052564,v/m1vw10zy74w/map,2.29994139274,3.77055821042,0.165,0.0,0.0,-0.512196856437,0.858868080823,0,51.5863342285,55.8075675964,83.225769043,2.47273373604
1647331615695188793,139,1647331615695188793,r2002313a3/base_front_laser_link,0,1647331615695188793,v/m1vw10zy74w/map,2.31046943157,3.71621918251,0.165,0.0,0.0,-0.527483122086,0.849565510078,0,53.150604248,55.7885894775,83.2106933594,2.47403478622
1647331615853875780,140,1647331615853875780,r2002313a3/base_front_laser_link,0,1647331615853875780,v/m1vw10zy74w/map,2.30417267078,3.61037747989,0.165,0.0,0.0,-0.556770853641,0.830666128198,0,53.978843689,55.7757568359,83.1854248047,2.46988987923
1647331616011012225,141,1647331616011012225,r2002313a3/base_front_laser_link,0,1647331616011012225,v/m1vw10zy74w/map,2.30783351711,3.5095272094,0.165,0.0,0.0,-0.581837242608,0.813305245965,0,51.1445426941,55.7431411743,83.2179794312,2.49161267281
1647331616246909634,142,1647331616246909634,r2002313a3/base_front_laser_link,0,1647331616246909634,v/m1vw10zy74w/map,2.30004950203,3.35567713901,0.165,0.0,0.0,-0.61159005497,0.791174825599,0,51.1963615417,55.7113456726,83.2466506958,2.5117688179
1647331616404847538,143,1647331616404847538,r2002313a3/base_front_laser_link,0,1647331616404847538,v/m1vw10zy74w/map,2.29274739758,3.25851188336,0.165,0.0,0.0,-0.626822815234,0.779161830625,0,55.4810180664,55.7097473145,83.2188796997,2.50304460526
1647331616561948873,144,1647331616561948873,r2002313a3/base_front_laser_link,0,1647331616561948873,v/m1vw10zy74w/map,2.29161493281,3.15932848901,0.165,0.0,0.0,-0.639435663685,0.768844608493,0,52.7766227722,55.6895179749,83.2081298828,2.50620365143
1647331616640808970,145,1647331616640808970,r2002313a3/base_front_laser_link,0,1647331616640808970,v/m1vw10zy74w/map,2.28939558177,3.11096393494,0.165,0.0,0.0,-0.644977208407,0.764201806223,0,49.3791809082,55.6462974548,83.3009872437,2.55156445503
1647331616798356570,146,1647331616798356570,r2002313a3/base_front_laser_link,0,1647331616798356570,v/m1vw10zy74w/map,2.28786400193,3.01546339373,0.165,0.0,0.0,-0.653494651345,0.756931133369,0,52.7938194275,55.6268920898,83.2879104614,2.55367183685
1647331617034985364,147,1647331617034985364,r2002313a3/base_front_laser_link,0,1647331617034985364,v/m1vw10zy74w/map,2.29547648039,2.88065648056,0.165,0.0,0.0,-0.66178653085,0.749692328615,0,50.6087417603,55.5929832458,83.3275299072,2.57818245888
1647331617192134007,148,1647331617192134007,r2002313a3/base_front_laser_link,0,1647331617192134007,v/m1vw10zy74w/map,2.30067605082,2.78651946169,0.165,0.0,0.0,-0.664885872838,0.746944961896,0,49.0780944824,55.5492591858,83.4221725464,2.62430381775
1647331617269926751,149,1647331617269926751,r2002313a3/base_front_laser_link,0,1647331617269926751,v/m1vw10zy74w/map,2.29238945851,2.73655614008,0.165,0.0,0.0,-0.667795986934,0.744344355681,0,51.9870109558,55.5255126953,83.4203262329,2.63160538673
1647331617506032943,150,1647331617506032943,r2002313a3/base_front_laser_link,0,1647331617506032943,v/m1vw10zy74w/map,2.30497807614,2.60056276712,0.165,0.0,0.0,-0.670126976048,0.74224647926,0,51.9918556213,55.5021095276,83.41771698,2.63853573799
1647331617663135739,151,1647331617663135739,r2002313a3/base_front_laser_link,0,1647331617663135739,v/m1vw10zy74w/map,2.32334632823,2.49784099983,0.165,0.0,0.0,-0.672023505062,0.740529816175,0,53.6744117737,55.4900856018,83.3919677734,2.63395953178
1647331617822002761,152,1647331617822002761,r2002313a3/base_front_laser_link,0,1647331617822002761,v/m1vw10zy74w/map,2.34046010283,2.40463538601,0.165,0.0,0.0,-0.671209986613,0.741267262106,0,53.3839797974,55.4763221741,83.3687133789,2.63079667091
1647331617978104032,153,1647331617978104032,r2002313a3/base_front_laser_link,0,1647331617978104032,v/m1vw10zy74w/map,2.35287749791,2.31181815672,0.165,0.0,0.0,-0.669700021805,0.742631726224,0,52.7096176147,55.45835495,83.3532943726,2.63164615631
1647331618056988078,154,1647331618056988078,r2002313a3/base_front_laser_link,0,1647331618056988078,v/m1vw10zy74w/map,2.33461020028,2.30881223026,0.165,0.0,0.0,-0.667277111924,0.744809543374,0,53.6872825623,55.4469299316,83.3277587891,2.62694239616
1647331618135923359,155,1647331618135923359,r2002313a3/base_front_laser_link,0,1647331618135923359,v/m1vw10zy74w/map,2.34251885993,2.26803400362,0.165,0.0,0.0,-0.666122046761,0.745842757435,0,53.8893852234,55.4369468689,83.3012161255,2.62142252922
1647331618215046653,156,1647331618215046653,r2002313a3/base_front_laser_link,0,1647331618215046653,v/m1vw10zy74w/map,2.35011210725,2.22110616926,0.165,0.0,0.0,-0.665005146969,0.746838774104,0,53.9251670837,55.4273147583,83.2746887207,2.61579108238
1647331618451025552,157,1647331618451025552,r2002313a3/base_front_laser_link,0,1647331618451025552,v/m1vw10zy74w/map,2.3820786857,2.06588641419,0.165,0.0,0.0,-0.660624126975,0.750716832673,0,54.5620155334,55.4218406677,83.2469100952,2.60835576057
1647331618768256576,158,1647331618768256576,r2002313a3/base_front_laser_link,0,1647331618768256576,v/m1vw10zy74w/map,2.42824348632,1.88075273833,0.165,0.0,0.0,-0.650548869204,0.759464395991,0,55.571975708,55.4227828979,83.2231292725,2.60011553764
1647331619162018013,159,1647331619162018013,r2002313a3/base_front_laser_link,0,1647331619162018013,v/m1vw10zy74w/map,2.50131111031,1.66054763063,0.165,0.0,0.0,-0.633251090124,0.773946417303,0,55.2434959412,55.421661377,83.197555542,2.5919649601
1647331619399119927,160,1647331619399119927,r2002313a3/base_front_laser_link,0,1647331619399119927,v/m1vw10zy74w/map,2.55021793212,1.5003751117,0.165,0.0,0.0,-0.623763542206,0.781613103406,0,56.7444076538,55.4298782349,83.1877441406,2.58595442772
1647331619713208157,161,1647331619713208157,r2002313a3/base_front_laser_link,0,1647331619713208157,v/m1vw10zy74w/map,2.62064635965,1.31404762355,0.165,0.0,0.0,-0.608630452681,0.793453824787,0,58.6992874146,55.4500617981,83.2220916748,2.59067702293
1647331619950195167,162,1647331619950195167,r2002313a3/base_front_laser_link,0,1647331619950195167,v/m1vw10zy74w/map,2.68194823064,1.18398011379,0.165,0.0,0.0,-0.595990942871,0.802991155627,0,57.535068512,55.462852478,83.2263336182,2.58782696724
1647331620108314577,163,1647331620108314577,r2002313a3/base_front_laser_link,0,1647331620108314577,v/m1vw10zy74w/map,2.71596559706,1.09044237114,0.165,0.0,0.0,-0.588137817509,0.808760723339,0,60.9230995178,55.4961471558,83.3407592773,2.6148724556
1647331620423246276,164,1647331620423246276,r2002313a3/base_front_laser_link,0,1647331620423246276,v/m1vw10zy74w/map,2.82435229441,0.872141793256,0.165,0.0,0.0,-0.568226512724,0.822872183415,0,61.2311782837,55.5309028625,83.4654388428,2.64484429359
1647331620582139926,165,1647331620582139926,r2002313a3/base_front_laser_link,0,1647331620582139926,v/m1vw10zy74w/map,2.89552697457,0.73947058638,0.165,0.0,0.0,-0.557794528221,0.829979074608,0,58.9111442566,55.5512657166,83.5007781982,2.6498374939
1647331620818523036,166,1647331620818523036,r2002313a3/base_front_laser_link,0,1647331620818523036,v/m1vw10zy74w/map,3.02650474359,0.521042272418,0.165,0.0,0.0,-0.539749185937,0.841825882401,0,61.7281341553,55.5882530212,83.6424636841,2.68473553658
1647331621055308836,167,1647331621055308836,r2002313a3/base_front_laser_link,0,1647331621055308836,v/m1vw10zy74w/map,3.18161510305,0.269222126778,0.165,0.0,0.0,-0.521194299748,0.85343804808,0,60.6452331543,55.6183547974,83.7332687378,2.7049703598
1647331621212312591,168,1647331621212312591,r2002313a3/base_front_laser_link,0,1647331621212312591,v/m1vw10zy74w/map,3.31511017668,0.10415725083,0.165,0.0,0.0,-0.500804574288,0.865560384013,0,63.8179702759,55.6668739319,83.9759216309,2.76968312263
1647331621448275316,169,1647331621448275316,r2002313a3/base_front_laser_link,0,1647331621448275316,v/m1vw10zy74w/map,3.54982242081,-0.123179553902,0.165,0.0,0.0,-0.459225628661,0.888319662048,0,61.3763275146,55.7004585266,84.0884017944,2.79598021507
1647331621606298678,170,1647331621606298678,r2002313a3/base_front_laser_link,0,1647331621606298678,v/m1vw10zy74w/map,3.70943260834,-0.274658285589,0.165,0.0,0.0,-0.436082669461,0.899906609263,0,61.4291877747,55.733959198,84.1998291016,2.82195663452
1647331621842105951,171,1647331621842105951,r2002313a3/base_front_laser_link,0,1647331621842105951,v/m1vw10zy74w/map,3.95515903039,-0.491548561037,0.165,0.0,0.0,-0.406254992522,0.913759750181,0,57.3148956299,55.7431526184,84.1919708252,2.81627440453
1647331622000469871,172,1647331622000469871,r2002313a3/base_front_laser_link,0,1647331622000469871,v/m1vw10zy74w/map,4.12472541162,-0.635583537546,0.165,0.0,0.0,-0.389716337944,0.920934946638,0,59.2542076111,55.7634468079,84.2256546021,2.82073497772
1647331622236232133,173,1647331622236232133,r2002313a3/base_front_laser_link,0,1647331622236232133,v/m1vw10zy74w/map,4.38947215385,-0.843968411559,0.165,0.0,0.0,-0.369406273722,0.929267994141,0,58.4518699646,55.7788963318,84.2387313843,2.81994533539
1647331622394610775,174,1647331622394610775,r2002313a3/base_front_laser_link,0,1647331622394610775,v/m1vw10zy74w/map,4.56354495895,-0.990517045347,0.165,0.0,0.0,-0.361608667175,0.932329969391,0,57.6609268188,55.7896499634,84.2359313965,2.81542730331
1647331622709694187,175,1647331622709694187,r2002313a3/base_front_laser_link,0,1647331622709694187,v/m1vw10zy74w/map,4.91781576141,-1.30084986312,0.165,0.0,0.0,-0.355726357007,0.934590155592,0,58.0740089417,55.8026313782,84.2405700684,2.81264734268
1647331622788434991,176,1647331622788434991,r2002313a3/base_front_laser_link,0,1647331622788434991,v/m1vw10zy74w/map,5.00915527375,-1.37774714104,0.165,0.0,0.0,-0.354810767917,0.93493813644,0,57.9599304199,55.8148193359,84.242805481,2.8093290329
1647331622867093423,177,1647331622867093423,r2002313a3/base_front_laser_link,0,1647331622867093423,v/m1vw10zy74w/map,5.09588028791,-1.45476069395,0.165,0.0,0.0,-0.355284941144,0.934758049228,0,58.3844680786,55.8292541504,84.2532424927,2.80799508095
1647331622947235382,178,1647331622947235382,r2002313a3/base_front_laser_link,0,1647331622947235382,v/m1vw10zy74w/map,5.18174670018,-1.53594255415,0.165,0.0,0.0,-0.357446307242,0.933933690065,0,55.4332504272,55.827041626,84.2277984619,2.80025267601
1647331623103396021,179,1647331623103396021,r2002313a3/base_front_laser_link,0,1647331623103396021,v/m1vw10zy74w/map,5.33876495183,-1.68541526245,0.165,0.0,0.0,-0.363442240471,0.931616733341,0,53.2013435364,55.8124542236,84.2102661133,2.79926967621
1647331623340467787,180,1647331623340467787,r2002313a3/base_front_laser_link,0,1647331623340467787,v/m1vw10zy74w/map,5.56165538491,-1.92799857024,0.165,0.0,0.0,-0.379887344726,0.925032759051,0,56.2905006409,55.8150978088,84.1902236938,2.79170918465
1647331623418245841,181,1647331623418245841,r2002313a3/base_front_laser_link,0,1647331623418245841,v/m1vw10zy74w/map,5.62661087919,-2.00416479419,0.165,0.0,0.0,-0.38488273793,0.922965480418,0,53.8688850403,55.8044013977,84.1675720215,2.78772187233
1647331623497241326,182,1647331623497241326,r2002313a3/base_front_laser_link,0,1647331623497241326,v/m1vw10zy74w/map,5.69130432759,-2.07511883352,0.165,0.0,0.0,-0.38829273975,0.921536080822,0,55.1763267517,55.8009719849,84.1422958374,2.78044033051
1647331623812412355,183,1647331623812412355,r2002313a3/base_front_laser_link,0,1647331623812412355,v/m1vw10zy74w/map,5.88226079686,-2.31681015178,0.165,0.0,0.0,-0.408163422208,0.912908878679,0,53.1334571838,55.7864723206,84.125869751,2.77979779243
1647331623891275561,184,1647331623891275561,r2002313a3/base_front_laser_link,0,1647331623891275561,v/m1vw10zy74w/map,5.91619570034,-2.36919733054,0.165,0.0,0.0,-0.413844978571,0.910347369806,0,54.2507514954,55.7781715393,84.1017684937,2.7745320797
1647331624049416777,185,1647331624049416777,r2002313a3/base_front_laser_link,0,1647331624049416777,v/m1vw10zy74w/map,5.9698876068,-2.45932274555,0.165,0.0,0.0,-0.425144603654,0.905125442126,0,51.1924247742,55.7535171509,84.1156539917,2.78737807274
1647331624207420856,186,1647331624207420856,r2002313a3/base_front_laser_link,0,1647331624207420856,v/m1vw10zy74w/map,6.00433669113,-2.52761633548,0.165,0.0,0.0,-0.435014092753,0.90042364424,0,50.4984855652,55.7254180908,84.1443481445,2.80631089211
1647331624286565707,187,1647331624286565707,r2002313a3/base_front_laser_link,0,1647331624286565707,v/m1vw10zy74w/map,6.0219338612,-2.56191461248,0.165,0.0,0.0,-0.438633578312,0.89866600246,0,52.8579750061,55.7101631165,84.1299667358,2.806599617
1647331624760545248,188,1647331624760545248,r2002313a3/base_front_laser_link,0,1647331624760545248,v/m1vw10zy74w/map,6.08243177655,-2.67540628446,0.165,0.0,0.0,-0.451881081148,0.892078185195,0,56.9533157349,55.7167396545,84.1184997559,2.80058550835
1647331624996284875,189,1647331624996284875,r2002313a3/base_front_laser_link,0,1647331624996284875,v/m1vw10zy74w/map,6.10964840406,-2.72324252779,0.165,0.0,0.0,-0.455541200428,0.890214701469,0,55.0959854126,55.7134742737,84.0940628052,2.79352974892
1647331625626373115,190,1647331625626373115,r2002313a3/base_front_laser_link,0,1647331625626373115,v/m1vw10zy74w/map,6.17476906548,-2.84026414382,0.165,0.0,0.0,-0.46428906072,0.885683729158,0,56.6847610474,55.7185592651,84.0797271729,2.78705501556
1647331625863621183,191,1647331625863621183,r2002313a3/base_front_laser_link,0,1647331625863621183,v/m1vw10zy74w/map,6.17403664715,-2.8705420987,0.165,0.0,0.0,-0.476862821279,0.878977729912,0,57.1752624512,55.726146698,84.0713577271,2.78173661232
1647331626020378366,192,1647331626020378366,r2002313a3/base_front_laser_link,0,1647331626020378366,v/m1vw10zy74w/map,6.14615115321,-2.88768478492,0.165,0.0,0.0,-0.496219879702,0.868196884922,0,54.8144569397,55.7214241028,84.047203064,2.77525925636
1647331626258175545,193,1647331626258175545,r2002313a3/base_front_laser_link,0,1647331626258175545,v/m1vw10zy74w/map,6.09854882757,-2.91332812924,0.165,0.0,0.0,-0.527700206775,0.849430686854,0,59.4542503357,55.7406654358,84.0836715698,2.78100347519
1647331629961149239,194,1647331629961149239,r2002313a3/base_front_laser_link,0,1647331629961149239,v/m1vw10zy74w/map,6.02829363961,-3.04723922171,0.165,0.0,0.0,-0.585351527197,0.810779618397,0,59.9840927124,55.762424469,84.1336898804,2.79042243958
1647331630117674292,195,1647331630117674292,r2002313a3/base_front_laser_link,0,1647331630117674292,v/m1vw10zy74w/map,6.03286786089,-3.0720013348,0.165,0.0,0.0,-0.587218286698,0.80942861561,0,56.0320281982,55.7638015747,84.1137771606,2.78332495689
1647331630197046178,196,1647331630197046178,r2002313a3/base_front_laser_link,0,1647331630197046178,v/m1vw10zy74w/map,6.0354185524,-3.0854308654,0.165,0.0,0.0,-0.588167533699,0.808739112633,0,58.305606842,55.7767028809,84.1230545044,2.78211569786
1647331630354786163,197,1647331630354786163,r2002313a3/base_front_laser_link,0,1647331630354786163,v/m1vw10zy74w/map,6.04109171061,-3.11388635705,0.165,0.0,0.0,-0.589982400436,0.807416105349,0,58.0323638916,55.7880973816,84.1271133423,2.77967166901
1647331630748907336,198,1647331630748907336,r2002313a3/base_front_laser_link,0,1647331630748907336,v/m1vw10zy74w/map,6.05817495,-3.19520402065,0.165,0.0,0.0,-0.594356176464,0.80420192458,0,60.2521438599,55.8105278015,84.1824569702,2.7906434536
1647331630985827022,199,1647331630985827022,r2002313a3/base_front_laser_link,0,1647331630985827022,v/m1vw10zy74w/map,6.07059685742,-3.25319345275,0.165,0.0,0.0,-0.598049213462,0.801459380304,0,58.6047515869,55.8245010376,84.1963806152,2.79062628746
1647331631064980626,200,1647331631064980626,r2002313a3/base_front_laser_link,0,1647331631064980626,v/m1vw10zy74w/map,6.07464628108,-3.27596076102,0.165,0.0,0.0,-0.599543139792,0.800342441414,0,60.2539558411,55.846534729,84.2498931885,2.80111932755
1647331631301837679,201,1647331631301837679,r2002313a3/base_front_laser_link,0,1647331631301837679,v/m1vw10zy74w/map,6.08955271443,-3.339428187,0.165,0.0,0.0,-0.60138375559,0.798960310975,0,59.7532653809,55.8658752441,84.288772583,2.80763077736
1647331631616743742,202,1647331631616743742,r2002313a3/base_front_laser_link,0,1647331631616743742,v/m1vw10zy74w/map,6.11163062975,-3.4312447143,0.165,0.0,0.0,-0.603508470628,0.797356586403,0,60.2941017151,55.8876914978,84.3412857056,2.81786513329
1647331631852825088,203,1647331631852825088,r2002313a3/base_front_laser_link,0,1647331631852825088,v/m1vw10zy74w/map,6.13150218634,-3.50307061079,0.165,0.0,0.0,-0.603873614423,0.797080082428,0,58.5801734924,55.9008903503,84.3525772095,2.81722998619
1647331632168899838,204,1647331632168899838,r2002313a3/base_front_laser_link,0,1647331632168899838,v/m1vw10zy74w/map,6.16064495725,-3.61647870659,0.165,0.0,0.0,-0.605741265261,0.795661686623,0,59.2573699951,55.917263031,84.377494812,2.82007718086
1647331632325960705,205,1647331632325960705,r2002313a3/base_front_laser_link,0,1647331632325960705,v/m1vw10zy74w/map,6.17460993235,-3.67443305179,0.165,0.0,0.0,-0.606758770447,0.794886026098,0,62.641960144,55.9499053955,84.5057296753,2.85194015503
1647331632641926128,206,1647331632641926128,r2002313a3/base_front_laser_link,0,1647331632641926128,v/m1vw10zy74w/map,6.20234327927,-3.79506623175,0.165,0.0,0.0,-0.608213676509,0.793773345299,0,58.5350189209,55.9623947144,84.5144271851,2.85067772865
1647331632877950893,207,1647331632877950893,r2002313a3/base_front_laser_link,0,1647331632877950893,v/m1vw10zy74w/map,6.22939878174,-3.89336474901,0.165,0.0,0.0,-0.607925413035,0.793994138635,0,55.0483665466,55.9580001831,84.4914703369,2.84448981285
1647331632957046450,208,1647331632957046450,r2002313a3/base_front_laser_link,0,1647331632957046450,v/m1vw10zy74w/map,6.23894659019,-3.92725719577,0.165,0.0,0.0,-0.607726635264,0.794146294325,0,58.1527099609,55.9685020447,84.4936065674,2.84170198441
1647331633193944755,209,1647331633193944755,r2002313a3/base_front_laser_link,0,1647331633193944755,v/m1vw10zy74w/map,6.26847454993,-4.03163240923,0.165,0.0,0.0,-0.607825789799,0.79407040573,0,60.3257980347,55.9892501831,84.5416412354,2.85079669952
1647331633352934553,210,1647331633352934553,r2002313a3/base_front_laser_link,0,1647331633352934553,v/m1vw10zy74w/map,6.2886801961,-4.10558435476,0.165,0.0,0.0,-0.607723539545,0.794148663339,0,58.6736183167,56.0019721985,84.5519714355,2.84999871254
1647331633509417464,211,1647331633509417464,r2002313a3/base_front_laser_link,0,1647331633509417464,v/m1vw10zy74w/map,6.30925890152,-4.18062237812,0.165,0.0,0.0,-0.607592415483,0.794248989075,0,58.4957427979,56.0137367249,84.5589065552,2.84839105606
1647331633667112277,212,1647331633667112277,r2002313a3/base_front_laser_link,0,1647331633667112277,v/m1vw10zy74w/map,6.32715078559,-4.26084172767,0.165,0.0,0.0,-0.60872948051,0.793377854214,0,54.6382446289,56.0072784424,84.5369644165,2.84322762489
1647331633746201298,213,1647331633746201298,r2002313a3/base_front_laser_link,0,1647331633746201298,v/m1vw10zy74w/map,6.33783306768,-4.30055668526,0.165,0.0,0.0,-0.608668665358,0.793424511728,0,58.3180046082,56.0180740356,84.5408935547,2.84094023705
1647331634061952917,214,1647331634061952917,r2002313a3/base_front_laser_link,0,1647331634061952917,v/m1vw10zy74w/map,6.38443354692,-4.46586566605,0.165,0.0,0.0,-0.607585504607,0.794254275778,0,57.820022583,56.0264549255,84.5373306274,2.8369576931
1647331634139968229,215,1647331634139968229,r2002313a3/base_front_laser_link,0,1647331634139968229,v/m1vw10zy74w/map,6.39977782367,-4.5063149862,0.165,0.0,0.0,-0.606110913598,0.795380135795,0,61.9762496948,56.0540008545,84.631477356,2.85915803909
1647331634298053679,216,1647331634298053679,r2002313a3/base_front_laser_link,0,1647331634298053679,v/m1vw10zy74w/map,6.42650178562,-4.59273568388,0.165,0.0,0.0,-0.604805785569,0.796373004152,0,57.9843406677,56.0628967285,84.6295166016,2.85554027557
1647331634456955388,217,1647331634456955388,r2002313a3/base_front_laser_link,0,1647331634456955388,v/m1vw10zy74w/map,6.45359215793,-4.68249050558,0.165,0.0,0.0,-0.603781932851,0.797149532749,0,61.6581077576,56.0885620117,84.7107009888,2.87404608727
1647331634614945495,218,1647331634614945495,r2002313a3/base_front_laser_link,0,1647331634614945495,v/m1vw10zy74w/map,6.47602801395,-4.76035763404,0.165,0.0,0.0,-0.603399053126,0.797439391231,0,61.7253379822,56.1143035889,84.7922058105,2.89263439178
1647331634851126396,219,1647331634851126396,r2002313a3/base_front_laser_link,0,1647331634851126396,v/m1vw10zy74w/map,6.51344002484,-4.90350075109,0.165,0.0,0.0,-0.604850631185,0.796338944141,0,58.5946235657,56.1255760193,84.7981643677,2.89086318016
1647331635008746529,220,1647331635008746529,r2002313a3/base_front_laser_link,0,1647331635008746529,v/m1vw10zy74w/map,6.53501799361,-5.00612173962,0.165,0.0,0.0,-0.607925404271,0.793994145345,0,60.2370262146,56.1441802979,84.8367233276,2.8975148201
1647331635086955524,221,1647331635086955524,r2002313a3/base_front_laser_link,0,1647331635086955524,v/m1vw10zy74w/map,6.5459979653,-5.0562675178,0.165,0.0,0.0,-0.609219823791,0.793001391109,0,59.9552497864,56.1613464355,84.8680801392,2.90224528313
1647331635246145454,222,1647331635246145454,r2002313a3/base_front_laser_link,0,1647331635246145454,v/m1vw10zy74w/map,6.56652032585,-5.16077449283,0.165,0.0,0.0,-0.612802304776,0.790236252814,0,57.0722045898,56.1654319763,84.8544616699,2.89634346962
1647331635482081292,223,1647331635482081292,r2002313a3/base_front_laser_link,0,1647331635482081292,v/m1vw10zy74w/map,6.5981316805,-5.32803501333,0.165,0.0,0.0,-0.61801273692,0.786168084448,0,61.3203697205,56.1884460449,84.9193344116,2.91029548645
1647331635639276498,224,1647331635639276498,r2002313a3/base_front_laser_link,0,1647331635639276498,v/m1vw10zy74w/map,6.61586531962,-5.43857702754,0.165,0.0,0.0,-0.622415280428,0.782687178053,0,57.5873947144,56.1946640015,84.9105300903,2.90528917313
1647331635717993249,225,1647331635717993249,r2002313a3/base_front_laser_link,0,1647331635717993249,v/m1vw10zy74w/map,6.62353606746,-5.49871526962,0.165,0.0,0.0,-0.624760486389,0.780816453878,0,57.3154220581,56.1996231079,84.8989715576,2.89978432655
1647331635955164540,226,1647331635955164540,r2002313a3/base_front_laser_link,0,1647331635955164540,v/m1vw10zy74w/map,6.65119396532,-5.67171583509,0.165,0.0,0.0,-0.629925673265,0.776655423055,0,57.4868507385,56.205291748,84.8891601562,2.89462304115
1647331636033290231,227,1647331636033290231,r2002313a3/base_front_laser_link,0,1647331636033290231,v/m1vw10zy74w/map,6.66303965796,-5.72459978619,0.165,0.0,0.0,-0.630340857743,0.776318493313,0,58.6251411438,56.2159042358,84.893951416,2.89268279076
1647331636191083513,228,1647331636191083513,r2002313a3/base_front_laser_link,0,1647331636191083513,v/m1vw10zy74w/map,6.6837759853,-5.8419326523,0.165,0.0,0.0,-0.632567213635,0.774505468176,0,57.9126472473,56.2233161926,84.8888397217,2.88850927353
1647331636270153360,229,1647331636270153360,r2002313a3/base_front_laser_link,0,1647331636270153360,v/m1vw10zy74w/map,6.6945064419,-5.90244870158,0.165,0.0,0.0,-0.633363056752,0.773854791509,0,60.476890564,56.241809845,84.9292373657,2.89580988884
1647331636586202503,230,1647331636586202503,r2002313a3/base_front_laser_link,0,1647331636586202503,v/m1vw10zy74w/map,6.73351841269,-6.15457825282,0.165,0.0,0.0,-0.637435873751,0.77050341132,0,61.9462966919,56.2665023804,85.007850647,2.91378211975
1647331636664164110,231,1647331636664164110,r2002313a3/base_front_laser_link,0,1647331636664164110,v/m1vw10zy74w/map,6.7446509947,-6.21704906296,0.165,0.0,0.0,-0.637822650745,0.770183267928,0,59.6553192139,56.2811088562,85.0290145874,2.91596865654
1647331636822258050,232,1647331636822258050,r2002313a3/base_front_laser_link,0,1647331636822258050,v/m1vw10zy74w/map,6.76688226633,-6.34161055471,0.165,0.0,0.0,-0.638302108519,0.769785956133,0,62.6891098022,56.3086128235,85.1280288696,2.93980550766
1647331637059198772,233,1647331637059198772,r2002313a3/base_front_laser_link,0,1647331637059198772,v/m1vw10zy74w/map,6.80414809912,-6.53542430547,0.165,0.0,0.0,-0.638194105695,0.769875498672,0,56.0387840271,56.3074607849,85.1080856323,2.93354320526
1647331637139048882,234,1647331637139048882,r2002313a3/base_front_laser_link,0,1647331637139048882,v/m1vw10zy74w/map,6.81670423219,-6.60278527249,0.165,0.0,0.0,-0.638268889098,0.769813500278,0,57.9744911194,56.3145523071,85.1024169922,2.92928743362
1647331637295509443,235,1647331637295509443,r2002313a3/base_front_laser_link,0,1647331637295509443,v/m1vw10zy74w/map,6.84068167743,-6.73763029765,0.165,0.0,0.0,-0.638960275362,0.769239732794,0,57.4344215393,56.3192977905,85.0911712646,2.92395710945
1647331637611057247,236,1647331637611057247,r2002313a3/base_front_laser_link,0,1647331637611057247,v/m1vw10zy74w/map,6.8846236188,-7.01390224689,0.165,0.0,0.0,-0.641133733886,0.767429172806,0,57.3830070496,56.3237876892,85.0795059204,2.91857361794
1647331637769230130,237,1647331637769230130,r2002313a3/base_front_laser_link,0,1647331637769230130,v/m1vw10zy74w/map,6.91120928036,-7.15546853098,0.165,0.0,0.0,-0.641827426636,0.766849107985,0,56.1161155701,56.3229141235,85.0602340698,2.91244101524
1647331637848047791,238,1647331637848047791,r2002313a3/base_front_laser_link,0,1647331637848047791,v/m1vw10zy74w/map,6.92256121701,-7.22797855107,0.165,0.0,0.0,-0.642625165492,0.766180720637,0,58.0192298889,56.3300132751,85.0551681519,2.90838646889
1647331638163244820,239,1647331638163244820,r2002313a3/base_front_laser_link,0,1647331638163244820,v/m1vw10zy74w/map,6.95236953726,-7.53174704203,0.165,0.0,0.0,-0.651596980274,0.758565340164,0,60.6035652161,56.3478164673,85.0939483643,2.91537594795
