%time,field.header.seq,field.header.stamp,field.header.frame_id,field.pose.header.seq,field.pose.header.stamp,field.pose.header.frame_id,field.pose.pose.position.x,field.pose.pose.position.y,field.pose.pose.position.z,field.pose.pose.orientation.x,field.pose.pose.orientation.y,field.pose.pose.orientation.z,field.pose.pose.orientation.w,field.label,field.current_error,field.mean,field.threshold,field.std_dev
1646220170340395758,0,1646220170340395758,r200121355/base_front_laser_link,0,1646220170340395758,v/m1vw10zy74w/map,-10.6763113022,2.82259698968,0.165,0.0,0.0,-0.997215017246,0.0745802210965,0,54.9152107239,54.9152107239,nan,nan
1646220170576243371,1,1646220170576243371,r200121355/base_front_laser_link,0,1646220170576243371,v/m1vw10zy74w/map,-10.6813927064,2.86600217517,0.165,0.0,0.0,-0.998986792002,0.0450043265222,0,55.9497108459,55.4324607849,77.6269760132,0.731504738331
1646220200844377238,2,1646220200844377238,r200121355/base_front_laser_link,0,1646220200844377238,v/m1vw10zy74w/map,-10.8189899069,2.98148960837,0.165,0.0,0.0,-0.999629708566,-0.027211132857,1,54.8869857788,55.2506370544,77.0673828125,0.605582475662
1646220201081262222,3,1646220201081262222,r200121355/base_front_laser_link,0,1646220201081262222,v/m1vw10zy74w/map,-10.8560586737,2.98214141642,0.165,0.0,0.0,-0.999654216363,-0.0262953932789,1,56.1179504395,55.467464447,77.4405136108,0.657682240009
1646220201240387346,4,1646220201240387346,r200121355/base_front_laser_link,0,1646220201240387346,v/m1vw10zy74w/map,-10.8847809791,2.98010112671,0.165,0.0,0.0,-0.999713645448,-0.0239296281968,1,56.376335144,55.6492385864,77.7484207153,0.699727058411
1646220201397131043,5,1646220201397131043,r200121355/base_front_laser_link,0,1646220201397131043,v/m1vw10zy74w/map,-10.9153373331,2.97695883017,0.165,0.0,0.0,-0.999782273884,-0.020866356346,1,56.412322998,55.7764205933,77.8737258911,0.699102282524
1646220201712263808,6,1646220201712263808,r200121355/base_front_laser_link,0,1646220201712263808,v/m1vw10zy74w/map,-10.9829007277,2.97255085965,0.165,0.0,0.0,-0.999869094509,-0.0161800447015,1,55.3845977783,55.7204437256,77.6858901978,0.655147910118
1646220201870166326,7,1646220201870166326,r200121355/base_front_laser_link,0,1646220201870166326,v/m1vw10zy74w/map,-11.0204582787,2.97281312544,0.165,0.0,0.0,-0.999878995244,-0.0155561842707,1,54.7527732849,55.5994873047,77.6886367798,0.696383953094
1646220202027774351,8,1646220202027774351,r200121355/base_front_laser_link,0,1646220202027774351,v/m1vw10zy74w/map,-11.0831330142,2.97801319211,0.165,0.0,0.0,-0.999851360047,-0.0172411662207,1,52.6432685852,55.2710189819,78.8147735596,1.18125247955
1646220202263170946,9,1646220202263170946,r200121355/base_front_laser_link,0,1646220202263170946,v/m1vw10zy74w/map,-11.146266387,2.99713593884,0.165,0.0,0.0,-0.999598866246,-0.0283214865217,1,52.9121894836,55.0351333618,79.0563964844,1.34041965008
1646220202500130099,10,1646220202500130099,r200121355/base_front_laser_link,0,1646220202500130099,v/m1vw10zy74w/map,-11.2143133529,3.02936383861,0.165,0.0,0.0,-0.998907895047,-0.0467227697376,1,57.8450737,55.2905845642,79.8746490479,1.52802145481
1646220202579345735,11,1646220202579345735,r200121355/base_front_laser_link,0,1646220202579345735,v/m1vw10zy74w/map,-11.2379166528,3.04259312425,0.165,0.0,0.0,-0.998538164418,-0.0540512183097,1,52.3959960938,55.0493659973,80.0879516602,1.67952692509
1646220202815249521,12,1646220202815249521,r200121355/base_front_laser_link,0,1646220202815249521,v/m1vw10zy74w/map,-11.314968973,3.08787526933,0.165,0.0,0.0,-0.996963038134,-0.0778761875978,1,55.0747032166,55.0513153076,79.8754348755,1.60803985596
1646220202894251322,13,1646220202894251322,r200121355/base_front_laser_link,0,1646220202894251322,v/m1vw10zy74w/map,-11.3409038275,3.11116883611,0.165,0.0,0.0,-0.996015893242,-0.0891758959024,1,57.2130279541,55.2057228088,80.1540603638,1.64944541454
1646220203210235357,14,1646220203210235357,r200121355/base_front_laser_link,0,1646220203210235357,v/m1vw10zy74w/map,-11.4402438667,3.19429965569,0.165,0.0,0.0,-0.991580404394,-0.129492477083,1,58.0738372803,55.3969306946,80.6574172974,1.75349402428
1646220203288203021,15,1646220203288203021,r200121355/base_front_laser_link,0,1646220203288203021,v/m1vw10zy74w/map,-11.464819326,3.21773702039,0.165,0.0,0.0,-0.990112623642,-0.140274703721,1,57.4883117676,55.5276451111,80.8462982178,1.77288615704
1646220203446139206,16,1646220203446139206,r200121355/base_front_laser_link,0,1646220203446139206,v/m1vw10zy74w/map,-11.5064591163,3.284555456,0.165,0.0,0.0,-0.985674629685,-0.168658010172,1,57.0935935974,55.619758606,80.8940658569,1.75810313225
1646220203603077145,17,1646220203603077145,r200121355/base_front_laser_link,0,1646220203603077145,v/m1vw10zy74w/map,-11.554498975,3.3393438029,0.165,0.0,0.0,-0.98148093313,-0.191559854619,1,60.3206977844,55.8809204102,81.982673645,2.03391742706
1646220203840352174,18,1646220203840352174,r200121355/base_front_laser_link,0,1646220203840352174,v/m1vw10zy74w/map,-11.6340853778,3.43971786796,0.165,0.0,0.0,-0.972615964664,-0.232418125974,1,58.0245933533,55.9937477112,82.1043701172,2.03687405586
1646220203998288624,19,1646220203998288624,r200121355/base_front_laser_link,0,1646220203998288624,v/m1vw10zy74w/map,-11.6776820659,3.50842298078,0.165,0.0,0.0,-0.965983456257,-0.258603871274,1,61.1403083801,56.2510757446,83.128112793,2.29234623909
1646220204155292020,20,1646220204155292020,r200121355/base_front_laser_link,0,1646220204155292020,v/m1vw10zy74w/map,-11.7210640544,3.59860266637,0.165,0.0,0.0,-0.956168500809,-0.292817004391,1,62.4426803589,56.5459136963,84.3790893555,2.61105942726
1646220204391574545,21,1646220204391574545,r200121355/base_front_laser_link,0,1646220204391574545,v/m1vw10zy74w/map,-11.7583941381,3.74673379382,0.165,0.0,0.0,-0.936290353817,-0.351226954189,1,64.6787261963,56.9155845642,86.1619491577,3.08211994171
1646220204549136322,22,1646220204549136322,r200121355/base_front_laser_link,0,1646220204549136322,v/m1vw10zy74w/map,-11.7738129642,3.86255372404,0.165,0.0,0.0,-0.916722193999,-0.399525242044,1,64.5227813721,57.2463340759,87.4567947388,3.40348815918
1646220204706448438,23,1646220204706448438,r200121355/base_front_laser_link,0,1646220204706448438,v/m1vw10zy74w/map,-11.7679249998,3.97372362325,0.165,0.0,0.0,-0.894847706125,-0.44637157486,1,63.4583930969,57.5051689148,88.1912307739,3.56202101707
1646220204864066587,24,1646220204864066587,r200121355/base_front_laser_link,0,1646220204864066587,v/m1vw10zy74w/map,-11.7375895354,4.10187490162,0.165,0.0,0.0,-0.86652674849,-0.499130638362,1,63.8738136292,57.7599143982,88.8970336914,3.71237277985
1646220204943011710,25,1646220204943011710,r200121355/base_front_laser_link,0,1646220204943011710,v/m1vw10zy74w/map,-11.724812726,4.15688735501,0.165,0.0,0.0,-0.853522802308,-0.52105549219,1,65.8712768555,58.0718917847,89.9819259644,3.97001099586
1646220205258835850,26,1646220205258835850,r200121355/base_front_laser_link,0,1646220205258835850,v/m1vw10zy74w/map,-11.4415819254,4.50726771661,0.165,0.0,0.0,-0.774621181024,-0.632425510166,1,58.2716407776,58.0792884827,89.758605957,3.89310574532
1646220205495979857,27,1646220205495979857,r200121355/base_front_laser_link,0,1646220205495979857,v/m1vw10zy74w/map,-11.385507733,4.684475478,0.165,0.0,0.0,-0.760151567407,-0.649745792267,1,59.830368042,58.1418266296,89.6457366943,3.83463668823
1646220205575734258,28,1646220205575734258,r200121355/base_front_laser_link,0,1646220205575734258,v/m1vw10zy74w/map,-11.3595918358,4.73708940173,0.165,0.0,0.0,-0.756588522672,-0.653891280995,1,61.3902359009,58.2538414001,89.6944885254,3.81354808807
1646220205652049080,29,1646220205652049080,r200121355/base_front_laser_link,0,1646220205652049080,v/m1vw10zy74w/map,-11.3678005886,4.78203249067,0.165,0.0,0.0,-0.757369220097,-0.652986879233,1,58.4639587402,58.2608451843,89.5030975342,3.7474167347
1646220206991200807,30,1646220206991200807,r200121355/base_front_laser_link,0,1646220206991200807,v/m1vw10zy74w/map,-11.2428675246,5.46439725058,0.165,0.0,0.0,-0.673506281336,-0.739181499364,0,60.7848701477,58.3422660828,89.4789047241,3.71221423149
1646220207227331551,31,1646220207227331551,r200121355/base_front_laser_link,0,1646220207227331551,v/m1vw10zy74w/map,-11.2314927902,5.47321308826,0.165,0.0,0.0,-0.668238512787,-0.743947101633,0,54.8187866211,58.2321548462,89.345916748,3.70458722115
1646220207384883978,32,1646220207384883978,r200121355/base_front_laser_link,0,1646220207384883978,v/m1vw10zy74w/map,-11.2164122832,5.5061945189,0.165,0.0,0.0,-0.663261897091,-0.748387370194,0,56.7378807068,58.1868743896,89.1534042358,3.65551018715
1646220207621779675,33,1646220207621779675,r200121355/base_front_laser_link,0,1646220207621779675,v/m1vw10zy74w/map,-11.1838576227,5.51741674933,0.165,0.0,0.0,-0.647557432885,-0.762016647531,0,56.7034111023,58.143245697,88.9692764282,3.6086769104
1646220207858852536,34,1646220207858852536,r200121355/base_front_laser_link,0,1646220207858852536,v/m1vw10zy74w/map,-11.134836437,5.52992214073,0.165,0.0,0.0,-0.623595578515,-0.781747116692,0,56.2694358826,58.0897064209,88.7975845337,3.56929278374
1646220208014780108,35,1646220208014780108,r200121355/base_front_laser_link,0,1646220208014780108,v/m1vw10zy74w/map,-11.093581978,5.53622871138,0.165,0.0,0.0,-0.602999907382,-0.797741256109,0,57.3309631348,58.0686302185,88.6292495728,3.52020549774
1646220208250900011,36,1646220208250900011,r200121355/base_front_laser_link,0,1646220208250900011,v/m1vw10zy74w/map,-11.0178448716,5.56275725224,0.165,0.0,0.0,-0.563173726779,-0.826338522317,0,58.136013031,58.0704498291,88.4834136963,3.47098708153
1646220208407753349,37,1646220208407753349,r200121355/base_front_laser_link,0,1646220208407753349,v/m1vw10zy74w/map,-10.9588774393,5.56110036151,0.165,0.0,0.0,0.532081656894,0.846693043787,0,54.6551856995,57.9805755615,88.3854675293,3.46829724312
1646220208566141125,38,1646220208566141125,r200121355/base_front_laser_link,0,1646220208566141125,v/m1vw10zy74w/map,-10.8970393957,5.55694003615,0.165,0.0,0.0,0.498306487943,0.867000948139,0,55.8954811096,57.9271125793,88.2429275513,3.43860554695
1646220208801745935,39,1646220208801745935,r200121355/base_front_laser_link,0,1646220208801745935,v/m1vw10zy74w/map,-10.7981563993,5.54932472472,0.165,0.0,0.0,0.44273799889,0.896651027066,0,59.7561988831,57.9728393555,88.1924362183,3.40653300285
1646220208958655197,40,1646220208958655197,r200121355/base_front_laser_link,0,1646220208958655197,v/m1vw10zy74w/map,-10.7297154866,5.55062978912,0.165,0.0,0.0,0.403182297057,0.915119683615,0,59.0498428345,57.9991073608,88.1027603149,3.36788463593
1646220209117200345,41,1646220209117200345,r200121355/base_front_laser_link,0,1646220209117200345,v/m1vw10zy74w/map,-10.658529038,5.54356208682,0.165,0.0,0.0,0.359003843999,0.933336080945,0,59.53099823,58.0355796814,88.0404205322,3.3349468708
1646220209352739852,42,1646220209352739852,r200121355/base_front_laser_link,0,1646220209352739852,v/m1vw10zy74w/map,-10.5672248009,5.51045100604,0.165,0.0,0.0,0.296968142962,0.954887387112,0,57.5074272156,58.0233001709,87.9112701416,3.29598999023
1646220209511814159,43,1646220209511814159,r200121355/base_front_laser_link,0,1646220209511814159,v/m1vw10zy74w/map,-10.5172688122,5.48774621522,0.165,0.0,0.0,0.262638789693,0.964894225368,0,57.5117759705,58.0116729736,87.7867279053,3.25835180283
1646220209746876770,44,1646220209746876770,r200121355/base_front_laser_link,0,1646220209746876770,v/m1vw10zy74w/map,-10.4537686756,5.45394896661,0.165,0.0,0.0,0.219111120249,0.975699911337,0,58.0565872192,58.0126724243,87.6760253906,3.22111916542
1646220212978509399,45,1646220212978509399,r200121355/base_front_laser_link,0,1646220212978509399,v/m1vw10zy74w/map,-10.3596536943,5.37543440022,0.165,0.0,0.0,0.150858665049,0.988555341486,0,59.2361946106,58.0392684937,87.6099700928,3.19023251534
1646220213214713389,46,1646220213214713389,r200121355/base_front_laser_link,0,1646220213214713389,v/m1vw10zy74w/map,-10.3476351755,5.36108058225,0.165,0.0,0.0,0.139315562697,0.9902480366,0,56.6096572876,58.0088539124,87.4955978394,3.16224861145
1646220213451652710,47,1646220213451652710,r200121355/base_front_laser_link,0,1646220213451652710,v/m1vw10zy74w/map,-10.3262511829,5.33386812034,0.165,0.0,0.0,0.117931598218,0.993021720881,0,56.4011573792,57.9753570557,87.3864212036,3.13702130318
1646220213608762787,48,1646220213608762787,r200121355/base_front_laser_link,0,1646220213608762787,v/m1vw10zy74w/map,-10.3089131418,5.3093215041,0.165,0.0,0.0,0.0992307632229,0.995064447978,0,57.928565979,57.9744033813,87.2869415283,3.10417914391
1646220213845635124,49,1646220213845635124,r200121355/base_front_laser_link,0,1646220213845635124,v/m1vw10zy74w/map,-10.2796102038,5.26380121732,0.165,0.0,0.0,0.0655978010338,0.997846144703,0,58.8588790894,57.9920921326,87.2167510986,3.07488584518
1646220214002597339,50,1646220214002597339,r200121355/base_front_laser_link,0,1646220214002597339,v/m1vw10zy74w/map,-10.2587838459,5.22795060959,0.165,0.0,0.0,0.0399342049619,0.999202311484,0,60.762348175,58.0464134216,87.2522125244,3.06859922409
1646220214160633467,51,1646220214160633467,r200121355/base_front_laser_link,0,1646220214160633467,v/m1vw10zy74w/map,-10.2347913697,5.18721170544,0.165,0.0,0.0,0.0108883404851,0.999940720264,0,56.6518821716,58.0195922852,87.153137207,3.04451417923
1646220214396616826,52,1646220214396616826,r200121355/base_front_laser_link,0,1646220214396616826,v/m1vw10zy74w/map,-10.2030344507,5.12104795652,0.165,0.0,0.0,-0.0335245862517,0.999437893076,0,59.4668006897,58.0468978882,87.111831665,3.02164387703
1646220214554560783,53,1646220214554560783,r200121355/base_front_laser_link,0,1646220214554560783,v/m1vw10zy74w/map,-10.187335756,5.0816011325,0.165,0.0,0.0,-0.0618168327478,0.998087510787,0,56.9256019592,58.026134491,87.0167999268,2.99688911438
1646220214790607514,54,1646220214790607514,r200121355/base_front_laser_link,0,1646220214790607514,v/m1vw10zy74w/map,-10.1500235281,5.03721237506,0.165,0.0,0.0,-0.0880248343279,0.996118280397,0,56.9397659302,58.0063819885,86.9242477417,2.97262215614
1646220214949445591,55,1646220214949445591,r200121355/base_front_laser_link,0,1646220214949445591,v/m1vw10zy74w/map,-10.1202050282,5.02353291788,0.165,0.0,0.0,-0.0932301813059,0.995644581813,0,56.4149055481,57.9779624939,86.837387085,2.95314192772
1646220215185660105,56,1646220215185660105,r200121355/base_front_laser_link,0,1646220215185660105,v/m1vw10zy74w/map,-10.0667653297,5.013599927,0.165,0.0,0.0,-0.0911674413003,0.995835577616,0,56.3351974487,57.9491424561,86.7533416748,2.93473315239
1646220215342831520,57,1646220215342831520,r200121355/base_front_laser_link,0,1646220215342831520,v/m1vw10zy74w/map,-10.0269866384,5.01433316377,0.165,0.0,0.0,-0.0859082960945,0.996303048606,0,56.0737838745,57.916809082,86.6746520996,2.9192802906
1646220215579394337,58,1646220215579394337,r200121355/base_front_laser_link,0,1646220215579394337,v/m1vw10zy74w/map,-9.96301462031,5.01810914023,0.165,0.0,0.0,-0.076356763835,0.997080560746,0,58.3024902344,57.9233474731,86.6066665649,2.8944401741
1646220215736290574,59,1646220215736290574,r200121355/base_front_laser_link,0,1646220215736290574,v/m1vw10zy74w/map,-9.9176543046,5.0220154692,0.165,0.0,0.0,-0.0692585530237,0.9975987434,0,57.441028595,57.9153060913,86.5267562866,2.87048172951
1646220215893446679,60,1646220215893446679,r200121355/base_front_laser_link,0,1646220215893446679,v/m1vw10zy74w/map,-9.8696192744,5.02708496879,0.165,0.0,0.0,-0.0615810361021,0.998102086959,0,57.9141540527,57.9152870178,86.4546737671,2.84646058083
1646220216051391654,61,1646220216051391654,r200121355/base_front_laser_link,0,1646220216051391654,v/m1vw10zy74w/map,-9.82028715179,5.03098395296,0.165,0.0,0.0,-0.0561984283344,0.998419619525,0,57.5192260742,57.9089012146,86.3793411255,2.82348060608
1646220216209588674,62,1646220216209588674,r200121355/base_front_laser_link,0,1646220216209588674,v/m1vw10zy74w/map,-9.76385842427,5.03701033021,0.165,0.0,0.0,-0.0477459037869,0.998859513982,0,60.6356239319,57.9521827698,86.4170074463,2.82160902023
1646220216446498308,63,1646220216446498308,r200121355/base_front_laser_link,0,1646220216446498308,v/m1vw10zy74w/map,-9.67947145294,5.05030832234,0.165,0.0,0.0,-0.0340453748693,0.999420288192,0,58.8718452454,57.9665527344,86.3710098267,2.80148530006
1646220216602825850,64,1646220216602825850,r200121355/base_front_laser_link,0,1646220216602825850,v/m1vw10zy74w/map,-9.62109404283,5.05975021467,0.165,0.0,0.0,-0.0252786826548,0.999680443043,0,59.8397903442,57.9953689575,86.362991333,2.78920674324
1646220216760687194,65,1646220216760687194,r200121355/base_front_laser_link,0,1646220216760687194,v/m1vw10zy74w/map,-9.56022841731,5.06586176499,0.165,0.0,0.0,-0.0171619426171,0.999852723018,0,58.432964325,58.0020027161,86.3065795898,2.76819229126
1646220216839531647,66,1646220216839531647,r200121355/base_front_laser_link,0,1646220216839531647,v/m1vw10zy74w/map,-9.52828053446,5.06907572757,0.165,0.0,0.0,-0.0137581569403,0.99990535208,0,59.0033950806,58.0169487,86.2665405273,2.74986386299
1646220216918510511,67,1646220216918510511,r200121355/base_front_laser_link,0,1646220216918510511,v/m1vw10zy74w/map,-9.49645928425,5.07263986697,0.165,0.0,0.0,-0.0107938120685,0.999941745114,0,58.7645225525,58.0279426575,86.2202529907,2.73077058792
1646220216996543480,68,1646220216996543480,r200121355/base_front_laser_link,0,1646220216996543480,v/m1vw10zy74w/map,-9.46442640926,5.07589854436,0.165,0.0,0.0,-0.00816780624838,0.999966642914,0,60.1871681213,58.0592346191,86.2283935547,2.72305226326
1646220217233610908,69,1646220217233610908,r200121355/base_front_laser_link,0,1646220217233610908,v/m1vw10zy74w/map,-9.36284420082,5.08406175662,0.165,0.0,0.0,-0.0019367662965,0.999998124466,0,60.9998855591,58.1012420654,86.2792510986,2.72600150108
1646220217707250338,70,1646220217707250338,r200121355/base_front_laser_link,0,1646220217707250338,v/m1vw10zy74w/map,-9.13674678026,5.09781140024,0.165,0.0,0.0,0.00363944444863,0.9999933772,0,61.0111808777,58.1422271729,86.3274383545,2.72840428352
1646220218101362168,71,1646220218101362168,r200121355/base_front_laser_link,0,1646220218101362168,v/m1vw10zy74w/map,-8.92708883985,5.10355520867,0.165,0.0,0.0,0.00655386634359,0.999978523187,0,59.2752952576,58.1579666138,86.2951965332,2.71241092682
1646220218258678271,72,1646220218258678271,r200121355/base_front_laser_link,0,1646220218258678271,v/m1vw10zy74w/map,-8.84334004582,5.10476843537,0.165,0.0,0.0,0.00662432224834,0.999978058937,0,61.4772148132,58.2034339905,86.3675765991,2.72138094902
1646220218574420115,73,1646220218574420115,r200121355/base_front_laser_link,0,1646220218574420115,v/m1vw10zy74w/map,-8.66186242469,5.11294642511,0.165,0.0,0.0,0.00732945164392,0.999973139209,0,60.5420684814,58.2350387573,86.3839874268,2.71631574631
1646220218968355890,74,1646220218968355890,r200121355/base_front_laser_link,0,1646220218968355890,v/m1vw10zy74w/map,-8.43099290988,5.11032073003,0.165,0.0,0.0,0.0037874719707,0.999992827502,0,54.8048591614,58.1893005371,86.369758606,2.72681975365
1646220219284464298,75,1646220219284464298,r200121355/base_front_laser_link,0,1646220219284464298,v/m1vw10zy74w/map,-8.24073815197,5.10810706883,0.165,0.0,0.0,0.00126057459606,0.999999205476,0,57.9013404846,58.1855125427,86.3118591309,2.70878124237
1646220219520569994,76,1646220219520569994,r200121355/base_front_laser_link,0,1646220219520569994,v/m1vw10zy74w/map,-8.10493171507,5.10481391101,0.165,0.0,0.0,0.00164424089911,0.999998648235,0,56.7768974304,58.1672210693,86.2542724609,2.69568514824
1646220219757798404,77,1646220219757798404,r200121355/base_front_laser_link,0,1646220219757798404,v/m1vw10zy74w/map,-7.96323234105,5.10404100256,0.165,0.0,0.0,0.000908347871463,0.999999587452,0,58.5521888733,58.1721534729,86.2075881958,2.67847824097
1646220219915372868,78,1646220219915372868,r200121355/base_front_laser_link,0,1646220219915372868,v/m1vw10zy74w/map,-7.88160575766,5.09655192633,0.165,0.0,0.0,0.000527927445937,0.999999860646,0,59.9862937927,58.1951179504,86.2023239136,2.66906857491
1646220220073126495,79,1646220220073126495,r200121355/base_front_laser_link,0,1646220220073126495,v/m1vw10zy74w/map,-7.7871941659,5.09907376756,0.165,0.0,0.0,0.00208754245397,0.999997821081,0,61.7716217041,58.2398262024,86.2861175537,2.68209695816
1646220220310167018,80,1646220220310167018,r200121355/base_front_laser_link,0,1646220220310167018,v/m1vw10zy74w/map,-7.63763177924,5.09917826628,0.165,0.0,0.0,0.00548365373804,0.999984964658,0,59.0187644958,58.2494430542,86.24949646,2.66668581963
1646220220467332240,81,1646220220467332240,r200121355/base_front_laser_link,0,1646220220467332240,v/m1vw10zy74w/map,-7.54364098627,5.10340997908,0.165,0.0,0.0,0.00752895539168,0.999971657014,0,55.7412452698,58.2188529968,86.2126846313,2.66460895538
1646220220624467409,82,1646220220624467409,r200121355/base_front_laser_link,0,1646220220624467409,v/m1vw10zy74w/map,-7.44732681515,5.11513628077,0.165,0.0,0.0,0.00931660902683,0.999956599456,0,55.7214279175,58.1887626648,86.1761474609,2.66246128082
1646220220860496527,83,1646220220860496527,r200121355/base_front_laser_link,0,1646220220860496527,v/m1vw10zy74w/map,-7.30454068982,5.11906955431,0.165,0.0,0.0,0.00970386545052,0.999952916389,0,53.4524040222,58.1323776245,86.2214584351,2.6963596344
1646220221019307205,84,1646220221019307205,r200121355/base_front_laser_link,0,1646220221019307205,v/m1vw10zy74w/map,-7.21126850562,5.12116804747,0.165,0.0,0.0,0.00877598960511,0.999961490262,0,55.6248970032,58.1028785706,86.1849594116,2.69402551651
1646220221177110262,85,1646220221177110262,r200121355/base_front_laser_link,0,1646220221177110262,v/m1vw10zy74w/map,-7.11667791914,5.12282983821,0.165,0.0,0.0,0.00853921010422,0.999963540281,0,58.8967933655,58.1121101379,86.1506118774,2.67949938774
1646220221413294754,86,1646220221413294754,r200121355/base_front_laser_link,0,1646220221413294754,v/m1vw10zy74w/map,-6.98247109262,5.11948640321,0.165,0.0,0.0,0.00548389961607,0.999984963309,0,60.8252906799,58.1432952881,86.1824264526,2.67970991135
1646220221650372657,87,1646220221650372657,r200121355/base_front_laser_link,0,1646220221650372657,v/m1vw10zy74w/map,-6.84122914048,5.11833905126,0.165,0.0,0.0,0.00414461182499,0.99999141106,0,59.1601715088,58.1548538208,86.154258728,2.66646909714
1646220221806725271,88,1646220221806725271,r200121355/base_front_laser_link,0,1646220221806725271,v/m1vw10zy74w/map,-6.73743691943,5.1190122932,0.165,0.0,0.0,0.00458071598793,0.999989508465,0,56.8153190613,58.1398010254,86.1050262451,2.65507483482
1646220221965251015,89,1646220221965251015,r200121355/base_front_laser_link,0,1646220221965251015,v/m1vw10zy74w/map,-6.63977496758,5.11920871023,0.165,0.0,0.0,0.00428830024619,0.999990805198,0,59.4001274109,58.1538047791,86.0841751099,2.64345693588
1646220222201249884,90,1646220222201249884,r200121355/base_front_laser_link,0,1646220222201249884,v/m1vw10zy74w/map,-6.49563248861,5.11409586582,0.165,0.0,0.0,0.00344191510822,0.999994076593,0,56.6860084534,58.137676239,86.037361145,2.63322925568
1646220222438413785,91,1646220222438413785,r200121355/base_front_laser_link,0,1646220222438413785,v/m1vw10zy74w/map,-6.35249503439,5.11509821891,0.165,0.0,0.0,0.00373602947711,0.999993021018,0,55.4029769897,58.1079521179,86.0105361938,2.63419604301
1646220222517356427,92,1646220222517356427,r200121355/base_front_laser_link,0,1646220222517356427,v/m1vw10zy74w/map,-6.30527556684,5.11548723945,0.165,0.0,0.0,0.0037597464881,0.999992932128,0,56.241985321,58.0878868103,85.9688110352,2.6269762516
1646220222594644656,93,1646220222594644656,r200121355/base_front_laser_link,0,1646220222594644656,v/m1vw10zy74w/map,-6.26444627689,5.1183681422,0.165,0.0,0.0,0.00503255338133,0.999987336623,0,58.1688308716,58.0887489319,85.927230835,2.61282777786
1646220222752365853,94,1646220222752365853,r200121355/base_front_laser_link,0,1646220222752365853,v/m1vw10zy74w/map,-6.16928670409,5.11947494466,0.165,0.0,0.0,0.00510777450662,0.999986955235,0,55.2740936279,58.0591201782,85.9037780762,2.61488723755
1646220222910461372,95,1646220222910461372,r200121355/base_front_laser_link,0,1646220222910461372,v/m1vw10zy74w/map,-6.07473952892,5.12025979383,0.165,0.0,0.0,0.0049948978516,0.99998752542,0,55.8129692078,58.0357208252,85.8692321777,2.61117100716
1646220223305176009,96,1646220223305176009,r200121355/base_front_laser_link,0,1646220223305176009,v/m1vw10zy74w/map,-5.8321442842,5.11315437879,0.165,0.0,0.0,0.00250505567079,0.999996862343,0,59.5516090393,58.0513496399,85.8576278687,2.60209178925
1646220223619434964,97,1646220223619434964,r200121355/base_front_laser_link,0,1646220223619434964,v/m1vw10zy74w/map,-5.66318758589,5.11334976669,0.165,0.0,0.0,0.0013384301165,0.999999104302,0,56.5145492554,58.0356674194,85.8155517578,2.59329485893
1646220223857336670,98,1646220223857336670,r200121355/base_front_laser_link,0,1646220223857336670,v/m1vw10zy74w/map,-5.51075757129,5.11379806526,0.165,0.0,0.0,0.00121694734366,0.999999259519,0,57.1832847595,58.0270576477,85.7714157104,2.58145165443
1646220224171182242,99,1646220224171182242,r200121355/base_front_laser_link,0,1646220224171182242,v/m1vw10zy74w/map,-5.31761288617,5.11952736635,0.165,0.0,0.0,0.00284227758236,0.999995960721,0,54.1350212097,57.9881362915,85.7812423706,2.59770274162
1646220224408399980,100,1646220224408399980,r200121355/base_front_laser_link,0,1646220224408399980,v/m1vw10zy74w/map,-5.16380716439,5.12381895587,0.165,0.0,0.0,0.00274595042763,0.999996229871,0,53.8725357056,57.9473876953,85.7981567383,2.61692261696
1646220224723028597,101,1646220224723028597,r200121355/base_front_laser_link,0,1646220224723028597,v/m1vw10zy74w/map,-4.96806884184,5.12148440432,0.165,0.0,0.0,0.00130336655247,0.999999150617,0,53.6155166626,57.9049186707,85.8219909668,2.6390247345
1646220224959087857,102,1646220224959087857,r200121355/base_front_laser_link,0,1646220224959087857,v/m1vw10zy74w/map,-4.82366266778,5.12413988709,0.165,0.0,0.0,0.00196204640506,0.999998075185,0,54.5703659058,57.8725471497,85.8121414185,2.64653086662
1646220225118294485,103,1646220225118294485,r200121355/base_front_laser_link,0,1646220225118294485,v/m1vw10zy74w/map,-4.72854484463,5.12449434188,0.165,0.0,0.0,0.00194892821161,0.999998100838,0,58.3066864014,57.8767204285,85.7787094116,2.63399648666
1646220225275279028,104,1646220225275279028,r200121355/base_front_laser_link,0,1646220225275279028,v/m1vw10zy74w/map,-4.64874914249,5.13603191083,0.165,0.0,0.0,0.00511958146867,0.999986894857,0,53.4577980042,57.8346366882,85.8042526245,2.65653848648
1646220225591316940,105,1646220225591316940,r200121355/base_front_laser_link,0,1646220225591316940,v/m1vw10zy74w/map,-4.45206578863,5.1322557862,0.165,0.0,0.0,0.00390003617463,0.99999239483,0,56.3976669312,57.8210792542,85.7636947632,2.64753937721
1646220225749208784,106,1646220225749208784,r200121355/base_front_laser_link,0,1646220225749208784,v/m1vw10zy74w/map,-4.36280127744,5.13169324876,0.165,0.0,0.0,0.00538879561049,0.999985480336,0,53.661113739,57.7821998596,85.7788009644,2.66553378105
1646220225906056241,107,1646220225906056241,r200121355/base_front_laser_link,0,1646220225906056241,v/m1vw10zy74w/map,-4.26893657172,5.13248839764,0.165,0.0,0.0,0.0052478787587,0.999986229789,0,53.4014396667,57.7416381836,85.8006210327,2.68632864952
1646220226064153927,108,1646220226064153927,r200121355/base_front_laser_link,0,1646220226064153927,v/m1vw10zy74w/map,-4.17612393122,5.13640553701,0.165,0.0,0.0,0.0071071365634,0.999974743986,0,54.9553604126,57.7160758972,85.7775192261,2.68714857101
1646220226299995506,109,1646220226299995506,r200121355/base_front_laser_link,0,1646220226299995506,v/m1vw10zy74w/map,-4.0349792838,5.1369449803,0.165,0.0,0.0,0.00677387853271,0.999977057022,0,53.1148643494,57.6742477417,85.805847168,2.71053266525
1646220226537270977,110,1646220226537270977,r200121355/base_front_laser_link,0,1646220226537270977,v/m1vw10zy74w/map,-3.88018544886,5.1359590725,0.165,0.0,0.0,0.00767719635828,0.999970529894,0,53.1867446899,57.6338195801,85.8286056519,2.73159599304
1646220226694255696,111,1646220226694255696,r200121355/base_front_laser_link,0,1646220226694255696,v/m1vw10zy74w/map,-3.78599788864,5.13725783524,0.165,0.0,0.0,0.00758308313372,0.999971248012,0,52.3253364563,57.5864219666,85.8818435669,2.76514053345
1646220226930122073,112,1646220226930122073,r200121355/base_front_laser_link,0,1646220226930122073,v/m1vw10zy74w/map,-3.65254072144,5.1323765165,0.165,0.0,0.0,0.00604082229642,0.999981754067,0,50.7381362915,57.5258178711,86.0072631836,2.82714867592
1646220227089122489,113,1646220227089122489,r200121355/base_front_laser_link,0,1646220227089122489,v/m1vw10zy74w/map,-3.5582879237,5.13060584552,0.165,0.0,0.0,0.0053776267613,0.999985540461,0,54.0883827209,57.4956626892,85.9945526123,2.8329641819
1646220227247126855,114,1646220227247126855,r200121355/base_front_laser_link,0,1646220227247126855,v/m1vw10zy74w/map,-3.46411726388,5.13159687098,0.165,0.0,0.0,0.0053629411818,0.999985619328,0,55.4685287476,57.4780387878,85.9585494995,2.82683873177
1646220227403813948,115,1646220227403813948,r200121355/base_front_laser_link,0,1646220227403813948,v/m1vw10zy74w/map,-3.38233025033,5.12581421883,0.165,0.0,0.0,0.00435566125231,0.999990514063,0,56.1890449524,57.4669265747,85.9181213379,2.81706476212
1646220227641005449,116,1646220227641005449,r200121355/base_front_laser_link,0,1646220227641005449,v/m1vw10zy74w/map,-3.23998874108,5.127686737,0.165,0.0,0.0,0.00474206860496,0.999988756329,0,56.4886169434,57.4585647583,85.8776245117,2.80635380745
1646220227720002982,117,1646220227720002982,r200121355/base_front_laser_link,0,1646220227720002982,v/m1vw10zy74w/map,-3.19255207576,5.12817512603,0.165,0.0,0.0,0.00476769655683,0.99998863447,0,56.5016860962,57.4504547119,85.8376235962,2.79572319984
1646220227798976524,118,1646220227798976524,r200121355/base_front_laser_link,0,1646220227798976524,v/m1vw10zy74w/map,-3.16426645302,5.12897030853,0.165,0.0,0.0,0.00468765391645,0.99998901289,0,57.346786499,57.4495811462,85.8011856079,2.783867836
1646220227955102898,119,1646220227955102898,r200121355/base_front_laser_link,0,1646220227955102898,v/m1vw10zy74w/map,-3.07209640016,5.12933557912,0.165,0.0,0.0,0.00459869914561,0.999989425927,0,58.6815681458,57.4598503113,85.7831268311,2.77442669868
1646220228034172081,120,1646220228034172081,r200121355/base_front_laser_link,0,1646220228034172081,v/m1vw10zy74w/map,-3.02487496847,5.12979972252,0.165,0.0,0.0,0.00461834375643,0.999989335394,0,55.5742835999,57.4442672729,85.7487335205,2.76815485954
1646220228193053227,121,1646220228193053227,r200121355/base_front_laser_link,0,1646220228193053227,v/m1vw10zy74w/map,-2.92585187566,5.12132358892,0.165,0.0,0.0,0.00140956700463,0.99999900656,0,59.3000335693,57.4594764709,85.7449035645,2.76180768013
1646220228271072581,122,1646220228271072581,r200121355/base_front_laser_link,0,1646220228271072581,v/m1vw10zy74w/map,-2.88398250219,5.12377752814,0.165,0.0,0.0,0.00206087319912,0.999997876399,0,59.7024383545,57.4777145386,85.7513885498,2.75789070129
1646220228507238273,123,1646220228507238273,r200121355/base_front_laser_link,0,1646220228507238273,v/m1vw10zy74w/map,-2.74214193629,5.12591650601,0.165,0.0,0.0,0.00303721141651,0.999995387663,0,59.6312904358,57.4950790405,85.7554550171,2.75345730782
1646220228586203906,124,1646220228586203906,r200121355/base_front_laser_link,0,1646220228586203906,v/m1vw10zy74w/map,-2.69498235431,5.126638221,0.165,0.0,0.0,0.00332365581399,0.999994476641,0,58.3477516174,57.5019035339,85.7320785522,2.7433924675
1646220228743228446,125,1646220228743228446,r200121355/base_front_laser_link,0,1646220228743228446,v/m1vw10zy74w/map,-2.59621521835,5.12363149213,0.165,0.0,0.0,0.00248539207319,0.999996911408,0,58.7284088135,57.5116348267,85.7153778076,2.73458075523
1646220228900995258,126,1646220228900995258,r200121355/base_front_laser_link,0,1646220228900995258,v/m1vw10zy74w/map,-2.5016694051,5.12426071451,0.165,0.0,0.0,0.00258735142954,0.999996652801,0,59.4300003052,57.5267410278,85.7138061523,2.72902178764
1646220228979985426,127,1646220228979985426,r200121355/base_front_laser_link,0,1646220228979985426,v/m1vw10zy74w/map,-2.45433286838,5.12453979449,0.165,0.0,0.0,0.00260979408261,0.999996594482,0,56.2976722717,57.5171394348,85.6784210205,2.72042632103
1646220229373984872,128,1646220229373984872,r200121355/base_front_laser_link,0,1646220229373984872,v/m1vw10zy74w/map,-2.20071776418,5.13646834514,0.165,0.0,0.0,0.00549544790174,0.999984899912,0,54.2230110168,57.4916038513,85.6673736572,2.72525596619
1646220229610161262,129,1646220229610161262,r200121355/base_front_laser_link,0,1646220229610161262,v/m1vw10zy74w/map,-2.09473739264,5.13314650577,0.165,0.0,0.0,0.00349236858755,0.999993901662,0,51.3093338013,57.4440460205,85.7489318848,2.76829361916
1646220230004953572,130,1646220230004953572,r200121355/base_front_laser_link,0,1646220230004953572,v/m1vw10zy74w/map,-1.85291171439,5.13982335404,0.165,0.0,0.0,0.00617821110248,0.999980914672,0,52.788860321,57.4085121155,85.7708892822,2.78745865822
1646220230321036425,131,1646220230321036425,r200121355/base_front_laser_link,0,1646220230321036425,v/m1vw10zy74w/map,-1.66339041277,5.14205862016,0.165,0.0,0.0,0.00610965810451,0.999981335865,0,50.2321014404,57.35414505,85.8927001953,2.84618544579
1646220230635231687,132,1646220230635231687,r200121355/base_front_laser_link,0,1646220230635231687,v/m1vw10zy74w/map,-1.46943016573,5.15317101419,0.165,0.0,0.0,0.00899440307194,0.999959549539,0,50.5958900452,57.3033294678,85.9892578125,2.89530920982
1646220230793077306,133,1646220230793077306,r200121355/base_front_laser_link,0,1646220230793077306,v/m1vw10zy74w/map,-1.38122589533,5.14780097771,0.165,0.0,0.0,0.00748931845249,0.999971954661,0,52.0845870972,57.2643852234,86.0226593018,2.91942381859
1646220230951128187,134,1646220230951128187,r200121355/base_front_laser_link,0,1646220230951128187,v/m1vw10zy74w/map,-1.29573798204,5.14770302809,0.165,0.0,0.0,0.00715849521746,0.999974377645,0,54.0968704224,57.2409210205,86.004699707,2.92125821114
1646220231266190952,135,1646220231266190952,r200121355/base_front_laser_link,0,1646220231266190952,v/m1vw10zy74w/map,-1.08871067889,5.14603443869,0.165,0.0,0.0,0.00685332295397,0.999976515706,0,56.2978019714,57.2339859009,85.9686126709,2.91154193878
1646220231422950952,136,1646220231422950952,r200121355/base_front_laser_link,0,1646220231422950952,v/m1vw10zy74w/map,-0.992544176083,5.14696140725,0.165,0.0,0.0,0.00676170160984,0.999977139434,0,56.2226600647,57.2266044617,85.9329223633,2.90210461617
1646220231580894367,137,1646220231580894367,r200121355/base_front_laser_link,0,1646220231580894367,v/m1vw10zy74w/map,-0.898077334904,5.14821689033,0.165,0.0,0.0,0.0067480669411,0.999977231537,0,55.5503997803,57.2144584656,85.8994979858,2.89501214027
1646220231817339541,138,1646220231817339541,r200121355/base_front_laser_link,0,1646220231817339541,v/m1vw10zy74w/map,-0.754288297769,5.14896791543,0.165,0.0,0.0,0.00735876089389,0.999972923952,0,57.3105049133,57.2151489258,85.8686981201,2.88451528549
1646220232053940436,139,1646220232053940436,r200121355/base_front_laser_link,0,1646220232053940436,v/m1vw10zy74w/map,-0.61246525643,5.15117144916,0.165,0.0,0.0,0.0074313747794,0.999972386953,0,54.1152420044,57.1930084229,85.8511199951,2.88603687286
1646220232211597714,140,1646220232211597714,r200121355/base_front_laser_link,0,1646220232211597714,v/m1vw10zy74w/map,-0.51516377873,5.14929719368,0.165,0.0,0.0,0.00653078889774,0.999978674171,0,56.408821106,57.1874465942,85.8168563843,2.8764693737
1646220232369202207,141,1646220232369202207,r200121355/base_front_laser_link,0,1646220232369202207,v/m1vw10zy74w/map,-0.420733206733,5.15051020846,0.165,0.0,0.0,0.00651683685092,0.999978765193,0,52.886138916,57.1571540833,85.8238220215,2.88888978958
1646220232605998233,142,1646220232605998233,r200121355/base_front_laser_link,0,1646220232605998233,v/m1vw10zy74w/map,-0.27779289785,5.14805488602,0.165,0.0,0.0,0.00658383526593,0.999978326322,0,52.4738845825,57.1244049072,85.840057373,2.90521764755
1646220232842029969,143,1646220232842029969,r200121355/base_front_laser_link,0,1646220232842029969,v/m1vw10zy74w/map,-0.136127387638,5.14990936097,0.165,0.0,0.0,0.00657659728192,0.99997837395,0,48.2654075623,57.0628852844,86.0259475708,2.98768806458
1646220233000070191,144,1646220233000070191,r200121355/base_front_laser_link,0,1646220233000070191,v/m1vw10zy74w/map,-0.0427465260851,5.14455416635,0.165,0.0,0.0,0.00519507696203,0.999986505497,0,50.9907989502,57.0210075378,86.0801010132,3.01969695091
1646220233156930116,145,1646220233156930116,r200121355/base_front_laser_link,0,1646220233156930116,v/m1vw10zy74w/map,0.0509696676674,5.14494372808,0.165,0.0,0.0,0.00507660616803,0.999987113952,0,52.0830612183,56.9871864319,86.0978546143,3.03688836098
1646220233393840695,146,1646220233393840695,r200121355/base_front_laser_link,0,1646220233393840695,v/m1vw10zy74w/map,0.196875226008,5.14459474862,0.165,0.0,0.0,0.00586544563299,0.999982798126,0,54.2548408508,56.9685974121,86.0731430054,3.03484916687
1646220233472833910,147,1646220233472833910,r200121355/base_front_laser_link,0,1646220233472833910,v/m1vw10zy74w/map,0.22491468714,5.1410538732,0.165,0.0,0.0,0.00553829219113,0.999984663542,0,57.1253585815,56.9696578979,86.0432662964,3.02453637123
1646220233552094347,148,1646220233552094347,r200121355/base_front_laser_link,0,1646220233552094347,v/m1vw10zy74w/map,0.272326217677,5.14163127181,0.165,0.0,0.0,0.00557274224211,0.999984472151,0,55.0679206848,56.9568939209,86.0118713379,3.01832461357
1646220233709836700,149,1646220233709836700,r200121355/base_front_laser_link,0,1646220233709836700,v/m1vw10zy74w/map,0.366868767898,5.14266574347,0.165,0.0,0.0,0.00556067946865,0.999984539302,0,53.6021995544,56.9345283508,85.9963989258,3.02062368393
1646220233788840626,150,1646220233788840626,r200121355/base_front_laser_link,0,1646220233788840626,v/m1vw10zy74w/map,0.414007986295,5.14324296347,0.165,0.0,0.0,0.00559544586268,0.99998434537,0,53.640625,56.9127159119,85.9800567627,3.0224480629
1646220233866990864,151,1646220233866990864,r200121355/base_front_laser_link,0,1646220233866990864,v/m1vw10zy74w/map,0.461214570534,5.14717032749,0.165,0.0,0.0,0.00653367140362,0.999978655341,0,55.9237442017,56.9062080383,85.946685791,3.01349115372
1646220234103055090,152,1646220234103055090,r200121355/base_front_laser_link,0,1646220234103055090,v/m1vw10zy74w/map,0.602624425364,5.14744024198,0.165,0.0,0.0,0.00554771688196,0.9999846113,0,61.138759613,56.9338722229,86.0028457642,3.02299070358
1646220234261022388,153,1646220234261022388,r200121355/base_front_laser_link,0,1646220234261022388,v/m1vw10zy74w/map,0.702077905189,5.13801223547,0.165,0.0,0.0,0.00153180806708,0.999998826781,0,57.9011001587,56.9401550293,85.9824676514,3.01410341263
1646220234340023798,154,1646220234340023798,r200121355/base_front_laser_link,0,1646220234340023798,v/m1vw10zy74w/map,0.744500066561,5.13022455118,0.165,0.0,0.0,-0.00102681372382,0.999999472827,0,52.7871208191,56.9133605957,85.9816513062,3.02276396751
1646220234417855188,155,1646220234417855188,r200121355/base_front_laser_link,0,1646220234417855188,v/m1vw10zy74w/map,0.791062630927,5.12761168496,0.165,0.0,0.0,-0.00269313263444,0.999996373512,0,55.3791503906,56.9035263062,85.9500274658,3.01550030708
1646220234655060158,156,1646220234655060158,r200121355/base_front_laser_link,0,1646220234655060158,v/m1vw10zy74w/map,0.932908297488,5.11669578868,0.165,0.0,0.0,-0.00901402567969,0.999959372845,0,55.8272514343,56.8966712952,85.9178085327,3.00704669952
1646220234732873969,157,1646220234732873969,r200121355/base_front_laser_link,0,1646220234732873969,v/m1vw10zy74w/map,0.968906060326,5.11711397904,0.165,0.0,0.0,-0.00723144600435,0.999973852753,0,55.8061676025,56.8897666931,85.8858947754,2.99870991707
1646220234891080282,158,1646220234891080282,r200121355/base_front_laser_link,0,1646220234891080282,v/m1vw10zy74w/map,1.06357729143,5.10587513759,0.165,0.0,0.0,-0.0135754815119,0.999907848905,0,52.847820282,56.8643493652,85.8833770752,3.0063431263
1646220235364079476,159,1646220235364079476,r200121355/base_front_laser_link,0,1646220235364079476,v/m1vw10zy74w/map,1.35270009845,5.04599180262,0.165,0.0,0.0,-0.0408878821123,0.999163740884,0,48.8389701843,56.8141899109,86.0040817261,3.06329846382
1646220235599934490,160,1646220235599934490,r200121355/base_front_laser_link,0,1646220235599934490,v/m1vw10zy74w/map,1.48109229058,4.9969430966,0.165,0.0,0.0,-0.0610360174107,0.998135564229,0,51.7473297119,56.7827186584,86.0218429565,3.07970929146
1646220235915042707,161,1646220235915042707,r200121355/base_front_laser_link,0,1646220235915042707,v/m1vw10zy74w/map,1.66183379376,4.92927103623,0.165,0.0,0.0,-0.0883665885274,0.996088021227,0,53.2665748596,56.761013031,86.0086135864,3.08253383636
1646220236307904217,162,1646220236307904217,r200121355/base_front_laser_link,0,1646220236307904217,v/m1vw10zy74w/map,1.88284099238,4.81047487439,0.165,0.0,0.0,-0.134569330495,0.990904180681,0,51.3297157288,56.7276916504,86.0346298218,3.10231137276
1646220236544841525,163,1646220236544841525,r200121355/base_front_laser_link,0,1646220236544841525,v/m1vw10zy74w/map,2.00609089786,4.7157328438,0.165,0.0,0.0,-0.172418484399,0.985023789681,0,51.2933349609,56.6945571899,86.0598297119,3.12175679207
1646220236780988133,164,1646220236780988133,r200121355/base_front_laser_link,0,1646220236780988133,v/m1vw10zy74w/map,2.1175893902,4.59830906496,0.165,0.0,0.0,-0.218581601094,0.975818673557,0,48.0934066772,56.6424293518,86.1927566528,3.1834423542
1646220237018133438,165,1646220237018133438,r200121355/base_front_laser_link,0,1646220237018133438,v/m1vw10zy74w/map,2.1976978194,4.45916624547,0.165,0.0,0.0,-0.27513717807,0.961404978791,0,49.4318084717,56.598991394,86.2672271729,3.22274661064
1646220237174903469,166,1646220237174903469,r200121355/base_front_laser_link,0,1646220237174903469,v/m1vw10zy74w/map,2.25224138907,4.35691271799,0.165,0.0,0.0,-0.313535919297,0.94957634096,0,50.5390357971,56.562702179,86.303894043,3.24706435204
1646220237490611680,167,1646220237490611680,r200121355/base_front_laser_link,0,1646220237490611680,v/m1vw10zy74w/map,2.3169082029,4.12277685379,0.165,0.0,0.0,-0.397713186091,0.91750979374,0,52.9017028809,56.5409126282,86.2897872925,3.24962663651
1646220237646940929,168,1646220237646940929,r200121355/base_front_laser_link,0,1646220237646940929,v/m1vw10zy74w/map,2.33631702817,4.00327188104,0.165,0.0,0.0,-0.44008723062,0.897955026405,0,50.6264076233,56.5059127808,86.3210983276,3.27172827721
1646220237805820909,169,1646220237805820909,r200121355/base_front_laser_link,0,1646220237805820909,v/m1vw10zy74w/map,2.3306004149,3.88073421402,0.165,0.0,0.0,-0.482493980735,0.875899285623,0,55.4288635254,56.4995803833,86.2888183594,3.26307988167
1646220238040927981,170,1646220238040927981,r200121355/base_front_laser_link,0,1646220238040927981,v/m1vw10zy74w/map,2.31426817305,3.71490894288,0.165,0.0,0.0,-0.539386732721,0.842058164597,0,53.8383750916,56.4840164185,86.2634963989,3.25982713699
1646220238199049305,171,1646220238199049305,r200121355/base_front_laser_link,0,1646220238199049305,v/m1vw10zy74w/map,2.29013262001,3.60126444711,0.165,0.0,0.0,-0.573003093533,0.819553204375,0,53.7618179321,56.4681892395,86.238899231,3.25690221786
1646220239538118427,172,1646220239538118427,r200121355/base_front_laser_link,0,1646220239538118427,v/m1vw10zy74w/map,2.14251228502,3.05530954002,0.165,0.0,0.0,-0.700196940106,0.713949749679,0,50.9878768921,56.4365119934,86.2586364746,3.27404141426
1646220239773969443,173,1646220239773969443,r200121355/base_front_laser_link,0,1646220239773969443,v/m1vw10zy74w/map,2.12694985435,3.03455872235,0.165,0.0,0.0,-0.707781831455,0.706431085855,0,50.0393218994,56.3997459412,86.3009185791,3.3003911972
1646220239932757963,174,1646220239932757963,r200121355/base_front_laser_link,0,1646220239932757963,v/m1vw10zy74w/map,2.11396793378,3.0072920234,0.165,0.0,0.0,-0.714366415623,0.699771837266,0,53.6103935242,56.383808136,86.2767333984,3.29764175415
1646220240168879588,175,1646220240168879588,r200121355/base_front_laser_link,0,1646220240168879588,v/m1vw10zy74w/map,2.0942256286,2.97921833924,0.165,0.0,0.0,-0.723226553631,0.690610854334,0,50.0254249573,56.3476791382,86.3165359497,3.32295227051
1646220240403883769,176,1646220240403883769,r200121355/base_front_laser_link,0,1646220240403883769,v/m1vw10zy74w/map,2.07394685762,2.9475700514,0.165,0.0,0.0,-0.731775952714,0.681545269978,0,47.8100585938,56.299446106,86.4246520996,3.37506818771
1646220240562765540,177,1646220240562765540,r200121355/base_front_laser_link,0,1646220240562765540,v/m1vw10zy74w/map,2.06189800673,2.92275526,0.165,0.0,0.0,-0.736415084362,0.676529987159,0,52.3062324524,56.2770118713,86.4134216309,3.37880349159
1646220240797817294,178,1646220240797817294,r200121355/base_front_laser_link,0,1646220240797817294,v/m1vw10zy74w/map,2.04865271238,2.880933172,0.165,0.0,0.0,-0.740688853594,0.671848213633,0,52.4223556519,56.2554779053,86.4002609253,3.38159489632
1646220240876769936,179,1646220240876769936,r200121355/base_front_laser_link,0,1646220240876769936,v/m1vw10zy74w/map,2.04409314123,2.86348837792,0.165,0.0,0.0,-0.741095245639,0.671399908319,0,50.7489929199,56.2248840332,86.4159469604,3.39702105522
1646220241191877979,180,1646220241191877979,r200121355/base_front_laser_link,0,1646220241191877979,v/m1vw10zy74w/map,2.04451616589,2.79287935378,0.165,0.0,0.0,-0.738185532977,0.674597745996,0,52.6032676697,56.204875946,86.3996276855,3.39825057983
1646220241428355592,181,1646220241428355592,r200121355/base_front_laser_link,0,1646220241428355592,v/m1vw10zy74w/map,2.05299339892,2.73330624567,0.165,0.0,0.0,-0.732043878581,0.681257484239,0,49.2924880981,56.1668968201,86.4489974976,3.4273660183
1646220241585795480,182,1646220241585795480,r200121355/base_front_laser_link,0,1646220241585795480,v/m1vw10zy74w/map,2.06349056619,2.69020448563,0.165,0.0,0.0,-0.725897000595,0.687803419973,0,51.6182174683,56.1420402527,86.445350647,3.43443703651
1646220241743787239,183,1646220241743787239,r200121355/base_front_laser_link,0,1646220241743787239,v/m1vw10zy74w/map,2.07766109245,2.64448375111,0.165,0.0,0.0,-0.718306518865,0.695726774644,0,49.7995529175,56.1075706482,86.4779968262,3.45680904388
1646220241980610668,184,1646220241980610668,r200121355/base_front_laser_link,0,1646220241980610668,v/m1vw10zy74w/map,2.10286217131,2.57524699683,0.165,0.0,0.0,-0.705407983552,0.708801507293,0,51.8303184509,56.0844497681,86.4695968628,3.46171593666
1646220242136860569,185,1646220242136860569,r200121355/base_front_laser_link,0,1646220242136860569,v/m1vw10zy74w/map,2.12369919481,2.52459638359,0.165,0.0,0.0,-0.695671685323,0.718359872376,0,49.940158844,56.0514144897,86.4962692261,3.48161888123
1646220242295703020,186,1646220242295703020,r200121355/base_front_laser_link,0,1646220242295703020,v/m1vw10zy74w/map,2.14741474159,2.472107929,0.165,0.0,0.0,-0.685215924086,0.728339987492,0,50.6244544983,56.0223922729,86.5069503784,3.49485301971
1646220242610780217,187,1646220242610780217,r200121355/base_front_laser_link,0,1646220242610780217,v/m1vw10zy74w/map,2.20075275313,2.36263160192,0.165,0.0,0.0,-0.663511592518,0.74816600203,0,49.7692489624,55.9891319275,86.5347518921,3.51520562172
1646220242767839920,188,1646220242767839920,r200121355/base_front_laser_link,0,1646220242767839920,v/m1vw10zy74w/map,2.2201941319,2.30310219875,0.165,0.0,0.0,-0.654715951333,0.755875004925,0,52.2389945984,55.969291687,86.5186157227,3.51644039154
1646220242924728140,189,1646220242924728140,r200121355/base_front_laser_link,0,1646220242924728140,v/m1vw10zy74w/map,2.24767026675,2.24372748221,0.165,0.0,0.0,-0.645444196377,0.763807429502,0,54.8237190247,55.9632606506,86.4875946045,3.50810980797
1646220243162017853,190,1646220243162017853,r200121355/base_front_laser_link,0,1646220243162017853,v/m1vw10zy74w/map,2.28885633834,2.14993984526,0.165,0.0,0.0,-0.633238665476,0.773956583114,0,51.7753944397,55.9413337708,86.4772262573,3.51196312904
1646220243318719625,191,1646220243318719625,r200121355/base_front_laser_link,0,1646220243318719625,v/m1vw10zy74w/map,2.31492539483,2.08231797707,0.165,0.0,0.0,-0.626452169684,0.779459863687,0,55.5809631348,55.9394569397,86.4480209351,3.50285410881
1646220243476607215,192,1646220243476607215,r200121355/base_front_laser_link,0,1646220243476607215,v/m1vw10zy74w/map,2.34221966433,2.01424992993,0.165,0.0,0.0,-0.620224938699,0.784424008694,0,55.6939163208,55.9381866455,86.4194793701,3.49376487732
1646220243634526805,193,1646220243634526805,r200121355/base_front_laser_link,0,1646220243634526805,v/m1vw10zy74w/map,2.36923882599,1.94386917347,0.165,0.0,0.0,-0.615113588659,0.788438503022,0,59.3977928162,55.9560203552,86.4366455078,3.49354290962
1646220243791705633,194,1646220243791705633,r200121355/base_front_laser_link,0,1646220243791705633,v/m1vw10zy74w/map,2.39563749537,1.87144833572,0.165,0.0,0.0,-0.611040467049,0.791599360554,0,59.0404891968,55.9718360901,86.4464035034,3.49152112007
1646220244106807677,195,1646220244106807677,r200121355/base_front_laser_link,0,1646220244106807677,v/m1vw10zy74w/map,2.44738795691,1.71055785201,0.165,0.0,0.0,-0.603855480273,0.797093820666,0,58.3446273804,55.9839439392,86.443977356,3.48667883873
1646220244263718500,196,1646220244263718500,r200121355/base_front_laser_link,0,1646220244263718500,v/m1vw10zy74w/map,2.47352050027,1.63069590255,0.165,0.0,0.0,-0.60204479553,0.798462312308,0,60.6384658813,56.0075683594,86.4882125854,3.49354791641
1646220244421798767,197,1646220244421798767,r200121355/base_front_laser_link,0,1646220244421798767,v/m1vw10zy74w/map,2.50078450075,1.54790094648,0.165,0.0,0.0,-0.600279372033,0.799790394736,0,59.7049560547,56.0262451172,86.5099334717,3.49456238747
1646220244579655180,198,1646220244579655180,r200121355/base_front_laser_link,0,1646220244579655180,v/m1vw10zy74w/map,2.52514559597,1.46468687729,0.165,0.0,0.0,-0.59785502968,0.80160424368,0,62.0900192261,56.0567131042,86.5931091309,3.51213049889
1646220244736724550,199,1646220244736724550,r200121355/base_front_laser_link,0,1646220244736724550,v/m1vw10zy74w/map,2.55970382069,1.37940534434,0.165,0.0,0.0,-0.593300018306,0.804981421076,0,60.0163803101,56.0765151978,86.6199111938,3.51446580887
1646220245051812236,200,1646220245051812236,r200121355/base_front_laser_link,0,1646220245051812236,v/m1vw10zy74w/map,2.64563747692,1.20565876013,0.165,0.0,0.0,-0.576870850703,0.816835369955,0,61.2548446655,56.1022758484,86.6762084961,3.52464485168
1646220245210596291,201,1646220245210596291,r200121355/base_front_laser_link,0,1646220245210596291,v/m1vw10zy74w/map,2.69567472414,1.1107249242,0.165,0.0,0.0,-0.566297426916,0.824200961094,0,60.7914657593,56.1254882812,86.7194290161,3.53131246567
1646220245368659113,202,1646220245368659113,r200121355/base_front_laser_link,0,1646220245368659113,v/m1vw10zy74w/map,2.75035462377,1.03022832593,0.165,0.0,0.0,-0.554560722684,0.832143259816,0,60.7097587585,56.1480712891,86.7597503662,3.53722476959
1646220245603715201,203,1646220245603715201,r200121355/base_front_laser_link,0,1646220245603715201,v/m1vw10zy74w/map,2.84110112225,0.907814125985,0.165,0.0,0.0,-0.536498931505,0.843900999225,0,60.1332435608,56.1676063538,86.7861557007,3.53951621056
1646220245761827807,204,1646220245761827807,r200121355/base_front_laser_link,0,1646220245761827807,v/m1vw10zy74w/map,2.90504560606,0.819063653031,0.165,0.0,0.0,-0.52555468993,0.850759817982,0,58.7862892151,56.1803817749,86.787071228,3.53556418419
1646220245919607244,205,1646220245919607244,r200121355/base_front_laser_link,0,1646220245919607244,v/m1vw10zy74w/map,2.96952772557,0.727637178865,0.165,0.0,0.0,-0.516522655721,0.856273522963,0,60.5544090271,56.2016143799,86.8218307495,3.54007220268
1646220246154607601,206,1646220246154607601,r200121355/base_front_laser_link,0,1646220246154607601,v/m1vw10zy74w/map,3.06751247811,0.588111786883,0.165,0.0,0.0,-0.50707085452,0.861904373174,0,58.4728546143,56.2125854492,86.8175735474,3.53499603271
1646220246392064111,207,1646220246392064111,r200121355/base_front_laser_link,0,1646220246392064111,v/m1vw10zy74w/map,3.16784922252,0.441885381146,0.165,0.0,0.0,-0.498310670699,0.866998544098,0,61.1346664429,56.2362518311,86.865020752,3.54292297363
1646220246470397534,208,1646220246470397534,r200121355/base_front_laser_link,0,1646220246470397534,v/m1vw10zy74w/map,3.2011449401,0.394209245759,0.165,0.0,0.0,-0.496464172398,0.868057213279,0,61.5588912964,56.26171875,86.9222793579,3.55352067947
1646220246549437012,209,1646220246549437012,r200121355/base_front_laser_link,0,1646220246549437012,v/m1vw10zy74w/map,3.22804182398,0.36125586166,0.165,0.0,0.0,-0.493989313066,0.86946797444,0,61.4718742371,56.286529541,86.9761123657,3.56319451332
1646220246706546315,210,1646220246706546315,r200121355/base_front_laser_link,0,1646220246706546315,v/m1vw10zy74w/map,3.3022713262,0.262941589164,0.165,0.0,0.0,-0.486607664294,0.873620616201,0,62.0682678223,56.3139305115,87.0446777344,3.57691574097
1646220246863591720,211,1646220246863591720,r200121355/base_front_laser_link,0,1646220246863591720,v/m1vw10zy74w/map,3.39099358849,0.155314606908,0.165,0.0,0.0,-0.475995317491,0.879447814101,0,63.432182312,56.3475074768,87.1527938843,3.60176301003
1646220246942572173,212,1646220246942572173,r200121355/base_front_laser_link,0,1646220246942572173,v/m1vw10zy74w/map,3.42677725409,0.119221032983,0.165,0.0,0.0,-0.470802584202,0.882238588313,0,62.7055892944,56.3773574829,87.2360687256,3.61957097054
1646220247337493110,213,1646220247337493110,r200121355/base_front_laser_link,0,1646220247337493110,v/m1vw10zy74w/map,3.6519239574,-0.118447755757,0.165,0.0,0.0,-0.442427372487,0.896804337676,0,58.3374824524,56.386516571,87.2271652222,3.6135494709
1646220247494492305,214,1646220247494492305,r200121355/base_front_laser_link,0,1646220247494492305,v/m1vw10zy74w/map,3.75050177992,-0.212814206646,0.165,0.0,0.0,-0.430748498012,0.902472011455,0,57.6528205872,56.3924064636,87.2108001709,3.60613083839
1646220247809488831,215,1646220247809488831,r200121355/base_front_laser_link,0,1646220247809488831,v/m1vw10zy74w/map,3.95773616131,-0.413205453026,0.165,0.0,0.0,-0.409389345145,0.912359777764,0,54.706943512,56.384601593,87.1832885742,3.59956216812
1646220248203671192,216,1646220248203671192,r200121355/base_front_laser_link,0,1646220248203671192,v/m1vw10zy74w/map,4.23737606473,-0.663472705662,0.165,0.0,0.0,-0.38729959394,0.921953916708,0,54.8895835876,56.3777122498,87.1556777954,3.59265398979
1646220248519517556,217,1646220248519517556,r200121355/base_front_laser_link,0,1646220248519517556,v/m1vw10zy74w/map,4.46531464135,-0.850346886566,0.165,0.0,0.0,-0.373848368359,0.927489836858,0,58.6263427734,56.3880271912,87.1508255005,3.58760023117
1646220248912637733,218,1646220248912637733,r200121355/base_front_laser_link,0,1646220248912637733,v/m1vw10zy74w/map,4.75199446645,-1.08994585075,0.165,0.0,0.0,-0.363518032691,0.931587161735,0,54.8732376099,56.381111145,87.123588562,3.58082580566
1646220249069563574,219,1646220249069563574,r200121355/base_front_laser_link,0,1646220249069563574,v/m1vw10zy74w/map,4.86851155165,-1.1996101783,0.165,0.0,0.0,-0.36287471929,0.931837935534,0,58.5471687317,56.3909568787,87.1178283691,3.57562446594
1646220249227542721,220,1646220249227542721,r200121355/base_front_laser_link,0,1646220249227542721,v/m1vw10zy74w/map,4.99420431379,-1.31446920962,0.165,0.0,0.0,-0.362102061277,0.932138453889,0,53.3761634827,56.3773155212,87.0970611572,3.57324814796
1646220249385408904,221,1646220249385408904,r200121355/base_front_laser_link,0,1646220249385408904,v/m1vw10zy74w/map,5.12125941471,-1.42306050608,0.165,0.0,0.0,-0.359951650566,0.93297095842,0,57.5545005798,56.3826179504,87.0807113647,3.56603002548
1646220249543292804,222,1646220249543292804,r200121355/base_front_laser_link,0,1646220249543292804,v/m1vw10zy74w/map,5.24329319557,-1.53931057689,0.165,0.0,0.0,-0.361926884473,0.932206484796,0,56.0182228088,56.38098526,87.0552062988,3.55807304382
1646220249780299564,223,1646220249780299564,r200121355/base_front_laser_link,0,1646220249780299564,v/m1vw10zy74w/map,5.41670336425,-1.72299163077,0.165,0.0,0.0,-0.370971379804,0.928644299701,0,51.4584579468,56.3590087891,87.0548782349,3.56528949738
1646220249937404770,224,1646220249937404770,r200121355/base_front_laser_link,0,1646220249937404770,v/m1vw10zy74w/map,5.52933621702,-1.8381321758,0.165,0.0,0.0,-0.376876751699,0.926263415033,0,53.4259414673,56.3459739685,87.0340499878,3.56269240379
1646220250094432495,225,1646220250094432495,r200121355/base_front_laser_link,0,1646220250094432495,v/m1vw10zy74w/map,5.63024453236,-1.9685275516,0.165,0.0,0.0,-0.387323491045,0.921943877514,0,53.011844635,56.3312187195,87.0162582397,3.56167817116
1646220250252383912,226,1646220250252383912,r200121355/base_front_laser_link,0,1646220250252383912,v/m1vw10zy74w/map,5.71754736488,-2.09054293708,0.165,0.0,0.0,-0.398772590411,0.917049846593,0,49.393737793,56.3006591797,87.0511474609,3.58349585533
1646220250409796881,227,1646220250409796881,r200121355/base_front_laser_link,0,1646220250409796881,v/m1vw10zy74w/map,5.78320187547,-2.182141447,0.165,0.0,0.0,-0.407867696117,0.913041040953,0,48.8091087341,56.2677993774,87.0973510742,3.60985136032
1646220250645303318,228,1646220250645303318,r200121355/base_front_laser_link,0,1646220250645303318,v/m1vw10zy74w/map,5.8623673518,-2.30272356116,0.165,0.0,0.0,-0.422196159702,0.906504496808,0,51.7407951355,56.2480316162,87.0910186768,3.61432766914
1646220250803393363,229,1646220250803393363,r200121355/base_front_laser_link,0,1646220250803393363,v/m1vw10zy74w/map,5.89813655012,-2.3673563315,0.165,0.0,0.0,-0.429124925186,0.903245148663,0,48.6331481934,56.2149238586,87.1385650635,3.64121341705
1646220250961389108,230,1646220250961389108,r200121355/base_front_laser_link,0,1646220250961389108,v/m1vw10zy74w/map,5.92655616202,-2.41634933005,0.165,0.0,0.0,-0.434300898288,0.900767855635,0,51.3689537048,56.1939468384,87.1357040405,3.64725232124
1646220251197360588,231,1646220251197360588,r200121355/base_front_laser_link,0,1646220251197360588,v/m1vw10zy74w/map,5.96282945718,-2.47697766796,0.165,0.0,0.0,-0.440047232626,0.897974628293,0,50.766494751,56.1705513,87.1408081055,3.65675187111
1646220251355285056,232,1646220251355285056,r200121355/base_front_laser_link,0,1646220251355285056,v/m1vw10zy74w/map,5.98314519757,-2.51822083912,0.165,0.0,0.0,-0.444106090352,0.895974207504,0,51.5148773193,56.1505699158,87.1353302002,3.66158747673
1646220251512520543,233,1646220251512520543,r200121355/base_front_laser_link,0,1646220251512520543,v/m1vw10zy74w/map,6.00502793239,-2.5565366991,0.165,0.0,0.0,-0.447519458517,0.894274194109,0,53.4394111633,56.1389846802,87.1130371094,3.65801763535
1646220251749262720,234,1646220251749262720,r200121355/base_front_laser_link,0,1646220251749262720,v/m1vw10zy74w/map,6.03715135428,-2.61092483638,0.165,0.0,0.0,-0.451519868691,0.892261065035,0,52.0230789185,56.1214675903,87.1016311646,3.66005444527
1646220251906429102,235,1646220251906429102,r200121355/base_front_laser_link,0,1646220251906429102,v/m1vw10zy74w/map,6.05832650768,-2.64004705608,0.165,0.0,0.0,-0.453123267222,0.891447869873,0,52.8906097412,56.1077804565,87.0827026367,3.65830898285
1646220252143343270,236,1646220252143343270,r200121355/base_front_laser_link,0,1646220252143343270,v/m1vw10zy74w/map,6.08549924779,-2.69048140728,0.165,0.0,0.0,-0.45711085715,0.889409728008,0,54.5903816223,56.1013755798,87.0570144653,3.6518805027
1646220252380256104,237,1646220252380256104,r200121355/base_front_laser_link,0,1646220252380256104,v/m1vw10zy74w/map,6.1139762997,-2.73943366331,0.165,0.0,0.0,-0.460213422286,0.887808315994,0,50.9115409851,56.0795707703,87.058555603,3.65966248512
1646220252538094308,238,1646220252538094308,r200121355/base_front_laser_link,0,1646220252538094308,v/m1vw10zy74w/map,6.1319658009,-2.77104790002,0.165,0.0,0.0,-0.462283725942,0.886732065919,0,51.4236412048,56.0600891113,87.0531768799,3.66436314583
1646220252694324980,239,1646220252694324980,r200121355/base_front_laser_link,0,1646220252694324980,v/m1vw10zy74w/map,6.14952315626,-2.80139269396,0.165,0.0,0.0,-0.464033132335,0.885817843631,0,54.8082084656,56.0548744202,87.0276184082,3.65758180618
