%time,field.header.seq,field.header.stamp,field.header.frame_id,field.pose.header.seq,field.pose.header.stamp,field.pose.header.frame_id,field.pose.pose.position.x,field.pose.pose.position.y,field.pose.pose.position.z,field.pose.pose.orientation.x,field.pose.pose.orientation.y,field.pose.pose.orientation.z,field.pose.pose.orientation.w,field.label,field.current_error,field.mean,field.threshold,field.std_dev
1647301405997920687,0,1647301405997920687,r2002313a3/base_front_laser_link,0,1647301405997920687,v/m1vw10zy74w/map,-10.8507989956,2.96489920961,0.165,0.0,0.0,0.999764054794,0.0217217573405,0,52.3258781433,52.3258781433,nan,nan
1647301406154718544,1,1647301406154718544,r2002313a3/base_front_laser_link,0,1647301406154718544,v/m1vw10zy74w/map,-10.8797017418,2.96626138697,0.165,0.0,0.0,0.999762561615,0.021790373846,0,54.160987854,53.243434906,77.1362915039,1.29761815071
1647301406470915170,2,1647301406470915170,r2002313a3/base_front_laser_link,0,1647301406470915170,v/m1vw10zy74w/map,-10.9457403423,2.96900519982,0.165,0.0,0.0,0.999764556226,0.0216986661808,0,54.24792099,53.5782623291,76.8346633911,1.08546686172
1647301406549150538,3,1647301406549150538,r2002313a3/base_front_laser_link,0,1647301406549150538,v/m1vw10zy74w/map,-10.9631208792,2.96994607683,0.165,0.0,0.0,0.999761841382,0.0218233937691,0,53.9020652771,53.6592140198,76.3620529175,0.900946319103
1647301406628894878,4,1647301406628894878,r2002313a3/base_front_laser_link,0,1647301406628894878,v/m1vw10zy74w/map,-10.9814646346,2.97151363397,0.165,0.0,0.0,0.999750493039,0.022337226061,0,53.5411224365,53.635597229,75.9816818237,0.782027721405
1647301406864890981,5,1647301406864890981,r2002313a3/base_front_laser_link,0,1647301406864890981,v/m1vw10zy74w/map,-11.0467791307,2.98426045258,0.165,0.0,0.0,0.999593806619,0.0284995047022,0,53.5509185791,53.6214828491,75.722442627,0.700320541859
1647301406943620768,6,1647301406943620768,r2002313a3/base_front_laser_link,0,1647301406943620768,v/m1vw10zy74w/map,-11.0674291117,2.9911038744,0.165,0.0,0.0,0.999478657993,0.0322864091671,0,56.6437644958,54.053237915,77.9803619385,1.30904209614
1647301407180813424,7,1647301407180813424,r2002313a3/base_front_laser_link,0,1647301407180813424,v/m1vw10zy74w/map,-11.1319447739,3.01824406411,0.165,0.0,0.0,0.998885274201,0.0472039085763,0,54.6070861816,54.1224708557,77.8054351807,1.22765481472
1647301407415873394,8,1647301407415873394,r2002313a3/base_front_laser_link,0,1647301407415873394,v/m1vw10zy74w/map,-11.1997743768,3.05324771588,0.165,0.0,0.0,0.997842368221,0.0656552220486,0,57.5940742493,54.5082015991,79.3990859985,1.63029444218
1647301407652063934,9,1647301407652063934,r2002313a3/base_front_laser_link,0,1647301407652063934,v/m1vw10zy74w/map,-11.2788026203,3.09536932959,0.165,0.0,0.0,0.996309950082,0.0858282201083,0,57.9666061401,54.8540420532,80.5133132935,1.88642442226
1647301407730949025,10,1647301407730949025,r2002313a3/base_front_laser_link,0,1647301407730949025,v/m1vw10zy74w/map,-11.313871829,3.11087951373,0.165,0.0,0.0,0.995674025538,0.0929152025674,0,56.9604148865,55.0455322266,80.74243927,1.89896905422
1647301408045798508,11,1647301408045798508,r2002313a3/base_front_laser_link,0,1647301408045798508,v/m1vw10zy74w/map,-11.4149570539,3.18887409418,0.165,0.0,0.0,0.991596197034,0.129371488462,0,55.986076355,55.1239089966,80.6164321899,1.8308403492
1647301408124913853,12,1647301408124913853,r2002313a3/base_front_laser_link,0,1647301408124913853,v/m1vw10zy74w/map,-11.4398796587,3.21285259787,0.165,0.0,0.0,0.990084342502,0.140474178171,0,55.1471977234,55.1257019043,80.3844299316,1.75290811062
1647301408203961321,13,1647301408203961321,r2002313a3/base_front_laser_link,0,1647301408203961321,v/m1vw10zy74w/map,-11.4646082454,3.23811664819,0.165,0.0,0.0,0.988392565451,0.151921481565,0,53.6165847778,55.017906189,80.2131958008,1.73176229
1647301408362965663,14,1647301408362965663,r2002313a3/base_front_laser_link,0,1647301408362965663,v/m1vw10zy74w/map,-11.5216261783,3.29669407445,0.165,0.0,0.0,0.984427153239,0.175793003175,0,56.5798568726,55.1220359802,80.2724609375,1.71680879593
1647301408520172928,15,1647301408520172928,r2002313a3/base_front_laser_link,0,1647301408520172928,v/m1vw10zy74w/map,-11.5697373596,3.35254710758,0.165,0.0,0.0,0.980063621645,0.198683913613,0,55.77293396,55.1627197266,80.1623916626,1.66655814648
1647301408678060365,16,1647301408678060365,r2002313a3/base_front_laser_link,0,1647301408678060365,v/m1vw10zy74w/map,-11.6174778684,3.41379331227,0.165,0.0,0.0,0.974876124991,0.222747706887,0,56.1473579407,55.2206382751,80.1142807007,1.6312135458
1647301408834439126,17,1647301408834439126,r2002313a3/base_front_laser_link,0,1647301408834439126,v/m1vw10zy74w/map,-11.6517879513,3.48386547044,0.165,0.0,0.0,0.968345650888,0.24961310143,0,52.7018432617,55.08070755,80.1513290405,1.69020676613
1647301409071134272,18,1647301409071134272,r2002313a3/base_front_laser_link,0,1647301409071134272,v/m1vw10zy74w/map,-11.7046266049,3.61000562677,0.165,0.0,0.0,0.953466922636,0.30149764085,0,55.4517097473,55.1002311707,80.0345993042,1.64478945732
1647301409228149615,19,1647301409228149615,r2002313a3/base_front_laser_link,0,1647301409228149615,v/m1vw10zy74w/map,-11.7279179335,3.71044700275,0.165,0.0,0.0,0.939424840029,0.342754970695,0,55.3923683167,55.1148376465,79.9216003418,1.60225260258
1647301409464163083,20,1647301409464163083,r2002313a3/base_front_laser_link,0,1647301409464163083,v/m1vw10zy74w/map,-11.7344663649,3.8734529324,0.165,0.0,0.0,0.911421061476,0.411474967279,0,53.0634994507,55.0171546936,79.8908691406,1.62457180023
1647301409701220229,21,1647301409701220229,r2002313a3/base_front_laser_link,0,1647301409701220229,v/m1vw10zy74w/map,-11.7209336964,4.04439522527,0.165,0.0,0.0,0.878320387346,0.478072481086,0,55.6415176392,55.0455360413,79.8185272217,1.59099805355
1647301409779193319,22,1647301409779193319,r2002313a3/base_front_laser_link,0,1647301409779193319,v/m1vw10zy74w/map,-11.7093290513,4.10085447231,0.165,0.0,0.0,0.866947104918,0.49840015778,0,57.3706703186,55.1466293335,80.0314483643,1.62827253342
1647301410016236281,23,1647301410016236281,r2002313a3/base_front_laser_link,0,1647301410016236281,v/m1vw10zy74w/map,-11.6841426477,4.26463071648,0.165,0.0,0.0,0.832399908995,0.554175415826,0,57.2835273743,55.2356681824,80.1890869141,1.65113985538
1647301410174205537,24,1647301410174205537,r2002313a3/base_front_laser_link,0,1647301410174205537,v/m1vw10zy74w/map,-11.6867777318,4.32700322709,0.165,0.0,0.0,0.809785667871,0.586725806584,0,58.4384002686,55.3637771606,80.5797805786,1.73866856098
1647301410330986980,25,1647301410330986980,r2002313a3/base_front_laser_link,0,1647301410330986980,v/m1vw10zy74w/map,-11.6389268124,4.47518675856,0.165,0.0,0.0,0.786005137177,0.618219964358,0,56.0659294128,55.3907814026,80.5180740356,1.70909678936
1647301410489393440,26,1647301410489393440,r2002313a3/base_front_laser_link,0,1647301410489393440,v/m1vw10zy74w/map,-11.6523785357,4.55296001745,0.165,0.0,0.0,0.76064835369,0.649164141053,0,56.5099487305,55.4322319031,80.5013046265,1.68969094753
1647301410647406749,27,1647301410647406749,r2002313a3/base_front_laser_link,0,1647301410647406749,v/m1vw10zy74w/map,-11.6055273859,4.6512271735,0.165,0.0,0.0,0.734697096911,0.678395294641,0,56.8572654724,55.483127594,80.5226287842,1.67983293533
1647301410804018172,28,1647301410804018172,r2002313a3/base_front_laser_link,0,1647301410804018172,v/m1vw10zy74w/map,-11.5618105113,4.7517939523,0.165,0.0,0.0,0.711310980701,0.702877435073,0,56.6437797546,55.523147583,80.5139007568,1.66358375549
1647301410962691777,29,1647301410962691777,r2002313a3/base_front_laser_link,0,1647301410962691777,v/m1vw10zy74w/map,-11.4550598659,4.8931689461,0.165,0.0,0.0,0.687769669298,0.725928978615,0,56.4992294312,55.5556869507,80.4886932373,1.6443349123
1647301411120246536,30,1647301411120246536,r2002313a3/base_front_laser_link,0,1647301411120246536,v/m1vw10zy74w/map,-11.4061373937,4.97443843197,0.165,0.0,0.0,0.667974402706,0.744184249584,0,59.037361145,55.6679954529,80.8682556152,1.73341965675
1647301411199257633,31,1647301411199257633,r2002313a3/base_front_laser_link,0,1647301411199257633,v/m1vw10zy74w/map,-11.3823891056,5.01738841178,0.165,0.0,0.0,0.658835730176,0.752286834023,0,58.0941238403,55.743812561,81.0188293457,1.75833916664
1647301411356341671,32,1647301411356341671,r2002313a3/base_front_laser_link,0,1647301411356341671,v/m1vw10zy74w/map,-11.325750083,5.10367194232,0.165,0.0,0.0,0.636997202856,0.770866112599,0,56.8212776184,55.7764625549,80.9988098145,1.7407810688
1647301411514280063,33,1647301411514280063,r2002313a3/base_front_laser_link,0,1647301411514280063,v/m1vw10zy74w/map,-11.3239973458,5.1697099029,0.165,0.0,0.0,0.610550197659,0.791977560375,0,58.2351760864,55.848777771,81.1446838379,1.76530241966
1647301411593326196,34,1647301411593326196,r2002313a3/base_front_laser_link,0,1647301411593326196,v/m1vw10zy74w/map,-11.2847281176,5.20784956074,0.165,0.0,0.0,0.595693651102,0.80321172429,0,60.577911377,55.9838981628,81.7260818481,1.91406059265
1647301411750340746,35,1647301411750340746,r2002313a3/base_front_laser_link,0,1647301411750340746,v/m1vw10zy74w/map,-11.1327680452,5.30586288633,0.165,0.0,0.0,0.561322704732,0.827597016157,0,61.4579124451,56.1359519958,82.4225921631,2.0955452919
1647301411908307685,36,1647301411908307685,r2002313a3/base_front_laser_link,0,1647301411908307685,v/m1vw10zy74w/map,-11.0344962328,5.38199384141,0.165,0.0,0.0,0.525127198379,0.851023751444,0,58.68983078,56.2049751282,82.5303573608,2.10846090317
1647301411987519733,37,1647301411987519733,r2002313a3/base_front_laser_link,0,1647301411987519733,v/m1vw10zy74w/map,-10.9808956171,5.40737892696,0.165,0.0,0.0,0.504472643544,0.863427676135,0,59.835144043,56.3005065918,82.7851257324,2.1615383625
1647301412144353034,38,1647301412144353034,r2002313a3/base_front_laser_link,0,1647301412144353034,v/m1vw10zy74w/map,-10.9314823997,5.41151711489,0.165,0.0,0.0,0.459818872828,0.888012727494,0,63.1147384644,56.4752311707,83.6626586914,2.395809412
1647301412223391220,39,1647301412223391220,r2002313a3/base_front_laser_link,0,1647301412223391220,v/m1vw10zy74w/map,-10.8719005527,5.42610573091,0.165,0.0,0.0,0.436027546272,0.899933319136,0,58.3647117615,56.5224685669,83.673538208,2.38369011879
1647301412461231336,40,1647301412461231336,r2002313a3/base_front_laser_link,0,1647301412461231336,v/m1vw10zy74w/map,-10.6300269071,5.4896554005,0.165,0.0,0.0,0.359043524587,0.933320817003,0,61.1453742981,56.6352233887,84.0210647583,2.46194624901
1647301412540135766,41,1647301412540135766,r2002313a3/base_front_laser_link,0,1647301412540135766,v/m1vw10zy74w/map,-10.6142076351,5.43954831341,0.165,0.0,0.0,0.331544545431,0.943439565841,0,59.5491828918,56.7046012878,84.1234741211,2.47295713425
1647301412696554159,42,1647301412696554159,r2002313a3/base_front_laser_link,0,1647301412696554159,v/m1vw10zy74w/map,-10.484729284,5.43127646641,0.165,0.0,0.0,0.277055866547,0.960853811364,0,58.380191803,56.7435684204,84.1135635376,2.45666503906
1647301412775916391,43,1647301412775916391,r2002313a3/base_front_laser_link,0,1647301412775916391,v/m1vw10zy74w/map,-10.3868132055,5.46774793434,0.165,0.0,0.0,0.252063516027,0.967710692246,0,56.4534339905,56.7369766235,84.0219497681,2.42832493782
1647301412932511087,44,1647301412932511087,r2002313a3/base_front_laser_link,0,1647301412932511087,v/m1vw10zy74w/map,-10.3067707055,5.40664905633,0.165,0.0,0.0,0.207396736776,0.978256915935,0,57.5224151611,56.7544288635,83.9647064209,2.40342545509
1647301413090354422,45,1647301413090354422,r2002313a3/base_front_laser_link,0,1647301413090354422,v/m1vw10zy74w/map,-10.1978847412,5.40067878928,0.165,0.0,0.0,0.170500598151,0.985357572676,0,56.5553703308,56.7501029968,83.880355835,2.37675189972
1647301413248388148,46,1647301413248388148,r2002313a3/base_front_laser_link,0,1647301413248388148,v/m1vw10zy74w/map,-10.0945354501,5.38086538682,0.165,0.0,0.0,0.135037105681,0.990840542211,0,56.0362701416,56.7349128723,83.7941589355,2.35308051109
1647301413406389007,47,1647301413406389007,r2002313a3/base_front_laser_link,0,1647301413406389007,v/m1vw10zy74w/map,-9.98735687534,5.36277813707,0.165,0.0,0.0,0.103214660548,0.994659104341,0,54.7332038879,56.6932106018,83.7305374146,2.34577393532
1647301413564385156,48,1647301413564385156,r2002313a3/base_front_laser_link,0,1647301413564385156,v/m1vw10zy74w/map,-9.87763233191,5.33913060238,0.165,0.0,0.0,0.0757728317662,0.997125106477,0,57.802318573,56.7158470154,83.6956787109,2.32661151886
1647301413958650408,49,1647301413958650408,r2002313a3/base_front_laser_link,0,1647301413958650408,v/m1vw10zy74w/map,-9.63140216122,5.29701746308,0.165,0.0,0.0,0.0253441555608,0.9996787853,0,57.3743095398,56.7290153503,83.642906189,2.30463051796
1647301414116649501,50,1647301414116649501,r2002313a3/base_front_laser_link,0,1647301414116649501,v/m1vw10zy74w/map,-9.53988872479,5.2796154412,0.165,0.0,0.0,0.010245075907,0.999947517833,0,55.7562065125,56.709941864,83.5665359497,2.28553080559
1647301414274599180,51,1647301414274599180,r2002313a3/base_front_laser_link,0,1647301414274599180,v/m1vw10zy74w/map,-9.45530124246,5.25414317772,0.165,0.0,0.0,-0.00462910454133,0.999989285638,0,55.1630592346,56.6801948547,83.4996643066,2.27315711975
1647301414353457907,52,1647301414353457907,r2002313a3/base_front_laser_link,0,1647301414353457907,v/m1vw10zy74w/map,-9.4081561121,5.24503592528,0.165,0.0,0.0,0.0103435037681,-0.999946504534,0,57.1971168518,56.6899452209,83.4468841553,2.25231313705
1647301414511405946,53,1647301414511405946,r2002313a3/base_front_laser_link,0,1647301414511405946,v/m1vw10zy74w/map,-9.30411103057,5.23959139139,0.165,0.0,0.0,0.0181086715845,-0.999836024563,0,57.8843269348,56.7120666504,83.4226913452,2.23687648773
1647301414668652645,54,1647301414668652645,r2002313a3/base_front_laser_link,0,1647301414668652645,v/m1vw10zy74w/map,-9.21455588375,5.21217102969,0.165,0.0,0.0,0.028515429545,-0.999593352458,0,57.2953872681,56.7226715088,83.3750610352,2.21746325493
1647301414826338648,55,1647301414826338648,r2002313a3/base_front_laser_link,0,1647301414826338648,v/m1vw10zy74w/map,-9.12119995781,5.19850263612,0.165,0.0,0.0,0.0338296344425,-0.999427614104,0,55.2627487183,56.6966018677,83.3141708374,2.20585608482
1647301415062725244,56,1647301415062725244,r2002313a3/base_front_laser_link,0,1647301415062725244,v/m1vw10zy74w/map,-8.96727582073,5.18220705804,0.165,0.0,0.0,0.0404321003277,-0.999182288305,0,52.6048431396,56.6248168945,83.3815689087,2.2522521019
1647301415141567479,57,1647301415141567479,r2002313a3/base_front_laser_link,0,1647301415141567479,v/m1vw10zy74w/map,-8.92022790755,5.17698216217,0.165,0.0,0.0,0.0413534119734,-0.999144581789,0,55.383682251,56.6034164429,83.3184661865,2.23834872246
1647301415298542209,58,1647301415298542209,r2002313a3/base_front_laser_link,0,1647301415298542209,v/m1vw10zy74w/map,-8.82757881105,5.1607315007,0.165,0.0,0.0,0.0427304213325,-0.999086638432,0,54.4547538757,56.5669975281,83.2765960693,2.23653125763
1647301415456690156,59,1647301415456690156,r2002313a3/base_front_laser_link,0,1647301415456690156,v/m1vw10zy74w/map,-8.73673907574,5.1488239236,0.165,0.0,0.0,0.044892589797,-0.998991819477,0,49.7664070129,56.4536552429,83.6085739136,2.38497233391
1647301415614555356,60,1647301415614555356,r2002313a3/base_front_laser_link,0,1647301415614555356,v/m1vw10zy74w/map,-8.64204699558,5.14113497874,0.165,0.0,0.0,0.0443446536522,-0.999016292006,0,52.6971473694,56.392074585,83.6323547363,2.41342592239
1647301415772771509,61,1647301415772771509,r2002313a3/base_front_laser_link,0,1647301415772771509,v/m1vw10zy74w/map,-8.54400058795,5.13046239177,0.165,0.0,0.0,0.0451324344019,-0.998981012515,0,52.8572616577,56.3350601196,83.640953064,2.43529653549
1647301415929717184,62,1647301415929717184,r2002313a3/base_front_laser_link,0,1647301415929717184,v/m1vw10zy74w/map,-8.45064535526,5.12488312542,0.165,0.0,0.0,0.04331144596,-0.999061619045,0,54.2382698059,56.301776886,83.5917129517,2.42997932434
1647301416087647441,63,1647301416087647441,r2002313a3/base_front_laser_link,0,1647301416087647441,v/m1vw10zy74w/map,-8.34452708635,5.12258148896,0.165,0.0,0.0,0.0405731711864,-0.999176569871,0,53.4489097595,56.2572021484,83.5677566528,2.43685102463
1647301416166666514,64,1647301416166666514,r2002313a3/base_front_laser_link,0,1647301416166666514,v/m1vw10zy74w/map,-8.3130420006,5.12500158489,0.165,0.0,0.0,0.0387192469526,-0.999250128804,0,55.3266296387,56.2428855896,83.5043640137,2.4204916954
1647301416324622989,65,1647301416324622989,r2002313a3/base_front_laser_link,0,1647301416324622989,v/m1vw10zy74w/map,-8.21861236232,5.11941696493,0.165,0.0,0.0,0.0376097777149,-0.999292502033,0,54.456741333,56.2158241272,83.4513473511,2.41184234619
1647301416402681084,66,1647301416402681084,r2002313a3/base_front_laser_link,0,1647301416402681084,v/m1vw10zy74w/map,-8.17187820033,5.11670891314,0.165,0.0,0.0,0.0370738328953,-0.999312529149,0,57.5637702942,56.2359428406,83.4334182739,2.39915943146
1647301416560815575,67,1647301416560815575,r2002313a3/base_front_laser_link,0,1647301416560815575,v/m1vw10zy74w/map,-8.06284114744,5.11283237476,0.165,0.0,0.0,0.0350148094579,-0.999386793548,0,57.5668029785,56.2555122375,83.4154663086,2.38665103912
1647301416718689506,68,1647301416718689506,r2002313a3/base_front_laser_link,0,1647301416718689506,v/m1vw10zy74w/map,-7.96828671577,5.10923171927,0.165,0.0,0.0,0.0330722160054,-0.99945296464,0,57.4842910767,56.2733192444,83.3942718506,2.37365102768
1647301416876782225,69,1647301416876782225,r2002313a3/base_front_laser_link,0,1647301416876782225,v/m1vw10zy74w/map,-7.87306792411,5.10605823161,0.165,0.0,0.0,0.0308408441342,-0.999524308025,0,58.3489189148,56.3029708862,83.4112091064,2.36941099167
1647301416955893938,70,1647301416955893938,r2002313a3/base_front_laser_link,0,1647301416955893938,v/m1vw10zy74w/map,-7.83372823185,5.10609907687,0.165,0.0,0.0,0.029047806899,-0.999578023425,0,58.8613433838,56.3390045166,83.4548187256,2.37193870544
1647301417113729468,71,1647301417113729468,r2002313a3/base_front_laser_link,0,1647301417113729468,v/m1vw10zy74w/map,-7.73908673374,5.10457206333,0.165,0.0,0.0,0.0265080077999,-0.999648601021,0,54.0177230835,56.30676651,83.4197998047,2.37101054192
1647301417271011759,72,1647301417271011759,r2002313a3/base_front_laser_link,0,1647301417271011759,v/m1vw10zy74w/map,-7.6316527254,5.10677224029,0.165,0.0,0.0,0.0217674664176,-0.999763060633,0,55.6477966309,56.2977371216,83.3649902344,2.35575056076
1647301417429729747,73,1647301417429729747,r2002313a3/base_front_laser_link,0,1647301417429729747,v/m1vw10zy74w/map,-7.54369708108,5.10269278179,0.165,0.0,0.0,0.0207697214095,-0.99978428607,0,52.8903808594,56.2516937256,83.3702545166,2.37285327911
1647301417507679628,74,1647301417507679628,r2002313a3/base_front_laser_link,0,1647301417507679628,v/m1vw10zy74w/map,-7.49698391344,5.10212732797,0.165,0.0,0.0,0.0198619437317,-0.999802732138,0,52.0560264587,56.1957511902,83.4138946533,2.40604662895
1647301417586717664,75,1647301417586717664,r2002313a3/base_front_laser_link,0,1647301417586717664,v/m1vw10zy74w/map,-7.44958221601,5.10170845843,0.165,0.0,0.0,0.0188973783794,-0.999821428601,0,53.319480896,56.1579055786,83.3957595825,2.41261839867
1647301417744084829,76,1647301417744084829,r2002313a3/base_front_laser_link,0,1647301417744084829,v/m1vw10zy74w/map,-7.36591156733,5.10625284992,0.165,0.0,0.0,0.0172416201974,-0.999851352218,0,54.1571502686,56.1319236755,83.3544616699,2.40751457214
1647301417901932913,77,1647301417901932913,r2002313a3/base_front_laser_link,0,1647301417901932913,v/m1vw10zy74w/map,-7.27115849434,5.10599823128,0.165,0.0,0.0,0.0153132221275,-0.99988274574,0,57.3037910461,56.1469459534,83.3334655762,2.3955078125
1647301417979995824,78,1647301417979995824,r2002313a3/base_front_laser_link,0,1647301417979995824,v/m1vw10zy74w/map,-7.22435866939,5.10610891056,0.165,0.0,0.0,0.0142952357149,-0.999897817897,0,56.9133605957,56.1566467285,83.3016357422,2.3816640377
1647301418137759669,79,1647301418137759669,r2002313a3/base_front_laser_link,0,1647301418137759669,v/m1vw10zy74w/map,-7.12695441791,5.09988183581,0.165,0.0,0.0,0.0159125293888,-0.999873387689,0,56.1844444275,56.156993866,83.2566299438,2.36654424667
1647301418295748534,80,1647301418295748534,r2002313a3/base_front_laser_link,0,1647301418295748534,v/m1vw10zy74w/map,-7.03201576424,5.10022040776,0.165,0.0,0.0,0.0137640317549,-0.999905271228,0,53.8761444092,56.1288375854,83.2248001099,2.36532235146
1647301418453933311,81,1647301418453933311,r2002313a3/base_front_laser_link,0,1647301418453933311,v/m1vw10zy74w/map,-6.93134289415,5.08884676732,0.165,0.0,0.0,-0.0123344571929,0.999923927689,0,56.3257446289,56.13123703,83.1835708618,2.35077691078
1647301418610897560,82,1647301418610897560,r2002313a3/base_front_laser_link,0,1647301418610897560,v/m1vw10zy74w/map,-6.8422067661,5.08078530588,0.165,0.0,0.0,-0.00944105557539,0.999955432242,0,57.5694274902,56.148563385,83.1737442017,2.34172606468
1647301418769141651,83,1647301418769141651,r2002313a3/base_front_laser_link,0,1647301418769141651,v/m1vw10zy74w/map,-6.74714510525,5.08403178094,0.165,0.0,0.0,-0.00621577643435,0.999980681875,0,55.6312294006,56.1424064636,83.1271896362,2.32826066017
1647301419006862402,84,1647301419006862402,r2002313a3/base_front_laser_link,0,1647301419006862402,v/m1vw10zy74w/map,-6.60368732993,5.0826945032,0.165,0.0,0.0,-0.00326168677373,0.999994680686,0,57.272228241,56.1556968689,83.108505249,2.31760287285
1647301419085790906,85,1647301419085790906,r2002313a3/base_front_laser_link,0,1647301419085790906,v/m1vw10zy74w/map,-6.5563178428,5.08388195706,0.165,0.0,0.0,-0.00227618429454,0.999997409489,0,56.9316177368,56.1647186279,83.0810623169,2.30544829369
1647301419400988129,86,1647301419400988129,r2002313a3/base_front_laser_link,0,1647301419400988129,v/m1vw10zy74w/map,-6.36158058538,5.08656449768,0.165,0.0,0.0,0.000742239620061,0.99999972454,0,61.3374633789,56.2241783142,83.2986068726,2.35814404488
1647301419558954463,87,1647301419558954463,r2002313a3/base_front_laser_link,0,1647301419558954463,v/m1vw10zy74w/map,-6.26674646229,5.08671327249,0.165,0.0,0.0,0.000746372044354,0.999999721464,0,61.4158363342,56.2831726074,83.5101318359,2.4089858532
1647301419715915347,88,1647301419715915347,r2002313a3/base_front_laser_link,0,1647301419715915347,v/m1vw10zy74w/map,-6.17088414459,5.11524305124,0.165,0.0,0.0,0.0050784064115,0.999987104811,0,59.8582382202,56.3233413696,83.5984954834,2.42505168915
1647301419952133783,89,1647301419952133783,r2002313a3/base_front_laser_link,0,1647301419952133783,v/m1vw10zy74w/map,-6.02935197572,5.11735779899,0.165,0.0,0.0,0.00551959591289,0.999984766914,0,58.0479164124,56.3425064087,83.5971984863,2.41823172569
1647301420110017049,90,1647301420110017049,r2002313a3/base_front_laser_link,0,1647301420110017049,v/m1vw10zy74w/map,-5.94850327907,5.09149062653,0.165,0.0,0.0,0.00422238588358,0.999991085689,0,59.1246528625,56.3730773926,83.6402206421,2.42238044739
1647301420188882262,91,1647301420188882262,r2002313a3/base_front_laser_link,0,1647301420188882262,v/m1vw10zy74w/map,-5.90121040587,5.09266523715,0.165,0.0,0.0,0.00473295604714,0.999988799501,0,59.8960800171,56.4113731384,83.7219924927,2.43687343597
1647301420504173368,92,1647301420504173368,r2002313a3/base_front_laser_link,0,1647301420504173368,v/m1vw10zy74w/map,-5.71122048838,5.10175546797,0.165,0.0,0.0,0.00599048325644,0.999982056894,0,60.8123016357,56.458694458,83.8572463989,2.46618437767
1647301420740899860,93,1647301420740899860,r2002313a3/base_front_laser_link,0,1647301420740899860,v/m1vw10zy74w/map,-5.56971861773,5.10373901165,0.165,0.0,0.0,0.00617449656371,0.999980937614,0,61.8050537109,56.5155677795,84.0578994751,2.51410961151
1647301420898078390,94,1647301420898078390,r2002313a3/base_front_laser_link,0,1647301420898078390,v/m1vw10zy74w/map,-5.46887541528,5.10294013072,0.165,0.0,0.0,0.00460602065024,0.999989392231,0,58.8898468018,56.540561676,84.0781707764,2.5125374794
1647301421056131925,95,1647301421056131925,r2002313a3/base_front_laser_link,0,1647301421056131925,v/m1vw10zy74w/map,-5.37471654604,5.10490814069,0.165,0.0,0.0,0.00531275817827,0.999985887201,0,61.1326713562,56.5883979797,84.2169265747,2.54284358025
1647301421294242204,96,1647301421294242204,r2002313a3/base_front_laser_link,0,1647301421294242204,v/m1vw10zy74w/map,-5.22392094752,5.10865217998,0.165,0.0,0.0,0.00703335888845,0.999975265625,0,59.1203346252,56.6144981384,84.2422866821,2.54259490967
1647301421452165484,97,1647301421452165484,r2002313a3/base_front_laser_link,0,1647301421452165484,v/m1vw10zy74w/map,-5.12922313813,5.11036987002,0.165,0.0,0.0,0.00727124053558,0.999973564181,0,57.2703590393,56.6211929321,84.2121582031,2.53032231331
1647301421529167268,98,1647301421529167268,r2002313a3/base_front_laser_link,0,1647301421529167268,v/m1vw10zy74w/map,-5.08317113663,5.11105791642,0.165,0.0,0.0,0.00728330362103,0.999973476392,0,57.2882804871,56.6279296875,84.1827468872,2.51827216148
1647301421687963040,99,1647301421687963040,r2002313a3/base_front_laser_link,0,1647301421687963040,v/m1vw10zy74w/map,-4.98869537794,5.12322042053,0.165,0.0,0.0,0.00949236743438,0.999954946465,0,54.7715873718,56.6093673706,84.1465301514,2.51238870621
1647301421845220957,100,1647301421845220957,r2002313a3/base_front_laser_link,0,1647301421845220957,v/m1vw10zy74w/map,-4.89487781877,5.12447206958,0.165,0.0,0.0,0.00916061479618,0.999958040688,0,56.3251075745,56.606552124,84.1064147949,2.49995517731
1647301421924262885,101,1647301421924262885,r2002313a3/base_front_laser_link,0,1647301421924262885,v/m1vw10zy74w/map,-4.84750715493,5.12533441079,0.165,0.0,0.0,0.0091569178305,0.999958074549,0,57.0314178467,56.6107177734,84.074432373,2.48790407181
1647301422003145364,102,1647301422003145364,r2002313a3/base_front_laser_link,0,1647301422003145364,v/m1vw10zy74w/map,-4.81685947137,5.12350518703,0.165,0.0,0.0,0.00901664771361,0.999959349206,0,57.4287986755,56.6186599731,84.0496292114,2.47699046135
1647301422161863644,103,1647301422161863644,r2002313a3/base_front_laser_link,0,1647301422161863644,v/m1vw10zy74w/map,-4.72383377304,5.12427059283,0.165,0.0,0.0,0.00880221144797,0.999961259786,0,54.884223938,56.6019821167,84.0143737793,2.47079730034
1647301422319124024,104,1647301422319124024,r2002313a3/base_front_laser_link,0,1647301422319124024,v/m1vw10zy74w/map,-4.62994278049,5.1255947246,0.165,0.0,0.0,0.00859593719854,0.999963054249,0,57.6205291748,56.6116828918,83.9943771362,2.46089792252
1647301422476125595,105,1647301422476125595,r2002313a3/base_front_laser_link,0,1647301422476125595,v/m1vw10zy74w/map,-4.53891500244,5.1338509483,0.165,0.0,0.0,0.0108975907987,0.999940619494,0,53.9622344971,56.5866889954,83.9745864868,2.46263384819
1647301422556207575,106,1647301422556207575,r2002313a3/base_front_laser_link,0,1647301422556207575,v/m1vw10zy74w/map,-4.49105748,5.13416434922,0.165,0.0,0.0,0.0104167480929,0.999945744208,0,54.7625694275,56.5696411133,83.941619873,2.45732569695
1647301422871164666,107,1647301422871164666,r2002313a3/base_front_laser_link,0,1647301422871164666,v/m1vw10zy74w/map,-4.3024794311,5.13224332643,0.165,0.0,0.0,0.00904907553937,0.999959056278,0,52.9220275879,56.5358657837,83.9484863281,2.47087240219
1647301422949132977,108,1647301422949132977,r2002313a3/base_front_laser_link,0,1647301422949132977,v/m1vw10zy74w/map,-4.25574172874,5.13293694028,0.165,0.0,0.0,0.00894976328394,0.999959950067,0,57.1003341675,56.5410461426,83.921043396,2.4600007534
1647301423028120879,109,1647301423028120879,r2002313a3/base_front_laser_link,0,1647301423028120879,v/m1vw10zy74w/map,-4.20838510717,5.13372388724,0.165,0.0,0.0,0.00890971886076,0.999960307667,0,55.0663299561,56.5276374817,83.8858108521,2.45272421837
1647301423108212543,110,1647301423108212543,r2002313a3/base_front_laser_link,0,1647301423108212543,v/m1vw10zy74w/map,-4.16023339948,5.13453734745,0.165,0.0,0.0,0.00888031468547,0.999960569228,0,55.6091537476,56.5193634033,83.8486785889,2.44310593605
1647301423345164047,111,1647301423345164047,r2002313a3/base_front_laser_link,0,1647301423345164047,v/m1vw10zy74w/map,-4.01693283653,5.13776907467,0.165,0.0,0.0,0.00917749828989,0.999957885876,0,53.963104248,56.4965400696,83.8286590576,2.44404101372
1647301423424208668,112,1647301423424208668,r2002313a3/base_front_laser_link,0,1647301423424208668,v/m1vw10zy74w/map,-3.96971615055,5.138583249,0.165,0.0,0.0,0.00914287040412,0.999958203087,0,55.5688171387,56.4883308411,83.7923431396,2.4346704483
1647301423580249534,113,1647301423580249534,r2002313a3/base_front_laser_link,0,1647301423580249534,v/m1vw10zy74w/map,-3.88083909217,5.13665291545,0.165,0.0,0.0,0.00767945472047,0.999970512553,0,57.4716873169,56.4969558716,83.7738265991,2.42562270164
1647301423738604765,114,1647301423738604765,r2002313a3/base_front_laser_link,0,1647301423738604765,v/m1vw10zy74w/map,-3.78846579253,5.13695553072,0.165,0.0,0.0,0.00742571551391,0.999972428994,0,54.2082328796,56.4770545959,83.7501754761,2.42437314987
1647301423975067322,115,1647301423975067322,r2002313a3/base_front_laser_link,0,1647301423975067322,v/m1vw10zy74w/map,-3.65311937898,5.13341539717,0.165,0.0,0.0,0.00610590426325,0.999981358793,0,57.2898292542,56.4840583801,83.7290267944,2.41498875618
1647301424211384072,116,1647301424211384072,r2002313a3/base_front_laser_link,0,1647301424211384072,v/m1vw10zy74w/map,-3.51487983318,5.13447926668,0.165,0.0,0.0,0.00608811832168,0.999981467236,0,56.0260505676,56.4801445007,83.6949310303,2.40492939949
1647301424449336257,117,1647301424449336257,r2002313a3/base_front_laser_link,0,1647301424449336257,v/m1vw10zy74w/map,-3.37239164902,5.13438972462,0.165,0.0,0.0,0.00536781033464,0.999985593202,0,59.0693359375,56.5020866394,83.7214813232,2.40646314621
1647301424607443230,118,1647301424607443230,r2002313a3/base_front_laser_link,0,1647301424607443230,v/m1vw10zy74w/map,-3.27763002605,5.13548057772,0.165,0.0,0.0,0.00541522111025,0.999985337583,0,58.7338294983,56.5208435059,83.7357254028,2.40496206284
1647301424843193480,119,1647301424843193480,r2002313a3/base_front_laser_link,0,1647301424843193480,v/m1vw10zy74w/map,-3.12746212883,5.13050102249,0.165,0.0,0.0,0.00230996905945,0.999997332018,0,55.1660499573,56.509552002,83.7036361694,2.39802718163
1647301425000341302,120,1647301425000341302,r2002313a3/base_front_laser_link,0,1647301425000341302,v/m1vw10zy74w/map,-3.03337086186,5.13085113906,0.165,0.0,0.0,0.00225500469315,0.999997457474,0,53.6297874451,56.4857521057,83.6927185059,2.40232205391
1647301425079345732,121,1647301425079345732,r2002313a3/base_front_laser_link,0,1647301425079345732,v/m1vw10zy74w/map,-2.98586980766,5.13098513507,0.165,0.0,0.0,0.00220223890101,0.999997575069,0,55.4689292908,56.4774169922,83.6598510742,2.3941450119
1647301425158640542,122,1647301425158640542,r2002313a3/base_front_laser_link,0,1647301425158640542,v/m1vw10zy74w/map,-2.95798240656,5.15396314488,0.165,0.0,0.0,0.0051103585474,0.999986942033,0,54.5116844177,56.4614372253,83.6341094971,2.39089179039
1647301425237385951,123,1647301425237385951,r2002313a3/base_front_laser_link,0,1647301425237385951,v/m1vw10zy74w/map,-2.91062687475,5.15415853532,0.165,0.0,0.0,0.00501158619415,0.999987441923,0,58.8171882629,56.4804344177,83.6520309448,2.39053201675
1647301425552270430,124,1647301425552270430,r2002313a3/base_front_laser_link,0,1647301425552270430,v/m1vw10zy74w/map,-2.71546880408,5.14965623721,0.165,0.0,0.0,0.00715817034612,0.99997437997,0,59.0970115662,56.5013656616,83.6784133911,2.39234805107
1647301425710268164,125,1647301425710268164,r2002313a3/base_front_laser_link,0,1647301425710268164,v/m1vw10zy74w/map,-2.61959441035,5.14527483032,0.165,0.0,0.0,0.00651516223939,0.999978776105,0,58.363368988,56.5161437988,83.6817245483,2.38852643967
1647301426025185507,126,1647301426025185507,r2002313a3/base_front_laser_link,0,1647301426025185507,v/m1vw10zy74w/map,-2.41589173506,5.14215258246,0.165,0.0,0.0,0.00297729014571,0.999995567862,0,57.3105049133,56.5223999023,83.6626205444,2.38007330894
1647301426262471006,127,1647301426262471006,r2002313a3/base_front_laser_link,0,1647301426262471006,v/m1vw10zy74w/map,-2.27383324027,5.1425644467,0.165,0.0,0.0,0.00269717614096,0.999996362614,0,58.8684616089,56.5407295227,83.67993927,2.37973642349
1647301426499763069,128,1647301426499763069,r2002313a3/base_front_laser_link,0,1647301426499763069,v/m1vw10zy74w/map,-2.14186389169,5.16090132801,0.165,0.0,0.0,0.00100733512397,0.999999492638,0,61.7947769165,56.5814552307,83.8268737793,2.41513848305
1647301426814341440,129,1647301426814341440,r2002313a3/base_front_laser_link,0,1647301426814341440,v/m1vw10zy74w/map,-1.95705363046,5.15618905943,0.165,0.0,0.0,0.00589350174429,0.999982633168,0,57.5388221741,56.5888214111,83.8104934692,2.40722417831
1647301426973447412,130,1647301426973447412,r2002313a3/base_front_laser_link,0,1647301426973447412,v/m1vw10zy74w/map,-1.8614523762,5.15544616757,0.165,0.0,0.0,0.00470035668041,0.999988953263,0,60.8295860291,56.6211929321,83.9004058838,2.42640399933
1647301427288566091,131,1647301427288566091,r2002313a3/base_front_laser_link,0,1647301427288566091,v/m1vw10zy74w/map,-1.65884818006,5.15945829241,0.165,0.0,0.0,0.00507221847108,0.999987136217,0,55.563785553,56.6131820679,83.8698120117,2.41887664795
1647301429496727884,132,1647301429496727884,r2002313a3/base_front_laser_link,0,1647301429496727884,v/m1vw10zy74w/map,-1.09967688566,5.14687683572,0.165,0.0,0.0,-0.0024492359385,0.999997000617,0,65.2413711548,56.6780548096,84.2475662231,2.52316880226
1647301429654682886,133,1647301429654682886,r2002313a3/base_front_laser_link,0,1647301429654682886,v/m1vw10zy74w/map,-1.07093590698,5.14677604406,0.165,0.0,0.0,-0.00238715178105,0.999997150749,0,63.016746521,56.7253608704,84.4432067871,2.57261657715
1647301429811765979,134,1647301429811765979,r2002313a3/base_front_laser_link,0,1647301429811765979,v/m1vw10zy74w/map,-1.03779938253,5.14666060032,0.165,0.0,0.0,-0.00235820708354,0.999997219426,0,63.3423423767,56.7743759155,84.6509017944,2.62550854683
1647301429890617566,135,1647301429890617566,r2002313a3/base_front_laser_link,0,1647301429890617566,v/m1vw10zy74w/map,-1.02022533161,5.14662329213,0.165,0.0,0.0,-0.00232745939369,0.999997291463,0,63.0558509827,56.8205604553,84.8325042725,2.67064762115
1647301430048707918,136,1647301430048707918,r2002313a3/base_front_laser_link,0,1647301430048707918,v/m1vw10zy74w/map,-0.983470550838,5.14645971768,0.165,0.0,0.0,-0.00232221276681,0.99999730366,0,60.9006195068,56.8503456116,84.9009857178,2.68354701996
1647301430127743629,137,1647301430127743629,r2002313a3/base_front_laser_link,0,1647301430127743629,v/m1vw10zy74w/map,-0.964154831238,5.14640932384,0.165,0.0,0.0,-0.00229561686548,0.999997365068,0,59.749294281,56.8713493347,84.926651001,2.68509912491
1647301430364819077,138,1647301430364819077,r2002313a3/base_front_laser_link,0,1647301430364819077,v/m1vw10zy74w/map,-0.902496669211,5.14639629292,0.165,0.0,0.0,-0.00211611787228,0.99999776102,0,61.5204544067,56.9047966003,85.0175704956,2.70425772667
1647301430443914590,139,1647301430443914590,r2002313a3/base_front_laser_link,0,1647301430443914590,v/m1vw10zy74w/map,-0.880707527817,5.14729712522,0.165,0.0,0.0,-0.00145121800522,0.999998946983,0,59.6915626526,56.9247016907,85.0390625,2.70478653908
1647301430522582925,140,1647301430522582925,r2002313a3/base_front_laser_link,0,1647301430522582925,v/m1vw10zy74w/map,-0.858631504516,5.14846693044,0.165,0.0,0.0,-0.000623834407211,0.999999805415,0,58.2074546814,56.9337997437,85.0256195068,2.69727349281
1647301430600766217,141,1647301430600766217,r2002313a3/base_front_laser_link,0,1647301430600766217,v/m1vw10zy74w/map,-0.836887024204,5.14036958199,0.165,0.0,0.0,-0.000770352929486,0.999999703278,0,62.0667457581,56.9699478149,85.1359176636,2.72198987007
1647301430758654339,142,1647301430758654339,r2002313a3/base_front_laser_link,0,1647301430758654339,v/m1vw10zy74w/map,-0.793380441384,5.14067292932,0.165,0.0,0.0,0.000226730431797,0.999999974297,0,60.1624412537,56.9922714233,85.168762207,2.72549533844
1647301430916870895,143,1647301430916870895,r2002313a3/base_front_laser_link,0,1647301430916870895,v/m1vw10zy74w/map,-0.742478779669,5.14320208939,0.165,0.0,0.0,0.00187531907722,0.999998241588,0,61.0964126587,57.0207748413,85.2329711914,2.737398386
1647301431074586489,144,1647301431074586489,r2002313a3/base_front_laser_link,0,1647301431074586489,v/m1vw10zy74w/map,-0.689730199587,5.14568911657,0.165,0.0,0.0,0.00337613716625,0.999994300833,0,62.5979576111,57.0592384338,85.3599853516,2.76691699028
1647301431154399416,145,1647301431154399416,r2002313a3/base_front_laser_link,0,1647301431154399416,v/m1vw10zy74w/map,-0.661898709325,5.14650614556,0.165,0.0,0.0,0.00379543754898,0.999992797301,0,61.0970802307,57.086894989,85.4195022583,2.77753543854
1647301431311845502,146,1647301431311845502,r2002313a3/base_front_laser_link,0,1647301431311845502,v/m1vw10zy74w/map,-0.598337763039,5.14639253177,0.165,0.0,0.0,0.00334441590373,0.999994407425,0,61.5468101501,57.1172332764,85.4942626953,2.79234218597
1647301431390330042,147,1647301431390330042,r2002313a3/base_front_laser_link,0,1647301431390330042,v/m1vw10zy74w/map,-0.559727543778,5.15092555189,0.165,0.0,0.0,0.00474820499165,0.999988727211,0,60.2214736938,57.1382064819,85.5217132568,2.7945022583
1647301431548193284,148,1647301431548193284,r2002313a3/base_front_laser_link,0,1647301431548193284,v/m1vw10zy74w/map,-0.499743755275,5.15156643617,0.165,0.0,0.0,0.00479437953422,0.999988506896,0,61.6711883545,57.1686325073,85.5977172852,2.80969452858
1647301431706802343,149,1647301431706802343,r2002313a3/base_front_laser_link,0,1647301431706802343,v/m1vw10zy74w/map,-0.436977118009,5.15223743434,0.165,0.0,0.0,0.00483854975826,0.99998829415,0,59.5510597229,57.184513092,85.605506897,2.80699849129
1647301431784803784,150,1647301431784803784,r2002313a3/base_front_laser_link,0,1647301431784803784,v/m1vw10zy74w/map,-0.405213065354,5.15258055519,0.165,0.0,0.0,0.00486204346854,0.999988180197,0,62.2824401855,57.2182731628,85.7029342651,2.82821917534
1647301431941645471,151,1647301431941645471,r2002313a3/base_front_laser_link,0,1647301431941645471,v/m1vw10zy74w/map,-0.337569841521,5.15290328819,0.165,0.0,0.0,0.0060710887261,0.999981570771,0,58.9781570435,57.2298545837,85.6972045898,2.82245063782
1647301432100006777,152,1647301432100006777,r2002313a3/base_front_laser_link,0,1647301432100006777,v/m1vw10zy74w/map,-0.267063486009,5.15725494034,0.165,0.0,0.0,0.00730975436161,0.999973283389,0,59.6716804504,57.2458114624,85.7060165405,2.82006907463
1647301432257898861,153,1647301432257898861,r2002313a3/base_front_laser_link,0,1647301432257898861,v/m1vw10zy74w/map,-0.195501448955,5.15822367392,0.165,0.0,0.0,0.00725901997,0.999973652967,0,59.3995933533,57.2597961426,85.7083740234,2.81619119644
1647301432336882562,154,1647301432336882562,r2002313a3/base_front_laser_link,0,1647301432336882562,v/m1vw10zy74w/map,-0.158997753633,5.15857556013,0.165,0.0,0.0,0.00714003356556,0.999974509635,0,59.7301635742,57.2757339478,85.7178497314,2.81403708458
1647301432574426083,155,1647301432574426083,r2002313a3/base_front_laser_link,0,1647301432574426083,v/m1vw10zy74w/map,-0.0506164657233,5.15914297823,0.165,0.0,0.0,0.00305141322181,0.999995344428,0,60.6811637878,57.2975654602,85.7520599365,2.81816530228
1647301432652492122,156,1647301432652492122,r2002313a3/base_front_laser_link,0,1647301432652492122,v/m1vw10zy74w/map,-0.0119302257897,5.15858092918,0.165,0.0,0.0,0.00252277969906,0.999996817786,0,57.6044158936,57.2995185852,85.7271957397,2.80922484398
1647301432810884644,157,1647301432810884644,r2002313a3/base_front_laser_link,0,1647301432810884644,v/m1vw10zy74w/map,0.068326775493,5.15795720295,0.165,0.0,0.0,0.00186658116254,0.999998257936,0,61.7622108459,57.3277664185,85.7958068848,2.82268071175
1647301433047521829,158,1647301433047521829,r2002313a3/base_front_laser_link,0,1647301433047521829,v/m1vw10zy74w/map,0.191536799845,5.15646032004,0.165,0.0,0.0,0.000731891421325,0.999999732167,0,61.2174301147,57.3522262573,85.84400177,2.83059239388
1647301433127345398,159,1647301433127345398,r2002313a3/base_front_laser_link,0,1647301433127345398,v/m1vw10zy74w/map,0.233650555893,5.15618972162,0.165,0.0,0.0,0.00076429845746,0.999999707924,0,60.782749176,57.3736686707,85.8777084351,2.83468079567
1647301433205870507,160,1647301433205870507,r2002313a3/base_front_laser_link,0,1647301433205870507,v/m1vw10zy74w/map,0.277119284542,5.15662036179,0.165,0.0,0.0,0.00100569780207,0.999999494286,0,60.753616333,57.3946609497,85.9096679688,2.83833575249
1647301433600056854,161,1647301433600056854,r2002313a3/base_front_laser_link,0,1647301433600056854,v/m1vw10zy74w/map,0.497654581478,5.1604020116,0.165,0.0,0.0,0.000707063448031,0.999999750031,0,57.7967681885,57.3971443176,85.8861923218,2.82968378067
1647301433757035853,162,1647301433757035853,r2002313a3/base_front_laser_link,0,1647301433757035853,v/m1vw10zy74w/map,0.591749446486,5.15899219938,0.165,0.0,0.0,-0.000286093373911,0.999999959075,0,58.1542320251,57.4017906189,85.8664703369,2.82155990601
1647301436356259787,163,1647301436356259787,r2002313a3/base_front_laser_link,0,1647301436356259787,v/m1vw10zy74w/map,1.11125984028,5.16019221416,0.165,0.0,0.0,0.0113220356182,-0.999935903701,0,56.3663444519,57.3954772949,85.837638855,2.81405329704
1647301436592231374,164,1647301436592231374,r2002313a3/base_front_laser_link,0,1647301436592231374,v/m1vw10zy74w/map,1.1637642673,5.16061053286,0.165,0.0,0.0,0.0117674775734,-0.999930760839,0,55.6637878418,57.384979248,85.8110733032,2.80869793892
1647301436750322672,165,1647301436750322672,r2002313a3/base_front_laser_link,0,1647301436750322672,v/m1vw10zy74w/map,1.19692940296,5.15812377393,0.165,0.0,0.0,0.012789126497,-0.999918215777,0,55.644329071,57.37449646,85.7847900391,2.80343103409
1647301437065265336,166,1647301437065265336,r2002313a3/base_front_laser_link,0,1647301437065265336,v/m1vw10zy74w/map,1.27060531759,5.15528899953,0.165,0.0,0.0,0.0133833795725,-0.999910438565,0,55.3726806641,57.3625068665,85.7602996826,2.79926347733
1647301437144349572,167,1647301437144349572,r2002313a3/base_front_laser_link,0,1647301437144349572,v/m1vw10zy74w/map,1.29107655202,5.15480086363,0.165,0.0,0.0,0.0133427681652,-0.999910981307,0,56.3908462524,57.3567237854,85.7323532104,2.79187655449
1647301437223203111,168,1647301437223203111,r2002313a3/base_front_laser_link,0,1647301437223203111,v/m1vw10zy74w/map,1.31200697781,5.15431458584,0.165,0.0,0.0,0.0132936995091,-0.999911634872,0,54.5737876892,57.3402557373,85.7155838013,2.79177451134
1647301437381345784,169,1647301437381345784,r2002313a3/base_front_laser_link,0,1647301437381345784,v/m1vw10zy74w/map,1.35516351302,5.1532231877,0.165,0.0,0.0,0.0132564109428,-0.999912129924,0,52.3341522217,57.3108100891,85.7403869629,2.80985856056
1647301437619255416,170,1647301437619255416,r2002313a3/base_front_laser_link,0,1647301437619255416,v/m1vw10zy74w/map,1.41832235647,5.13897386587,0.165,0.0,0.0,0.0189302401611,-0.999820806949,0,51.5192222595,57.2769393921,85.7860641479,2.83637404442
1647301437775172482,171,1647301437775172482,r2002313a3/base_front_laser_link,0,1647301437775172482,v/m1vw10zy74w/map,1.46665593842,5.13179419673,0.165,0.0,0.0,0.0222785576085,-0.999751802134,0,53.3885955811,57.2543334961,85.7850341797,2.84356689453
1647301438012621131,172,1647301438012621131,r2002313a3/base_front_laser_link,0,1647301438012621131,v/m1vw10zy74w/map,1.54466869431,5.11303425617,0.165,0.0,0.0,0.0321719289824,-0.999482349512,0,52.5321273804,57.2270393372,85.8008270264,2.85792922974
1647301438171360831,173,1647301438171360831,r2002313a3/base_front_laser_link,0,1647301438171360831,v/m1vw10zy74w/map,1.5995450191,5.09622502097,0.165,0.0,0.0,0.0408543254326,-0.999165113529,0,54.3520393372,57.2105140686,85.7844543457,2.85798001289
1647301438327254300,174,1647301438327254300,r2002313a3/base_front_laser_link,0,1647301438327254300,v/m1vw10zy74w/map,1.65349630834,5.07046938811,0.165,0.0,0.0,0.0521254400296,-0.998640545192,0,53.4065589905,57.1887779236,85.7814559937,2.86422657967
1647301438564317013,175,1647301438564317013,r2002313a3/base_front_laser_link,0,1647301438564317013,v/m1vw10zy74w/map,1.75713624868,5.03852119862,0.165,0.0,0.0,0.0640921355303,-0.997943985484,0,53.182384491,57.166015625,85.7818756104,2.87195301056
1647301438800290316,176,1647301438800290316,r2002313a3/base_front_laser_link,0,1647301438800290316,v/m1vw10zy74w/map,1.84982317063,5.00189295871,0.165,0.0,0.0,0.0797246725845,-0.996816922299,0,52.0617523193,57.1371765137,85.8052825928,2.88936758041
1647301438958473178,177,1647301438958473178,r2002313a3/base_front_laser_link,0,1647301438958473178,v/m1vw10zy74w/map,1.91053878854,4.96501929585,0.165,0.0,0.0,0.0966949016032,-0.995314069027,0,55.4508857727,57.1277046204,85.7795944214,2.88396501541
1647301439195293975,178,1647301439195293975,r2002313a3/base_front_laser_link,0,1647301439195293975,v/m1vw10zy74w/map,2.00599559235,4.88883134257,0.165,0.0,0.0,0.132131686887,-0.99123217125,0,55.5904846191,57.1191139221,85.7535552979,2.87814688683
1647301439432471231,179,1647301439432471231,r2002313a3/base_front_laser_link,0,1647301439432471231,v/m1vw10zy74w/map,2.0932290037,4.79437668016,0.165,0.0,0.0,0.174919054262,-0.984582817469,0,55.3072357178,57.1090507507,85.7288665771,2.87327170372
1647301439590502262,180,1647301439590502262,r2002313a3/base_front_laser_link,0,1647301439590502262,v/m1vw10zy74w/map,2.15628643609,4.72847648615,0.165,0.0,0.0,0.202332445193,-0.979316895403,0,55.0638427734,57.0977478027,85.7056732178,2.86930894852
1647301439747491773,181,1647301439747491773,r2002313a3/base_front_laser_link,0,1647301439747491773,v/m1vw10zy74w/map,2.20678897024,4.64792384295,0.165,0.0,0.0,0.236398444297,-0.971656202334,0,53.3901748657,57.0773773193,85.7009963989,2.87453937531
1647301439826388698,182,1647301439826388698,r2002313a3/base_front_laser_link,0,1647301439826388698,v/m1vw10zy74w/map,2.22894637567,4.60246572906,0.165,0.0,0.0,0.255804450302,-0.966728546804,0,56.789226532,57.0758056641,85.6759338379,2.86671066284
1647301440062472527,183,1647301440062472527,r2002313a3/base_front_laser_link,0,1647301440062472527,v/m1vw10zy74w/map,2.28071538613,4.44465073187,0.165,0.0,0.0,0.321972596808,-0.94674898833,0,54.4294090271,57.0614204407,85.6579666138,2.86551642418
1647301440220298202,184,1647301440220298202,r2002313a3/base_front_laser_link,0,1647301440220298202,v/m1vw10zy74w/map,2.29385060396,4.3274397528,0.165,0.0,0.0,0.369694219483,-0.92915347714,0,56.6244621277,57.0590591431,85.6327590942,2.85789966583
1647301440377260023,185,1647301440377260023,r2002313a3/base_front_laser_link,0,1647301440377260023,v/m1vw10zy74w/map,2.30257857965,4.21251668449,0.165,0.0,0.0,0.415095856835,-0.909777681436,0,56.6624336243,57.0569267273,85.6078643799,2.85031342506
1647301440535592778,186,1647301440535592778,r2002313a3/base_front_laser_link,0,1647301440535592778,v/m1vw10zy74w/map,2.3092377309,4.08964888634,0.165,0.0,0.0,0.460328571534,-0.887748616574,0,57.3469390869,57.0584793091,85.5866394043,2.84272003174
1647301440772414919,187,1647301440772414919,r2002313a3/base_front_laser_link,0,1647301440772414919,v/m1vw10zy74w/map,2.2986961675,3.90802261958,0.165,0.0,0.0,0.52227879204,-0.852774802269,0,59.9404945374,57.0738067627,85.6024780273,2.8428902626
1647301440929531731,188,1647301440929531731,r2002313a3/base_front_laser_link,0,1647301440929531731,v/m1vw10zy74w/map,2.29904013315,3.80920092084,0.165,0.0,0.0,0.553598699676,-0.832783573155,0,59.5601043701,57.0869636536,85.610206604,2.84108114243
1647301441166513217,189,1647301441166513217,r2002313a3/base_front_laser_link,0,1647301441166513217,v/m1vw10zy74w/map,2.27298555128,3.64775197571,0.165,0.0,0.0,0.597918608542,-0.801556821167,0,56.2570571899,57.0825958252,85.5851821899,2.83419466019
1647301441402532515,190,1647301441402532515,r2002313a3/base_front_laser_link,0,1647301441402532515,v/m1vw10zy74w/map,2.23674615131,3.48717082362,0.165,0.0,0.0,0.636840276599,-0.770995760106,0,53.8129386902,57.0654754639,85.575302124,2.83660960197
1647301441639452949,191,1647301441639452949,r2002313a3/base_front_laser_link,0,1647301441639452949,v/m1vw10zy74w/map,2.19565304348,3.33582885353,0.165,0.0,0.0,0.66704099446,-0.745021014274,0,54.4041137695,57.0516166687,85.5586700439,2.83568620682
1647301441717310710,192,1647301441717310710,r2002313a3/base_front_laser_link,0,1647301441717310710,v/m1vw10zy74w/map,2.18613279453,3.28348066143,0.165,0.0,0.0,0.675170680762,-0.737661542876,0,52.5584602356,57.0283355713,85.5685043335,2.84672427177
1647301441796721848,193,1647301441796721848,r2002313a3/base_front_laser_link,0,1647301441796721848,v/m1vw10zy74w/map,2.17697553605,3.23481357565,0.165,0.0,0.0,0.681649369096,-0.731678985356,0,54.3554382324,57.0145568848,85.5520095825,2.8458173275
1647301441953577777,194,1647301441953577777,r2002313a3/base_front_laser_link,0,1647301441953577777,v/m1vw10zy74w/map,2.16375770458,3.14197813331,0.165,0.0,0.0,0.691317190676,-0.722551411233,0,53.65051651,56.9973068237,85.5433349609,2.84867787361
1647301442111506942,195,1647301442111506942,r2002313a3/base_front_laser_link,0,1647301442111506942,v/m1vw10zy74w/map,2.16223654938,3.04322228688,0.165,0.0,0.0,0.696556907166,-0.717501550576,0,54.1894454956,56.9829788208,85.5282821655,2.84843397141
1647301442347670512,196,1647301442347670512,r2002313a3/base_front_laser_link,0,1647301442347670512,v/m1vw10zy74w/map,2.16112186804,2.91116378953,0.165,0.0,0.0,0.698210845811,-0.715892180983,0,55.6900215149,56.9764175415,85.5043716431,2.84265112877
1647301442663527163,197,1647301442663527163,r2002313a3/base_front_laser_link,0,1647301442663527163,v/m1vw10zy74w/map,2.18475350304,2.71783457465,0.165,0.0,0.0,0.691093131459,-0.72276571837,0,52.6777038574,56.9547042847,85.5102157593,2.8518371582
1647301442899550769,198,1647301442899550769,r2002313a3/base_front_laser_link,0,1647301442899550769,v/m1vw10zy74w/map,2.19645589941,2.5801106115,0.165,0.0,0.0,0.686002371845,-0.727599303066,0,55.4522132874,56.9471549988,85.4870147705,2.84661960602
1647301443056510917,199,1647301443056510917,r2002313a3/base_front_laser_link,0,1647301443056510917,v/m1vw10zy74w/map,2.21444561375,2.48680183356,0.165,0.0,0.0,0.680174084537,-0.733050622211,0,54.7863082886,56.9363517761,85.467048645,2.84356641769
1647301443292536693,200,1647301443292536693,r2002313a3/base_front_laser_link,0,1647301443292536693,v/m1vw10zy74w/map,2.24271531589,2.34810369765,0.165,0.0,0.0,0.67096580646,-0.741488291588,0,55.7179641724,56.9302902222,85.4435424805,2.83775019646
1647301443607171731,201,1647301443607171731,r2002313a3/base_front_laser_link,0,1647301443607171731,v/m1vw10zy74w/map,2.28654869743,2.16118780814,0.165,0.0,0.0,0.658100047269,-0.752930493329,0,59.4495162964,56.9427604675,85.4514389038,2.83622646332
1647301443842590913,202,1647301443842590913,r2002313a3/base_front_laser_link,0,1647301443842590913,v/m1vw10zy74w/map,2.32187212294,2.02368000465,0.165,0.0,0.0,0.65032285188,-0.759657941657,0,59.2572250366,56.9541625977,85.4557342529,2.83385705948
1647301444158404471,203,1647301444158404471,r2002313a3/base_front_laser_link,0,1647301444158404471,v/m1vw10zy74w/map,2.37496031403,1.8579818036,0.165,0.0,0.0,0.639424545895,-0.768853854843,0,57.9265823364,56.9589271545,85.4419937134,2.82768821716
1647301444395645137,204,1647301444395645137,r2002313a3/base_front_laser_link,0,1647301444395645137,v/m1vw10zy74w/map,2.42134958269,1.72225253974,0.165,0.0,0.0,0.629024103223,-0.77738579712,0,60.0512695312,56.9740142822,85.4610290527,2.82900547981
1647301444552582656,205,1647301444552582656,r2002313a3/base_front_laser_link,0,1647301444552582656,v/m1vw10zy74w/map,2.45766878487,1.63387765512,0.165,0.0,0.0,0.620486802582,-0.784216888254,0,62.1879119873,56.9993247986,85.5354690552,2.84538173676
1647301444788701589,206,1647301444788701589,r2002313a3/base_front_laser_link,0,1647301444788701589,v/m1vw10zy74w/map,2.50852298652,1.51222752587,0.165,0.0,0.0,0.610383298547,-0.792106197966,0,59.6055641174,57.0119132996,85.5446395874,2.84424138069
1647301445104835827,207,1647301445104835827,r2002313a3/base_front_laser_link,0,1647301445104835827,v/m1vw10zy74w/map,2.5881792776,1.34680785268,0.165,0.0,0.0,0.594093438423,-0.804396038294,0,62.7931785583,57.0397071838,85.6363296509,2.86553931236
1647301445341712961,208,1647301445341712961,r2002313a3/base_front_laser_link,0,1647301445341712961,v/m1vw10zy74w/map,2.6615627323,1.2238100377,0.165,0.0,0.0,0.578926409625,-0.815379796315,0,66.7935409546,57.0863761902,85.8979263306,2.93718242645
1647301445419944633,209,1647301445419944633,r2002313a3/base_front_laser_link,0,1647301445419944633,v/m1vw10zy74w/map,2.68358406623,1.1817115213,0.165,0.0,0.0,0.575194756457,-0.818016498699,0,64.1541213989,57.1200332642,86.0314178467,2.97046017647
1647301445498891979,210,1647301445498891979,r2002313a3/base_front_laser_link,0,1647301445498891979,v/m1vw10zy74w/map,2.7034080712,1.13342316023,0.165,0.0,0.0,0.573265039292,-0.819369998673,0,62.5907974243,57.1459617615,86.1076126099,2.98721647263
1647301445656922152,211,1647301445656922152,r2002313a3/base_front_laser_link,0,1647301445656922152,v/m1vw10zy74w/map,2.75182922525,1.05489729975,0.165,0.0,0.0,0.565015112602,-0.825080555177,0,64.681602478,57.1815071106,86.2557144165,3.024736166
1647301445814764448,212,1647301445814764448,r2002313a3/base_front_laser_link,0,1647301445814764448,v/m1vw10zy74w/map,2.80626106778,0.953121888195,0.165,0.0,0.0,0.557694296269,-0.830046427562,0,61.4539413452,57.2015647888,86.2968444824,3.03176045418
1647301446050689658,213,1647301446050689658,r2002313a3/base_front_laser_link,0,1647301446050689658,v/m1vw10zy74w/map,2.90167036775,0.774761721663,0.165,0.0,0.0,0.545412492564,-0.838167771365,0,60.8267669678,57.2185058594,86.3228149414,3.0347700119
1647301446287708256,214,1647301446287708256,r2002313a3/base_front_laser_link,0,1647301446287708256,v/m1vw10zy74w/map,3.02635423953,0.55485992926,0.165,0.0,0.0,0.532275095681,-0.846571451514,0,59.5917701721,57.2295455933,86.3255233765,3.0319943428
1647301446445912966,215,1647301446445912966,r2002313a3/base_front_laser_link,0,1647301446445912966,v/m1vw10zy74w/map,3.1370938832,0.392119983736,0.165,0.0,0.0,0.516153509527,-0.856496091411,0,60.406414032,57.2442512512,86.3421936035,3.03264856339
1647301446682778876,216,1647301446682778876,r2002313a3/base_front_laser_link,0,1647301446682778876,v/m1vw10zy74w/map,3.32781477633,0.173994349011,0.165,0.0,0.0,0.482401822621,-0.875950045112,0,62.0714111328,57.266494751,86.3964385986,3.04331374168
1647301446760956073,217,1647301446760956073,r2002313a3/base_front_laser_link,0,1647301446760956073,v/m1vw10zy74w/map,3.39613189024,0.105358664709,0.165,0.0,0.0,0.470487771447,-0.882406514549,0,60.2164649963,57.2800292969,86.4086074829,3.04285979271
1647301446997227737,218,1647301446997227737,r2002313a3/base_front_laser_link,0,1647301446997227737,v/m1vw10zy74w/map,3.60211755738,-0.104279132796,0.165,0.0,0.0,0.441062638811,-0.897476322053,0,61.6722106934,57.3000831604,86.4511260986,3.05034613609
1647301447154828771,219,1647301447154828771,r2002313a3/base_front_laser_link,0,1647301447154828771,v/m1vw10zy74w/map,3.7497185652,-0.252760353053,0.165,0.0,0.0,0.425563063611,-0.904928770064,0,58.6305809021,57.3061332703,86.4402160645,3.04469561577
1647301447391795417,220,1647301447391795417,r2002313a3/base_front_laser_link,0,1647301447391795417,v/m1vw10zy74w/map,3.97275071883,-0.452900618669,0.165,0.0,0.0,0.403108559124,-0.915152167435,0,58.8620605469,57.3131713867,86.4318847656,3.03957056999
1647301447548721025,221,1647301447548721025,r2002313a3/base_front_laser_link,0,1647301447548721025,v/m1vw10zy74w/map,4.12517613209,-0.59386673655,0.165,0.0,0.0,0.391208219507,-0.920302194385,0,55.4184417725,57.3046379089,86.4106903076,3.03535079956
1647301447706814338,222,1647301447706814338,r2002313a3/base_front_laser_link,0,1647301447706814338,v/m1vw10zy74w/map,4.28778156964,-0.727587227508,0.165,0.0,0.0,0.378589027824,-0.925564880498,0,56.6993370056,57.3019218445,86.3882598877,3.02877807617
1647301447863820519,223,1647301447863820519,r2002313a3/base_front_laser_link,0,1647301447863820519,v/m1vw10zy74w/map,4.44709598675,-0.860029401873,0.165,0.0,0.0,0.369215945736,-0.929343631502,0,57.8375740051,57.3043136597,86.3708877563,3.02219128609
1647301447941962974,224,1647301447941962974,r2002313a3/base_front_laser_link,0,1647301447941962974,v/m1vw10zy74w/map,4.53302974867,-0.930426711235,0.165,0.0,0.0,0.365381718667,-0.930857776281,0,55.4688491821,57.2961578369,86.3499145508,3.01791954041
1647301448021022016,225,1647301448021022016,r2002313a3/base_front_laser_link,0,1647301448021022016,v/m1vw10zy74w/map,4.61577959299,-0.999923854285,0.165,0.0,0.0,0.362739478758,-0.931890589367,0,56.1388206482,57.2910346985,86.3276062012,3.01218938828
1647301448257993536,226,1647301448257993536,r2002313a3/base_front_laser_link,0,1647301448257993536,v/m1vw10zy74w/map,4.85766628552,-1.21541505209,0.165,0.0,0.0,0.35979836648,-0.933030082837,0,56.2147064209,57.2862930298,86.3053970337,3.00636672974
1647301448415868671,227,1647301448415868671,r2002313a3/base_front_laser_link,0,1647301448415868671,v/m1vw10zy74w/map,5.01621155912,-1.36108606253,0.165,0.0,0.0,0.36062921948,-0.932709261269,0,59.0292778015,57.2939376831,86.2998123169,3.00195765495
1647301448652400046,228,1647301448652400046,r2002313a3/base_front_laser_link,0,1647301448652400046,v/m1vw10zy74w/map,5.25778032053,-1.58772773978,0.165,0.0,0.0,0.366438677766,-0.930442204243,0,54.2095108032,57.2804679871,86.2873535156,3.00229406357
1647301448888999188,229,1647301448888999188,r2002313a3/base_front_laser_link,0,1647301448888999188,v/m1vw10zy74w/map,5.47595669431,-1.82662156759,0.165,0.0,0.0,0.381723952719,-0.924276378536,0,53.0749664307,57.2621841431,86.2878036499,3.00853872299
1647301449046935581,230,1647301449046935581,r2002313a3/base_front_laser_link,0,1647301449046935581,v/m1vw10zy74w/map,5.61057421401,-1.98587227018,0.165,0.0,0.0,0.390226226371,-0.920719008304,0,54.8442878723,57.2517166138,86.270324707,3.00620341301
1647301449126048087,231,1647301449126048087,r2002313a3/base_front_laser_link,0,1647301449126048087,v/m1vw10zy74w/map,5.67123564025,-2.05623105395,0.165,0.0,0.0,0.393337528441,-0.919394142204,0,51.8110237122,57.2282676697,86.2909164429,3.02088212967
1647301449204131952,232,1647301449204131952,r2002313a3/base_front_laser_link,0,1647301449204131952,v/m1vw10zy74w/map,5.71496582774,-2.11977086563,0.165,0.0,0.0,0.398661681178,-0.917098066708,0,55.6675949097,57.2215690613,86.269859314,3.01609802246
1647301449361584588,233,1647301449361584588,r2002313a3/base_front_laser_link,0,1647301449361584588,v/m1vw10zy74w/map,5.81880421206,-2.24919825599,0.165,0.0,0.0,0.406854019443,-0.913493189281,0,56.3202667236,57.217716217,86.2483062744,3.01019525528
1647301449598434384,234,1647301449598434384,r2002313a3/base_front_laser_link,0,1647301449598434384,v/m1vw10zy74w/map,5.90916281197,-2.38363791325,0.165,0.0,0.0,0.420344656531,-0.907364518661,0,54.6023674011,57.2065887451,86.232383728,3.00859761238
1647301449756091201,235,1647301449756091201,r2002313a3/base_front_laser_link,0,1647301449756091201,v/m1vw10zy74w/map,5.95348036255,-2.45656586088,0.165,0.0,0.0,0.428776130106,-0.903410776032,0,56.9927024841,57.2056808472,86.212348938,3.00222182274
1647301449834088274,236,1647301449834088274,r2002313a3/base_front_laser_link,0,1647301449834088274,v/m1vw10zy74w/map,5.96653036414,-2.4822803161,0.165,0.0,0.0,0.433222983672,-0.901286772575,0,52.6478042603,57.1864509583,86.2177963257,3.01044821739
1647301450150244992,237,1647301450150244992,r2002313a3/base_front_laser_link,0,1647301450150244992,v/m1vw10zy74w/map,6.00254497,-2.55758267225,0.165,0.0,0.0,0.442727845163,-0.896656040585,0,53.7550468445,57.1720314026,86.2089691162,3.01231336594
1647301450229224557,238,1647301450229224557,r2002313a3/base_front_laser_link,0,1647301450229224557,v/m1vw10zy74w/map,6.01992296068,-2.57360433131,0.165,0.0,0.0,0.441893392303,-0.897067572616,0,52.2501449585,57.1514396667,86.2198104858,3.02279090881
1647301450544253322,239,1647301450544253322,r2002313a3/base_front_laser_link,0,1647301450544253322,v/m1vw10zy74w/map,6.06410398591,-2.63855988665,0.165,0.0,0.0,0.444527872443,-0.895765019758,0,51.1669769287,57.1265029907,86.249786377,3.04109477997
