%time,field.header.seq,field.header.stamp,field.header.frame_id,field.pose.header.seq,field.pose.header.stamp,field.pose.header.frame_id,field.pose.pose.position.x,field.pose.pose.position.y,field.pose.pose.position.z,field.pose.pose.orientation.x,field.pose.pose.orientation.y,field.pose.pose.orientation.z,field.pose.pose.orientation.w,field.label,field.current_error,field.mean,field.threshold,field.std_dev
1647403440605792077,0,1647403440605792077,r200141368/base_front_laser_link,0,1647403440605792077,v/m1vw10zy74w/map,-11.5037701675,3.54121582682,0.165,0.0,0.0,-0.955490142164,-0.295023029995,1,58.7243080139,58.7243080139,nan,nan
1647403440841681645,1,1647403440841681645,r200141368/base_front_laser_link,0,1647403440841681645,v/m1vw10zy74w/map,-11.5953049023,3.71333046652,0.165,0.0,0.0,-0.932837607472,-0.360297096971,1,62.0949020386,60.4096031189,87.559715271,2.38337063789
1647403440998606806,2,1647403440998606806,r200141368/base_front_laser_link,0,1647403440998606806,v/m1vw10zy74w/map,-11.6433632901,3.81690603285,0.165,0.0,0.0,-0.91703393731,-0.398809174696,1,63.5324668884,61.4505577087,88.8545303345,2.46799182892
1647403441234729019,3,1647403441234729019,r200141368/base_front_laser_link,0,1647403441234729019,v/m1vw10zy74w/map,-11.6821719679,3.96663201704,0.165,0.0,0.0,-0.891313262069,-0.45338798932,1,60.7885627747,61.2850608826,87.4113922119,2.04211044312
1647403441393119300,4,1647403441393119300,r200141368/base_front_laser_link,0,1647403441393119300,v/m1vw10zy74w/map,-11.6967455532,4.06323580278,0.165,0.0,0.0,-0.872662865632,-0.488323174698,1,61.7144203186,61.3709335327,86.7076721191,1.77891302109
1647403441629562161,5,1647403441629562161,r200141368/base_front_laser_link,0,1647403441629562161,v/m1vw10zy74w/map,-11.7017468809,4.19608674568,0.165,0.0,0.0,-0.843748432027,-0.536738841012,1,62.779499054,61.6056938171,86.6811904907,1.69183373451
1647403441786570965,6,1647403441786570965,r200141368/base_front_laser_link,0,1647403441786570965,v/m1vw10zy74w/map,-11.6839211575,4.29322013583,0.165,0.0,0.0,-0.822079045949,-0.569373376802,1,64.0357666016,61.9528465271,87.3435516357,1.79690289497
1647403441944845531,7,1647403441944845531,r200141368/base_front_laser_link,0,1647403441944845531,v/m1vw10zy74w/map,-11.664750207,4.37915657203,0.165,0.0,0.0,-0.798461942854,-0.602045285518,1,63.6334495544,62.1629219055,87.4625320435,1.76653552055
1647403442259180833,8,1647403442259180833,r200141368/base_front_laser_link,0,1647403442259180833,v/m1vw10zy74w/map,-11.5959279518,4.55082684678,0.165,0.0,0.0,-0.74953779452,-0.661961550686,1,63.3770027161,62.2978210449,87.4016494751,1.7012771368
1647403442336822924,9,1647403442336822924,r200141368/base_front_laser_link,0,1647403442336822924,v/m1vw10zy74w/map,-11.5762333582,4.59828282036,0.165,0.0,0.0,-0.736260931475,-0.676697746992,1,64.6321716309,62.5312538147,87.8283309937,1.76569223404
1647403442494972948,10,1647403442494972948,r200141368/base_front_laser_link,0,1647403442494972948,v/m1vw10zy74w/map,-11.5243157649,4.67106020452,0.165,0.0,0.0,-0.70920914527,-0.704998147704,1,65.55519104,62.8061561584,88.5275878906,1.90714216232
1647403442574037705,11,1647403442574037705,r200141368/base_front_laser_link,0,1647403442574037705,v/m1vw10zy74w/map,-11.4903275329,4.71277421877,0.165,0.0,0.0,-0.694553203483,-0.719441344052,1,64.2795410156,62.9289398193,88.5313491821,1.86746919155
1647403442652032076,12,1647403442652032076,r200141368/base_front_laser_link,0,1647403442652032076,v/m1vw10zy74w/map,-11.4583522734,4.74470937791,0.165,0.0,0.0,-0.680554715108,-0.732697263366,1,62.4174003601,62.889591217,88.2703475952,1.79358577728
1647403442730927020,13,1647403442730927020,r200141368/base_front_laser_link,0,1647403442730927020,v/m1vw10zy74w/map,-11.4259288504,4.78121903661,0.165,0.0,0.0,-0.666049886442,-0.745907198498,1,66.4933013916,63.1469993591,89.0693359375,1.97411167622
1647403442809919316,14,1647403442809919316,r200141368/base_front_laser_link,0,1647403442809919316,v/m1vw10zy74w/map,-11.4032075947,4.81704464677,0.165,0.0,0.0,0.651472314489,0.758672408523,1,63.8441467285,63.1934738159,88.9258728027,1.91079890728
1647403443202991884,15,1647403443202991884,r200141368/base_front_laser_link,0,1647403443202991884,v/m1vw10zy74w/map,-11.2326924903,4.95865834634,0.165,0.0,0.0,0.580802586709,0.814044443057,1,63.0749588013,63.1860694885,88.7248001099,1.84624481201
1647403443439137992,16,1647403443439137992,r200141368/base_front_laser_link,0,1647403443439137992,v/m1vw10zy74w/map,-11.1692035099,5.05444832445,0.165,0.0,0.0,0.566044988389,0.824374351323,1,65.0661621094,63.296661377,88.831237793,1.84485983849
1647403443755483463,17,1647403443755483463,r200141368/base_front_laser_link,0,1647403443755483463,v/m1vw10zy74w/map,-11.1137180192,5.20427849457,0.165,0.0,0.0,0.565517257961,0.824736461513,1,65.5838775635,63.4237289429,89.0313491821,1.86920666695
1647403444149345223,18,1647403444149345223,r200141368/base_front_laser_link,0,1647403444149345223,v/m1vw10zy74w/map,-11.0396695682,5.38376051034,0.165,0.0,0.0,0.5640631935,0.825731623313,1,65.7639389038,63.5468978882,89.2295532227,1.89421927929
1647403444543082996,19,1647403444543082996,r200141368/base_front_laser_link,0,1647403444543082996,v/m1vw10zy74w/map,-10.9772866033,5.54836965522,0.165,0.0,0.0,0.563595712452,0.826050768964,1,64.4499435425,63.592048645,89.1562194824,1.85472261906
1647403444857224297,20,1647403444857224297,r200141368/base_front_laser_link,0,1647403444857224297,v/m1vw10zy74w/map,-10.9624128661,5.59539596635,0.165,0.0,0.0,0.563657024759,0.826008933632,1,65.3844451904,63.6774024963,89.2261734009,1.84958946705
1647403445172282598,21,1647403445172282598,r200141368/base_front_laser_link,0,1647403445172282598,v/m1vw10zy74w/map,-10.9599555634,5.60072551805,0.165,0.0,0.0,0.563401885384,0.826182979458,1,64.1842880249,63.7004432678,89.1251831055,1.80824673176
1647403445486347266,22,1647403445486347266,r200141368/base_front_laser_link,0,1647403445486347266,v/m1vw10zy74w/map,-10.9356938378,5.59313200915,0.165,0.0,0.0,0.549122893078,0.835741615751,1,66.9019088745,63.8396377563,89.5053939819,1.88858568668
1647403446511840326,23,1647403446511840326,r200141368/base_front_laser_link,0,1647403446511840326,v/m1vw10zy74w/map,-10.7472270272,5.45974505472,0.165,0.0,0.0,0.415745902176,0.909480810586,1,62.8241996765,63.797328949,89.3733291626,1.85866689682
1647403446669082248,24,1647403446669082248,r200141368/base_front_laser_link,0,1647403446669082248,v/m1vw10zy74w/map,-10.7393255718,5.45859577023,0.165,0.0,0.0,0.408988768199,0.91253941695,1,64.2968521118,63.8173065186,89.2841262817,1.8222733736
1647403446905227291,25,1647403446905227291,r200141368/base_front_laser_link,0,1647403446905227291,v/m1vw10zy74w/map,-10.7063849208,5.44933632217,0.165,0.0,0.0,0.393014476409,0.919532284008,1,65.9986419678,63.9012069702,89.4091796875,1.83599054813
1647403447142145413,26,1647403447142145413,r200141368/base_front_laser_link,0,1647403447142145413,v/m1vw10zy74w/map,-10.6738251228,5.43613459412,0.165,0.0,0.0,0.375045497518,0.927006404935,1,62.6995773315,63.8567008972,89.3020858765,1.81512832642
1647403447298434698,27,1647403447298434698,r200141368/base_front_laser_link,0,1647403447298434698,v/m1vw10zy74w/map,-10.6476958959,5.43206528525,0.165,0.0,0.0,0.361876906181,0.932225887204,1,63.5163230896,63.844543457,89.191619873,1.78235888481
1647403447456392165,28,1647403447456392165,r200141368/base_front_laser_link,0,1647403447456392165,v/m1vw10zy74w/map,-10.6176300748,5.42704043584,0.165,0.0,0.0,0.346832972892,0.93792691022,1,63.5836105347,63.8355484009,89.0882797241,1.75091218948
1647403447613283483,29,1647403447613283483,r200141368/base_front_laser_link,0,1647403447613283483,v/m1vw10zy74w/map,-10.5841482774,5.42045314022,0.165,0.0,0.0,0.32996341036,0.943993722343,1,63.0302009583,63.8087005615,88.9888916016,1.72673094273
1647403447928066695,30,1647403447928066695,r200141368/base_front_laser_link,0,1647403447928066695,v/m1vw10zy74w/map,-10.5050827593,5.40591934959,0.165,0.0,0.0,0.288863691175,0.957370235552,1,63.7654876709,63.807308197,88.9004821777,1.69772589207
1647403448085298767,31,1647403448085298767,r200141368/base_front_laser_link,0,1647403448085298767,v/m1vw10zy74w/map,-10.4618819714,5.39195402467,0.165,0.0,0.0,0.26611761545,0.963940565983,1,64.7824554443,63.8377799988,88.8747558594,1.67899155617
1647403448243200344,32,1647403448243200344,r200141368/base_front_laser_link,0,1647403448243200344,v/m1vw10zy74w/map,-10.4184403623,5.37330404419,0.165,0.0,0.0,0.241874953666,0.970307429008,1,67.4137954712,63.946144104,89.2438659668,1.76590752602
1647403448322230479,33,1647403448322230479,r200141368/base_front_laser_link,0,1647403448322230479,v/m1vw10zy74w/map,-10.3947413004,5.36406358714,0.165,0.0,0.0,0.229283334102,0.973359724204,1,69.450630188,64.108039856,90.0440139771,1.97865843773
1647403448480257683,34,1647403448480257683,r200141368/base_front_laser_link,0,1647403448480257683,v/m1vw10zy74w/map,-10.3461753488,5.34378207027,0.165,0.0,0.0,0.2034775916,0.979079603361,1,67.9565734863,64.2180023193,90.38306427,2.05502223969
1647403448559481502,35,1647403448559481502,r200141368/base_front_laser_link,0,1647403448559481502,v/m1vw10zy74w/map,-10.3253983585,5.32662745375,0.165,0.0,0.0,0.190155231764,0.981754036321,1,64.6474838257,64.229927063,90.3100814819,2.02671647072
1647403448638123094,36,1647403448638123094,r200141368/base_front_laser_link,0,1647403448638123094,v/m1vw10zy74w/map,-10.3016427329,5.31882508782,0.165,0.0,0.0,0.177915641581,0.984045743084,0,60.7374153137,64.1355361938,90.3731918335,2.07921767235
1647403448795154131,37,1647403448795154131,r200141368/base_front_laser_link,0,1647403448795154131,v/m1vw10zy74w/map,-10.2517099397,5.29649178264,0.165,0.0,0.0,0.152835087331,0.988251706844,0,64.6036148071,64.147857666,90.3048553467,2.05233287811
1647403448953119476,38,1647403448953119476,r200141368/base_front_laser_link,0,1647403448953119476,v/m1vw10zy74w/map,-10.1991256332,5.27059452692,0.165,0.0,0.0,0.126607189782,0.991952932097,0,63.0603942871,64.119972229,90.2178344727,2.03262114525
1647403449349081034,39,1647403449349081034,r200141368/base_front_laser_link,0,1647403449349081034,v/m1vw10zy74w/map,-10.0607111898,5.2173988515,0.165,0.0,0.0,0.0732355384392,0.997314672463,0,61.398021698,64.0519256592,90.2080230713,2.05203223228
1647403449743229332,40,1647403449743229332,r200141368/base_front_laser_link,0,1647403449743229332,v/m1vw10zy74w/map,-9.91782338528,5.1638112157,0.165,0.0,0.0,0.0290004925145,0.999579397264,0,65.7937011719,64.0944061279,90.2276000977,2.04439735413
1647403450058163292,41,1647403450058163292,r200141368/base_front_laser_link,0,1647403450058163292,v/m1vw10zy74w/map,-9.79792345631,5.12233150188,0.165,0.0,0.0,0.00357736869132,0.999993601196,0,63.050075531,64.0695419312,90.146736145,2.02573132515
1647403450531038096,42,1647403450531038096,r200141368/base_front_laser_link,0,1647403450531038096,v/m1vw10zy74w/map,-9.6034537406,5.10046827587,0.165,0.0,0.0,-0.00998073570144,0.999950191217,0,61.9566345215,64.020401001,90.1021270752,2.02724075317
1647403450845326066,43,1647403450845326066,r200141368/base_front_laser_link,0,1647403450845326066,v/m1vw10zy74w/map,-9.46265551315,5.08970518491,0.165,0.0,0.0,-0.0109024611997,0.999940566404,0,66.22215271,64.0704421997,90.1629562378,2.03083872795
1647403451160088974,44,1647403451160088974,r200141368/base_front_laser_link,0,1647403451160088974,v/m1vw10zy74w/map,-9.31690840122,5.08907438808,0.165,0.0,0.0,-0.00928622280452,0.999956882103,0,65.4328536987,64.1007156372,90.1543426514,2.01787495613
1647403451317263000,45,1647403451317263000,r200141368/base_front_laser_link,0,1647403451317263000,v/m1vw10zy74w/map,-9.22948227632,5.08867549105,0.165,0.0,0.0,-0.00998349106835,0.999950163711,0,66.3583450317,64.1497955322,90.2185058594,2.02290296555
1647403451474117087,46,1647403451474117087,r200141368/base_front_laser_link,0,1647403451474117087,v/m1vw10zy74w/map,-9.14766158228,5.08958965067,0.165,0.0,0.0,-0.00833001361835,0.999965304835,0,64.0369110107,64.1473922729,90.1499786377,2.00086164474
1647403451631833559,47,1647403451631833559,r200141368/base_front_laser_link,0,1647403451631833559,v/m1vw10zy74w/map,-9.06864471175,5.08447082334,0.165,0.0,0.0,-0.00782165236178,0.999969410409,0,62.0061416626,64.1027832031,90.1131210327,2.00344395638
1647403451789232583,48,1647403451789232583,r200141368/base_front_laser_link,0,1647403451789232583,v/m1vw10zy74w/map,-8.96982006805,5.08601473234,0.165,0.0,0.0,-0.00619672815241,0.999980800096,0,62.6483459473,64.0731048584,90.0530776978,1.99332356453
1647403452105126802,49,1647403452105126802,r200141368/base_front_laser_link,0,1647403452105126802,v/m1vw10zy74w/map,-8.78899177342,5.09044543604,0.165,0.0,0.0,4.48030517254e-05,0.999999998996,0,59.3280792236,63.9782028198,90.2298431396,2.08387994766
1647403452262231222,50,1647403452262231222,r200141368/base_front_laser_link,0,1647403452262231222,v/m1vw10zy74w/map,-8.69549719007,5.09527386353,0.165,0.0,0.0,0.00313522514257,0.99999508517,0,56.3346939087,63.8283309937,90.8005142212,2.32406067848
1647403452419239133,51,1647403452419239133,r200141368/base_front_laser_link,0,1647403452419239133,v/m1vw10zy74w/map,-8.60068040504,5.10196894718,0.165,0.0,0.0,0.00646577604574,0.999979096652,0,60.006565094,63.7548332214,90.839050293,2.36140489578
1647403452655305533,52,1647403452655305533,r200141368/base_front_laser_link,0,1647403452655305533,v/m1vw10zy74w/map,-8.44628751067,5.1060402296,0.165,0.0,0.0,0.00828697604028,0.999965662425,0,58.4442710876,63.6546363831,91.0037841797,2.44971680641
1647403452812057088,53,1647403452812057088,r200141368/base_front_laser_link,0,1647403452812057088,v/m1vw10zy74w/map,-8.34625413797,5.11452728651,0.165,0.0,0.0,0.010532538295,0.99994453128,0,58.9861297607,63.5681800842,91.0930404663,2.50828504562
1647403453049229366,54,1647403453049229366,r200141368/base_front_laser_link,0,1647403453049229366,v/m1vw10zy74w/map,-8.20532602583,5.11646062646,0.165,0.0,0.0,0.00904224698048,0.999959118049,0,60.0962638855,63.5050544739,91.0910568237,2.52866601944
1647403453206240264,55,1647403453206240264,r200141368/base_front_laser_link,0,1647403453206240264,v/m1vw10zy74w/map,-8.09900023836,5.12248000861,0.165,0.0,0.0,0.00785929059661,0.999969115299,0,64.7687225342,63.5276222229,91.0613937378,2.51125669479
1647403453364454504,56,1647403453364454504,r200141368/base_front_laser_link,0,1647403453364454504,v/m1vw10zy74w/map,-8.00685615531,5.11401940164,0.165,0.0,0.0,0.0036080259696,0.999993491053,0,62.9740104675,63.5179100037,90.9873504639,2.48981380463
1647403453601396359,57,1647403453601396359,r200141368/base_front_laser_link,0,1647403453601396359,v/m1vw10zy74w/map,-7.84925304385,5.11381127737,0.165,0.0,0.0,0.00154670365927,0.999998803853,0,62.6906585693,63.5036468506,90.9144439697,2.47026610374
1647403453837453516,58,1647403453837453516,r200141368/base_front_laser_link,0,1647403453837453516,v/m1vw10zy74w/map,-7.71243577945,5.11333616868,0.165,0.0,0.0,0.000338044149195,0.999999942863,0,63.3810806274,63.5015678406,90.8483581543,2.4489300251
1647403454074473226,59,1647403454074473226,r200141368/base_front_laser_link,0,1647403454074473226,v/m1vw10zy74w/map,-7.57964353272,5.10730743577,0.165,0.0,0.0,-0.00241666765403,0.999997079854,0,63.0525245667,63.4940834045,90.7804260254,2.42877960205
1647403454311422908,60,1647403454311422908,r200141368/base_front_laser_link,0,1647403454311422908,v/m1vw10zy74w/map,-7.4380099907,5.1066330535,0.165,0.0,0.0,-0.00241077709325,0.999997094073,0,61.7559242249,63.4655914307,90.7217330933,2.41871500015
1647403454390501584,61,1647403454390501584,r200141368/base_front_laser_link,0,1647403454390501584,v/m1vw10zy74w/map,-7.38955093554,5.11786614434,0.165,0.0,0.0,0.000956964076904,0.99999954211,0,61.1712608337,63.4285850525,90.6779022217,2.41643953323
1647403454546544890,62,1647403454546544890,r200141368/base_front_laser_link,0,1647403454546544890,v/m1vw10zy74w/map,-7.29599680393,5.11843459505,0.165,0.0,0.0,0.00103521889817,0.999999464161,0,59.9003410339,63.3725814819,90.6858139038,2.43774390221
1647403454703485229,63,1647403454703485229,r200141368/base_front_laser_link,0,1647403454703485229,v/m1vw10zy74w/map,-7.2020313259,5.11864799057,0.165,0.0,0.0,0.00104676196198,0.999999452145,0,59.1186332703,63.3061141968,90.7343826294,2.47608947754
1647403454782632337,64,1647403454782632337,r200141368/base_front_laser_link,0,1647403454782632337,v/m1vw10zy74w/map,-7.14173565567,5.12451173918,0.165,0.0,0.0,0.00204324794196,0.999997912567,0,60.5591926575,63.2638511658,90.7043991089,2.48018312454
1647403454940487959,65,1647403454940487959,r200141368/base_front_laser_link,0,1647403454940487959,v/m1vw10zy74w/map,-7.05944953647,5.1129773423,0.165,0.0,0.0,-0.0011605044,0.999999326615,0,62.0747337341,63.2458343506,90.6419754028,2.46537971497
1647403455335627594,66,1647403455335627594,r200141368/base_front_laser_link,0,1647403455335627594,v/m1vw10zy74w/map,-6.81950787112,5.11742311391,0.165,0.0,0.0,-0.00246578430955,0.999996959949,0,61.8253517151,63.2246360779,90.5829696655,2.45277810097
1647403455571485254,67,1647403455571485254,r200141368/base_front_laser_link,0,1647403455571485254,v/m1vw10zy74w/map,-6.65909948945,5.13068147674,0.165,0.0,0.0,-5.76605884472e-05,0.999999998338,0,64.7009963989,63.24634552,90.5692825317,2.44097948074
1647403455886586725,68,1647403455886586725,r200141368/base_front_laser_link,0,1647403455886586725,v/m1vw10zy74w/map,-6.4731702983,5.12699313996,0.165,0.0,0.0,-0.00144209007088,0.999998960188,0,60.7904396057,63.2107543945,90.5335617065,2.44093632698
1647403456202658701,69,1647403456202658701,r200141368/base_front_laser_link,0,1647403456202658701,v/m1vw10zy74w/map,-6.2874471251,5.11585503304,0.165,0.0,0.0,-0.0039489534653,0.999992202853,0,63.3704795837,63.2130355835,90.4828109741,2.42325901985
1647403456516816759,70,1647403456516816759,r200141368/base_front_laser_link,0,1647403456516816759,v/m1vw10zy74w/map,-6.12202966698,5.11906646217,0.165,0.0,0.0,-0.00431726082828,0.999990680586,0,66.8865509033,63.2647743225,90.5999832153,2.44506907463
1647403456911882547,71,1647403456911882547,r200141368/base_front_laser_link,0,1647403456911882547,v/m1vw10zy74w/map,-5.88546261184,5.13050827559,0.165,0.0,0.0,-0.00336998725627,0.999994321577,0,63.994846344,63.2749137878,90.5628509521,2.42931318283
1647403457304758828,72,1647403457304758828,r200141368/base_front_laser_link,0,1647403457304758828,v/m1vw10zy74w/map,-5.66445964485,5.13363508728,0.165,0.0,0.0,-0.00497609957787,0.99998761914,0,63.0964736938,63.2724685669,90.5098953247,2.41247439384
1647403457618830929,73,1647403457618830929,r200141368/base_front_laser_link,0,1647403457618830929,v/m1vw10zy74w/map,-5.46067062263,5.14055916674,0.165,0.0,0.0,-0.00671376015088,0.999977462458,0,61.090133667,63.2429771423,90.4708404541,2.4092874527
1647403457854990449,74,1647403457854990449,r200141368/base_front_laser_link,0,1647403457854990449,v/m1vw10zy74w/map,-5.31934409921,5.13818049454,0.165,0.0,0.0,-0.0070043280736,0.999975469393,0,64.4925765991,63.25963974,90.4515380859,2.3972992897
1647403458012469925,75,1647403458012469925,r200141368/base_front_laser_link,0,1647403458012469925,v/m1vw10zy74w/map,-5.21645075283,5.14614736541,0.165,0.0,0.0,-0.00577249936088,0.999983338987,0,66.1203918457,63.2972831726,90.5085830688,2.40376782417
1647403458091497538,76,1647403458091497538,r200141368/base_front_laser_link,0,1647403458091497538,v/m1vw10zy74w/map,-5.16913239549,5.14557309377,0.165,0.0,0.0,-0.00579097512561,0.999983232163,0,63.2407035828,63.296546936,90.4602737427,2.38790988922
1647403458170549684,77,1647403458170549684,r200141368/base_front_laser_link,0,1647403458170549684,v/m1vw10zy74w/map,-5.12163710298,5.14496984387,0.165,0.0,0.0,-0.00582611081206,0.999983028072,0,55.2466087341,63.1933441162,90.8176193237,2.54142665863
1647403458406577083,78,1647403458406577083,r200141368/base_front_laser_link,0,1647403458406577083,v/m1vw10zy74w/map,-5.00183506751,5.14755386839,0.165,0.0,0.0,-0.00720421380613,0.999974049315,0,59.1620941162,63.1423149109,90.8387908936,2.56549263
1647403458564384631,79,1647403458564384631,r200141368/base_front_laser_link,0,1647403458564384631,v/m1vw10zy74w/map,-4.90752430567,5.14596812185,0.165,0.0,0.0,-0.00734820818856,0.999973001554,0,60.0928535461,63.1041946411,90.8199005127,2.57190179825
1647403458722510720,80,1647403458722510720,r200141368/base_front_laser_link,0,1647403458722510720,v/m1vw10zy74w/map,-4.82408867757,5.1463205372,0.165,0.0,0.0,-0.00817110385342,0.999966615974,0,58.4123840332,63.0462722778,90.8714752197,2.6084022522
1647403458801523923,81,1647403458801523923,r200141368/base_front_laser_link,0,1647403458801523923,v/m1vw10zy74w/map,-4.76747928231,5.14566125106,0.165,0.0,0.0,-0.00737086332686,0.999972834818,0,56.5625457764,62.9672012329,91.03515625,2.68931818008
1647403459117427094,82,1647403459117427094,r200141368/base_front_laser_link,0,1647403459117427094,v/m1vw10zy74w/map,-4.59148265269,5.14365463058,0.165,0.0,0.0,-0.00639749533847,0.999979535817,0,57.9443626404,62.9066848755,91.0941009521,2.72913813591
1647403459196655432,83,1647403459196655432,r200141368/base_front_laser_link,0,1647403459196655432,v/m1vw10zy74w/map,-4.52303509529,5.13906904434,0.165,0.0,0.0,-0.00799069917605,0.999968073854,0,61.2399749756,62.886844635,91.0430526733,2.71873641014
1647403459433673308,84,1647403459433673308,r200141368/base_front_laser_link,0,1647403459433673308,v/m1vw10zy74w/map,-4.3811409259,5.13682970836,0.165,0.0,0.0,-0.00797223001094,0.999968221269,0,60.0457992554,62.8534202576,91.0134735107,2.72001719475
1647403459591223423,85,1647403459591223423,r200141368/base_front_laser_link,0,1647403459591223423,v/m1vw10zy74w/map,-4.2889301041,5.14239152453,0.165,0.0,0.0,-0.0060555827883,0.99998166479,0,63.016494751,62.8553161621,90.9673995972,2.70402693748
1647403459669923962,86,1647403459669923962,r200141368/base_front_laser_link,0,1647403459669923962,v/m1vw10zy74w/map,-4.241610679,5.14181453714,0.165,0.0,0.0,-0.00605809883155,0.999981649551,0,62.5499420166,62.8518066406,90.9171829224,2.68845915794
1647403459749327169,87,1647403459749327169,r200141368/base_front_laser_link,0,1647403459749327169,v/m1vw10zy74w/map,-4.19399452194,5.14125674444,0.165,0.0,0.0,-0.00604559765501,0.999981725208,0,62.880065918,62.8521270752,90.8710250854,2.67296528816
1647403459985435008,88,1647403459985435008,r200141368/base_front_laser_link,0,1647403459985435008,v/m1vw10zy74w/map,-4.0404574237,5.13559065733,0.165,0.0,0.0,-0.00760046803709,0.999971116026,0,65.8278427124,62.8855628967,90.9147262573,2.67638683319
1647403460143557294,89,1647403460143557294,r200141368/base_front_laser_link,0,1647403460143557294,v/m1vw10zy74w/map,-3.94579396469,5.13426225221,0.165,0.0,0.0,-0.00752919159472,0.999971655235,0,64.654083252,62.9052124023,90.9086990356,2.66782951355
1647403460301305317,90,1647403460301305317,r200141368/base_front_laser_link,0,1647403460301305317,v/m1vw10zy74w/map,-3.85564054704,5.12594831729,0.165,0.0,0.0,-0.0108937556219,0.999940661284,0,62.2257232666,62.8977470398,90.8595123291,2.65392303467
1647403460380643332,91,1647403460380643332,r200141368/base_front_laser_link,0,1647403460380643332,v/m1vw10zy74w/map,-3.80710274402,5.12759666992,0.165,0.0,0.0,-0.0090173027809,0.999959343299,0,60.0686759949,62.8669967651,90.8341827393,2.65573048592
1647403460537938257,92,1647403460537938257,r200141368/base_front_laser_link,0,1647403460537938257,v/m1vw10zy74w/map,-3.71279949876,5.12653330046,0.165,0.0,0.0,-0.00860203060736,0.99996300185,0,63.325969696,62.8719291687,90.7969894409,2.64168643951
1647403460694773539,93,1647403460694773539,r200141368/base_front_laser_link,0,1647403460694773539,v/m1vw10zy74w/map,-3.62113117871,5.12428001895,0.165,0.0,0.0,-0.00862586200253,0.99996279656,0,60.4486503601,62.8461494446,90.7640686035,2.63930678368
1647403460773799112,94,1647403460773799112,r200141368/base_front_laser_link,0,1647403460773799112,v/m1vw10zy74w/map,-3.5702408719,5.12352988054,0.165,0.0,0.0,-0.00855226464659,0.999963428716,0,59.6729202271,62.8127479553,90.7487716675,2.64534091949
1647403460852732273,95,1647403460852732273,r200141368/base_front_laser_link,0,1647403460852732273,v/m1vw10zy74w/map,-3.52306933213,5.12372904767,0.165,0.0,0.0,-0.00788812764712,0.999968888237,0,64.8288650513,62.8337478638,90.751991272,2.63941431046
1647403461248048517,96,1647403461248048517,r200141368/base_front_laser_link,0,1647403461248048517,v/m1vw10zy74w/map,-3.3002845102,5.14177424585,0.165,0.0,0.0,-0.00178976788439,0.999998398364,0,64.5327148438,62.8512649536,90.7451400757,2.63129210472
1647403461484609970,97,1647403461484609970,r200141368/base_front_laser_link,0,1647403461484609970,v/m1vw10zy74w/map,-3.16046427631,5.14427955005,0.165,0.0,0.0,-0.00174282668326,0.999998481276,0,65.4156570435,62.8774337769,90.7688674927,2.6304795742
1647403461562664293,98,1647403461562664293,r200141368/base_front_laser_link,0,1647403461562664293,v/m1vw10zy74w/map,-3.11008128664,5.14689136603,0.165,0.0,0.0,-0.0013296935254,0.999999115957,0,65.7877502441,62.906829834,90.8067855835,2.6333193779
1647403461721460264,99,1647403461721460264,r200141368/base_front_laser_link,0,1647403461721460264,v/m1vw10zy74w/map,-3.01501556822,5.14662872091,0.165,0.0,0.0,-0.00133613327897,0.999999107374,0,65.5993041992,62.9337539673,90.835105896,2.63378453255
1647403461879290009,100,1647403461879290009,r200141368/base_front_laser_link,0,1647403461879290009,v/m1vw10zy74w/map,-2.91933094428,5.15920114356,0.165,0.0,0.0,0.00145439514862,0.999998942367,0,62.8254356384,62.9326820374,90.7944946289,2.62060475349
1647403462193865130,101,1647403462193865130,r200141368/base_front_laser_link,0,1647403462193865130,v/m1vw10zy74w/map,-2.7226421437,5.1617514998,0.165,0.0,0.0,0.00101484942416,0.99999948504,0,61.4702911377,62.9183425903,90.7531967163,2.61161637306
1647403462352689924,102,1647403462352689924,r200141368/base_front_laser_link,0,1647403462352689924,v/m1vw10zy74w/map,-2.65131187558,5.15758986593,0.165,0.0,0.0,6.48067398721e-05,0.9999999979,0,65.385269165,62.9422950745,90.7726745605,2.61012578011
1647403462667556274,103,1647403462667556274,r200141368/base_front_laser_link,0,1647403462667556274,v/m1vw10zy74w/map,-2.46605922439,5.16025323115,0.165,0.0,0.0,-0.000627385124532,0.999999803194,0,63.1971893311,62.9447441101,90.7373809814,2.5975446701
1647403462746722095,104,1647403462746722095,r200141368/base_front_laser_link,0,1647403462746722095,v/m1vw10zy74w/map,-2.41510093632,5.15926051516,0.165,0.0,0.0,-0.00128139444067,0.999999179014,0,61.3476638794,62.9295349121,90.6986999512,2.58972048759
1647403463219807747,105,1647403463219807747,r200141368/base_front_laser_link,0,1647403463219807747,v/m1vw10zy74w/map,-2.14166833798,5.1547495141,0.165,0.0,0.0,-0.00391358404084,0.999992341901,0,63.582649231,62.9356956482,90.6701126099,2.57813954353
1647403463455922890,106,1647403463455922890,r200141368/base_front_laser_link,0,1647403463455922890,v/m1vw10zy74w/map,-2.00003685772,5.15746211504,0.165,0.0,0.0,-0.00114102667147,0.999999349029,0,62.7551422119,62.934009552,90.6320343018,2.56600904465
1647403463692831208,107,1647403463692831208,r200141368/base_front_laser_link,0,1647403463692831208,v/m1vw10zy74w/map,-1.85369959675,5.15601270113,0.165,0.0,0.0,-0.00148610262759,0.999998895749,0,62.8246421814,62.9329986572,90.5950317383,2.55401206017
1647403463851185717,108,1647403463851185717,r200141368/base_front_laser_link,0,1647403463851185717,v/m1vw10zy74w/map,-1.75207463147,5.15763572616,0.165,0.0,0.0,-0.00263798380626,0.999996520515,0,59.1583137512,62.8983650208,90.6015930176,2.56774163246
1647403464245107523,109,1647403464245107523,r200141368/base_front_laser_link,0,1647403464245107523,v/m1vw10zy74w/map,-1.52153431783,5.15018536876,0.165,0.0,0.0,-0.00466092804852,0.999989137816,0,58.5173377991,62.8585395813,90.628074646,2.58984422684
1647403464561268965,110,1647403464561268965,r200141368/base_front_laser_link,0,1647403464561268965,v/m1vw10zy74w/map,-1.33457396968,5.14889071967,0.165,0.0,0.0,-0.00409958299598,0.999991596674,0,58.8546028137,62.822467804,90.6401824951,2.60590600967
1647403464797913996,111,1647403464797913996,r200141368/base_front_laser_link,0,1647403464797913996,v/m1vw10zy74w/map,-1.17581589353,5.14471057686,0.165,0.0,0.0,-0.00413826808233,0.999991437332,0,57.7114524841,62.7768325806,90.6929702759,2.63871264458
1647403465034727501,112,1647403465034727501,r200141368/base_front_laser_link,0,1647403465034727501,v/m1vw10zy74w/map,-1.05070990671,5.13785700675,0.165,0.0,0.0,-0.00416318502444,0.999991333908,0,58.8351669312,62.7419509888,90.7007904053,2.65294742584
1647403465428067728,113,1647403465428067728,r200141368/base_front_laser_link,0,1647403465428067728,v/m1vw10zy74w/map,-0.812589843929,5.13961466636,0.165,0.0,0.0,-0.00263112852834,0.999996538575,0,65.7251205444,62.768119812,90.7358779907,2.65591979027
1647403465664771351,114,1647403465664771351,r200141368/base_front_laser_link,0,1647403465664771351,v/m1vw10zy74w/map,-0.666946417906,5.14209374342,0.165,0.0,0.0,-0.00157232472045,0.999998763897,0,61.3424911499,62.7557220459,90.6984786987,2.64758491516
1647403465978644882,115,1647403465978644882,r200141368/base_front_laser_link,0,1647403465978644882,v/m1vw10zy74w/map,-0.467065024054,5.1392654466,0.165,0.0,0.0,-0.00297804624362,0.99999556561,0,59.8410072327,62.730594635,90.680305481,2.64990377426
1647403466136708147,116,1647403466136708147,r200141368/base_front_laser_link,0,1647403466136708147,v/m1vw10zy74w/map,-0.372394340917,5.13889101704,0.165,0.0,0.0,-0.00285651737754,0.999995920146,0,56.7823066711,62.6797561646,90.7652282715,2.69515633583
1647403466293761677,117,1647403466293761677,r200141368/base_front_laser_link,0,1647403466293761677,v/m1vw10zy74w/map,-0.287789277951,5.13724078479,0.165,0.0,0.0,-0.00268469169771,0.999996396209,0,56.4692840576,62.6271247864,90.8586425781,2.74383807182
1647403466451902884,118,1647403466451902884,r200141368/base_front_laser_link,0,1647403466451902884,v/m1vw10zy74w/map,-0.193165698103,5.13693183852,0.165,0.0,0.0,-0.00255710083074,0.999996730612,0,55.8401756287,62.5700912476,90.9764785767,2.80212879181
1647403466528875568,119,1647403466528875568,r200141368/base_front_laser_link,0,1647403466528875568,v/m1vw10zy74w/map,-0.146935179631,5.13698021698,0.165,0.0,0.0,-0.00236904799588,0.999997193802,0,56.7673187256,62.521736145,91.0422363281,2.84016633034
1647403466686855618,120,1647403466686855618,r200141368/base_front_laser_link,0,1647403466686855618,v/m1vw10zy74w/map,-0.0629221829884,5.13712673402,0.165,0.0,0.0,-0.00371485507719,0.999993099902,0,53.8704528809,62.4502372742,91.2571029663,2.93562173843
1647403466843966488,121,1647403466843966488,r200141368/base_front_laser_link,0,1647403466843966488,v/m1vw10zy74w/map,0.0309606574308,5.13742775299,0.165,0.0,0.0,-0.00307926831453,0.999995259042,0,56.4564056396,62.4011077881,91.3213195801,2.97340345383
1647403467000888912,122,1647403467000888912,r200141368/base_front_laser_link,0,1647403467000888912,v/m1vw10zy74w/map,0.142316061205,5.14175087912,0.165,0.0,0.0,-0.000386772334497,0.999999925204,0,57.1617355347,62.3585090637,91.3544311523,2.99863958359
1647403467316789184,123,1647403467316789184,r200141368/base_front_laser_link,0,1647403467316789184,v/m1vw10zy74w/map,0.335439118454,5.14434188119,0.165,0.0,0.0,0.000645319369965,0.999999791781,0,57.1823768616,62.3167686462,91.3839187622,3.02238368988
1647403467709908832,124,1647403467709908832,r200141368/base_front_laser_link,0,1647403467709908832,v/m1vw10zy74w/map,0.554141383982,5.15323841805,0.165,0.0,0.0,0.00155852949802,0.999998785492,0,57.0683174133,62.2747802734,91.4144515991,3.04655623436
1647403467945999762,125,1647403467945999762,r200141368/base_front_laser_link,0,1647403467945999762,v/m1vw10zy74w/map,0.681565215676,5.16234670868,0.165,0.0,0.0,0.00251755526466,0.999996830953,0,55.4837150574,62.2208824158,91.5030975342,3.09407067299
1647403468340822154,126,1647403468340822154,r200141368/base_front_laser_link,0,1647403468340822154,v/m1vw10zy74w/map,0.932797032686,5.13862569272,0.165,0.0,0.0,-0.0112825261363,0.999936350276,0,57.3832015991,62.1827926636,91.5173568726,3.11152243614
1647403468813740685,127,1647403468813740685,r200141368/base_front_laser_link,0,1647403468813740685,v/m1vw10zy74w/map,1.19486438659,5.08530672437,0.165,0.0,0.0,-0.036499300519,0.999333678539,0,50.0507736206,62.0880088806,91.9265594482,3.27951645851
1647403469051817398,128,1647403469051817398,r200141368/base_front_laser_link,0,1647403469051817398,v/m1vw10zy74w/map,1.34333178637,5.05345709127,0.165,0.0,0.0,-0.0521513229333,0.998639193861,0,48.1287727356,61.9797973633,92.4505081177,3.49023604393
1647403469603247492,129,1647403469603247492,r200141368/base_front_laser_link,0,1647403469603247492,v/m1vw10zy74w/map,1.64893070522,4.94218697995,0.165,0.0,0.0,-0.0987522165357,0.995112053856,0,52.2508277893,61.9049606323,92.6445465088,3.57986235619
1647403469917883921,130,1647403469917883921,r200141368/base_front_laser_link,0,1647403469917883921,v/m1vw10zy74w/map,1.83431075755,4.84869048859,0.165,0.0,0.0,-0.133966422032,0.990985871629,0,52.3420524597,61.8319625854,92.8198776245,3.66263842583
1647403470233863363,131,1647403470233863363,r200141368/base_front_laser_link,0,1647403470233863363,v/m1vw10zy74w/map,1.981933324,4.7103647161,0.165,0.0,0.0,-0.186962423794,0.982367065861,0,51.9639358521,61.7572021484,93.0022964478,3.74836325645
1647403470549753596,132,1647403470549753596,r200141368/base_front_laser_link,0,1647403470549753596,v/m1vw10zy74w/map,2.11056549392,4.54357254466,0.165,0.0,0.0,-0.249663896063,0.968332555996,0,50.9127693176,61.6756668091,93.2278137207,3.85071539879
1647403470706990134,133,1647403470706990134,r200141368/base_front_laser_link,0,1647403470706990134,v/m1vw10zy74w/map,2.16473475503,4.44963487783,0.165,0.0,0.0,-0.284113525518,0.958790646918,0,51.0931053162,61.5966911316,93.4276046753,3.94363689423
1647403470863919649,134,1647403470863919649,r200141368/base_front_laser_link,0,1647403470863919649,v/m1vw10zy74w/map,2.21380816219,4.35540306883,0.165,0.0,0.0,-0.316959812844,0.948438968538,0,49.7736701965,61.5091133118,93.6847000122,4.05852746964
1647403471101265123,135,1647403471101265123,r200141368/base_front_laser_link,0,1647403471101265123,v/m1vw10zy74w/map,2.26725222778,4.19285706869,0.165,0.0,0.0,-0.372999179782,0.92783167217,0,48.648223877,61.4145469666,93.98802948,4.19116067886
1647403471259008894,136,1647403471259008894,r200141368/base_front_laser_link,0,1647403471259008894,v/m1vw10zy74w/map,2.28623154027,4.08846806573,0.165,0.0,0.0,-0.409845163655,0.912155108427,0,53.0729064941,61.3536605835,94.0619735718,4.2361035347
1647403471416834447,137,1647403471416834447,r200141368/base_front_laser_link,0,1647403471416834447,v/m1vw10zy74w/map,2.29845473231,3.96549224714,0.165,0.0,0.0,-0.450573687069,0.892739241056,0,54.9291725159,61.3071060181,94.0748062134,4.25589895248
1647403471653834475,138,1647403471653834475,r200141368/base_front_laser_link,0,1647403471653834475,v/m1vw10zy74w/map,2.29251463324,3.80523533728,0.165,0.0,0.0,-0.503920936712,0.863749784106,0,53.8172798157,61.2532234192,94.1165466309,4.287774086
1647403471890865799,139,1647403471890865799,r200141368/base_front_laser_link,0,1647403471890865799,v/m1vw10zy74w/map,2.27680921388,3.64988689712,0.165,0.0,0.0,-0.55119848968,0.83437415167,0,52.2637863159,61.1890106201,94.2070617676,4.33934926987
1647403472047816192,140,1647403472047816192,r200141368/base_front_laser_link,0,1647403472047816192,v/m1vw10zy74w/map,2.26526265811,3.54498790864,0.165,0.0,0.0,-0.578769023215,0.815491519127,0,51.8085021973,61.1224822998,94.3086776733,4.39539813995
1647403472283984667,141,1647403472283984667,r200141368/base_front_laser_link,0,1647403472283984667,v/m1vw10zy74w/map,2.24758321939,3.39704033899,0.165,0.0,0.0,-0.611572012238,0.791188772574,0,51.089389801,61.0518264771,94.4317626953,4.4599776268
1647403472599068535,142,1647403472599068535,r200141368/base_front_laser_link,0,1647403472599068535,v/m1vw10zy74w/map,2.23258389381,3.19730318248,0.165,0.0,0.0,-0.643511740894,0.765436241193,0,53.7780647278,61.0009613037,94.4579925537,4.48567771912
1647403472756036304,143,1647403472756036304,r200141368/base_front_laser_link,0,1647403472756036304,v/m1vw10zy74w/map,2.22962914604,3.10042745384,0.165,0.0,0.0,-0.65545495617,0.755234268577,0,54.2786941528,60.9542808533,94.469078064,4.50493144989
1647403472834918392,144,1647403472834918392,r200141368/base_front_laser_link,0,1647403472834918392,v/m1vw10zy74w/map,2.22775667665,3.05232090436,0.165,0.0,0.0,-0.659730317689,0.751502433743,0,54.5489349365,60.9101066589,94.4721069336,4.52066659927
1647403473149922207,145,1647403473149922207,r200141368/base_front_laser_link,0,1647403473149922207,v/m1vw10zy74w/map,2.23733792985,2.86056633747,0.165,0.0,0.0,-0.669630466319,0.742694444962,0,52.4118499756,60.8518981934,94.5307617188,4.55962133408
1647403473464104871,146,1647403473464104871,r200141368/base_front_laser_link,0,1647403473464104871,v/m1vw10zy74w/map,2.24124453157,2.68379546579,0.165,0.0,0.0,-0.674677091066,0.738113014918,0,50.87840271,60.7840499878,94.6375656128,4.61783695221
1647403473699834498,147,1647403473699834498,r200141368/base_front_laser_link,0,1647403473699834498,v/m1vw10zy74w/map,2.25670629705,2.54193960276,0.165,0.0,0.0,-0.673480597875,0.739204900069,0,51.0649108887,60.7183799744,94.7311782837,4.67093276978
1647403473858314175,148,1647403473858314175,r200141368/base_front_laser_link,0,1647403473858314175,v/m1vw10zy74w/map,2.27808359365,2.447263646,0.165,0.0,0.0,-0.671438891024,0.741059927145,0,53.0162353516,60.6666908264,94.7597732544,4.69769477844
1647403474015697360,149,1647403474015697360,r200141368/base_front_laser_link,0,1647403474015697360,v/m1vw10zy74w/map,2.29465003827,2.35260029297,0.165,0.0,0.0,-0.668776050774,0.743463915676,0,52.7669219971,60.614025116,94.7924041748,4.726126194
1647403474329741620,150,1647403474329741620,r200141368/base_front_laser_link,0,1647403474329741620,v/m1vw10zy74w/map,2.32691300276,2.16936296795,0.165,0.0,0.0,-0.663823896534,0.747888918484,0,54.8454666138,60.5758209229,94.7768630981,4.7336807251
1647403474488080951,151,1647403474488080951,r200141368/base_front_laser_link,0,1647403474488080951,v/m1vw10zy74w/map,2.34536381155,2.0761650585,0.165,0.0,0.0,-0.660340874126,0.750965997871,0,58.6151809692,60.5629234314,94.724899292,4.72065973282
1647403474722002485,152,1647403474722002485,r200141368/base_front_laser_link,0,1647403474722002485,v/m1vw10zy74w/map,2.36111575635,1.95087717763,0.165,0.0,0.0,-0.656045004049,0.754721771689,0,57.0731697083,60.5401153564,94.6807861328,4.71355628967
1647403474880196608,153,1647403474880196608,r200141368/base_front_laser_link,0,1647403474880196608,v/m1vw10zy74w/map,2.38749912098,1.85900265184,0.165,0.0,0.0,-0.649576713621,0.760296056231,0,57.1734161377,60.5182533264,94.6361160278,4.70595407486
1647403475116286031,154,1647403475116286031,r200141368/base_front_laser_link,0,1647403475116286031,v/m1vw10zy74w/map,2.43264602297,1.72038649835,0.165,0.0,0.0,-0.638943448942,0.769253709159,0,58.0144920349,60.5020980835,94.5869750977,4.69495916367
1647403475274894675,155,1647403475274894675,r200141368/base_front_laser_link,0,1647403475274894675,v/m1vw10zy74w/map,2.46658328,1.63044271097,0.165,0.0,0.0,-0.630624036836,0.776088477021,0,56.9776573181,60.4795074463,94.5443725586,4.68828964233
1647403475512013532,156,1647403475512013532,r200141368/base_front_laser_link,0,1647403475512013532,v/m1vw10zy74w/map,2.52290392166,1.48862711876,0.165,0.0,0.0,-0.617807983626,0.786328999445,0,58.2860069275,60.4655342102,94.4950866699,4.6765165329
1647403475747898126,157,1647403475747898126,r200141368/base_front_laser_link,0,1647403475747898126,v/m1vw10zy74w/map,2.58158628689,1.35764030946,0.165,0.0,0.0,-0.605035659198,0.796198374213,0,57.9733352661,60.449760437,94.4472045898,4.66581392288
1647403475905929355,158,1647403475905929355,r200141368/base_front_laser_link,0,1647403475905929355,v/m1vw10zy74w/map,2.62153146575,1.28515481887,0.165,0.0,0.0,-0.597271178364,0.802039362809,0,60.3673400879,60.4492416382,94.4023361206,4.65102958679
1647403476064011663,159,1647403476064011663,r200141368/base_front_laser_link,0,1647403476064011663,v/m1vw10zy74w/map,2.66406820357,1.19929628922,0.165,0.0,0.0,-0.588954560051,0.808166150117,0,55.6210098267,60.4190673828,94.3752670288,4.65206670761
1647403476299064666,160,1647403476299064666,r200141368/base_front_laser_link,0,1647403476299064666,v/m1vw10zy74w/map,2.73462992072,1.0761249194,0.165,0.0,0.0,-0.57617831893,0.817324014572,0,57.1904067993,60.3990135193,94.3324584961,4.64448165894
1647403476535979328,161,1647403476535979328,r200141368/base_front_laser_link,0,1647403476535979328,v/m1vw10zy74w/map,2.80743171425,0.941761957141,0.165,0.0,0.0,-0.564406696352,0.825496869232,0,57.9261474609,60.3837471008,94.2860794067,4.63410997391
1647403476693191560,162,1647403476693191560,r200141368/base_front_laser_link,0,1647403476693191560,v/m1vw10zy74w/map,2.86881455966,0.820414021229,0.165,0.0,0.0,-0.556495984126,0.830850299183,0,58.2731285095,60.3708000183,94.2390289307,4.62274217606
1647403476929207145,163,1647403476929207145,r200141368/base_front_laser_link,0,1647403476929207145,v/m1vw10zy74w/map,2.97596288978,0.630333130337,0.165,0.0,0.0,-0.543213087086,0.839594867789,0,56.9626426697,60.3500175476,94.1986694336,4.61621809006
1647403477087089207,164,1647403477087089207,r200141368/base_front_laser_link,0,1647403477087089207,v/m1vw10zy74w/map,3.05508230717,0.486341863601,0.165,0.0,0.0,-0.53560213767,0.844470455447,0,53.5917854309,60.3090591431,94.2053604126,4.63209915161
1647403477243660215,165,1647403477243660215,r200141368/base_front_laser_link,0,1647403477243660215,v/m1vw10zy74w/map,3.15395797059,0.324535633705,0.165,0.0,0.0,-0.525198323835,0.850979859128,0,56.1874084473,60.2842292786,94.1715545654,4.62910795212
1647403477479608580,166,1647403477479608580,r200141368/base_front_laser_link,0,1647403477479608580,v/m1vw10zy74w/map,3.34631177599,0.0771172523323,0.165,0.0,0.0,-0.499049381026,0.866573548695,0,59.4389381409,60.2791671753,94.1259918213,4.61560726166
1647403477637099388,167,1647403477637099388,r200141368/base_front_laser_link,0,1647403477637099388,v/m1vw10zy74w/map,3.49046435351,-0.0797206236909,0.165,0.0,0.0,-0.477419276219,0.878675614032,0,59.397644043,60.2739219666,94.0807342529,4.60227012634
1647403477873057137,168,1647403477873057137,r200141368/base_front_laser_link,0,1647403477873057137,v/m1vw10zy74w/map,3.72592707532,-0.290566856566,0.165,0.0,0.0,-0.442112801135,0.896959458991,0,63.623588562,60.2937431335,94.0810852051,4.59578132629
1647403478109244379,169,1647403478109244379,r200141368/base_front_laser_link,0,1647403478109244379,v/m1vw10zy74w/map,3.98155017416,-0.502769666474,0.165,0.0,0.0,-0.408987755443,0.912539870854,0,55.0763549805,60.2630500793,94.0618591309,4.59960317612
1647403478345281573,170,1647403478345281573,r200141368/base_front_laser_link,0,1647403478345281573,v/m1vw10zy74w/map,4.2313201009,-0.702939945058,0.165,0.0,0.0,-0.381441300876,0.924393062493,0,60.1240119934,60.2622375488,94.0204391479,4.58606767654
1647403478502081589,171,1647403478502081589,r200141368/base_front_laser_link,0,1647403478502081589,v/m1vw10zy74w/map,4.41212238374,-0.840572317173,0.165,0.0,0.0,-0.366132988634,0.930562536659,0,61.152015686,60.2674102783,93.9868392944,4.57314157486
1647403478659333882,172,1647403478659333882,r200141368/base_front_laser_link,0,1647403478659333882,v/m1vw10zy74w/map,4.58888010083,-0.96632113726,0.165,0.0,0.0,-0.353136820059,0.935571689567,0,59.5212059021,60.2630996704,93.9436416626,4.5601811409
1647403478817189834,173,1647403478817189834,r200141368/base_front_laser_link,0,1647403478817189834,v/m1vw10zy74w/map,4.76868343614,-1.10932426929,0.165,0.0,0.0,-0.346833150554,0.937926844523,0,63.8113555908,60.2834892273,93.9482879639,4.55493211746
1647403478895218296,174,1647403478895218296,r200141368/base_front_laser_link,0,1647403478895218296,v/m1vw10zy74w/map,4.8516080402,-1.17777872317,0.165,0.0,0.0,-0.346640655175,0.937998004358,0,61.5124588013,60.290512085,93.918838501,4.54277420044
1647403479289819579,175,1647403479289819579,r200141368/base_front_laser_link,0,1647403479289819579,v/m1vw10zy74w/map,5.29946514375,-1.57139882263,0.165,0.0,0.0,-0.353871033453,0.935294227333,0,59.0887794495,60.2836837769,93.8757324219,4.53068208694
1647403479447197786,176,1647403479447197786,r200141368/base_front_laser_link,0,1647403479447197786,v/m1vw10zy74w/map,5.46763495532,-1.72846822184,0.165,0.0,0.0,-0.363661170571,0.931531294707,0,55.0380172729,60.2540473938,93.8589477539,4.53496551514
1647403479605054741,177,1647403479605054741,r200141368/base_front_laser_link,0,1647403479605054741,v/m1vw10zy74w/map,5.61280942347,-1.89629409799,0.165,0.0,0.0,-0.378961662398,0.925412372098,0,52.2123680115,60.2088699341,93.8952560425,4.56212949753
1647403479840970794,178,1647403479840970794,r200141368/base_front_laser_link,0,1647403479840970794,v/m1vw10zy74w/map,5.80982837329,-2.1358896937,0.165,0.0,0.0,-0.40291072575,0.915239284054,0,53.6142997742,60.1720275879,93.8997955322,4.57592058182
1647403479999236434,179,1647403479999236434,r200141368/base_front_laser_link,0,1647403479999236434,v/m1vw10zy74w/map,5.90564384453,-2.28739235412,0.165,0.0,0.0,-0.420590396323,0.907250637102,0,55.7822227478,60.1476402283,93.8721542358,4.57483673096
1647403480157122645,180,1647403480157122645,r200141368/base_front_laser_link,0,1647403480157122645,v/m1vw10zy74w/map,5.96597910123,-2.4161140741,0.165,0.0,0.0,-0.440116972504,0.897940449314,0,56.2879257202,60.1263160706,93.8396835327,4.57112264633
1647403480394173042,181,1647403480394173042,r200141368/base_front_laser_link,0,1647403480394173042,v/m1vw10zy74w/map,6.03606755666,-2.56765761318,0.165,0.0,0.0,-0.463531216292,0.886080589745,0,52.7666244507,60.0858802795,93.8588943481,4.59100532532
1647403480629262180,182,1647403480629262180,r200141368/base_front_laser_link,0,1647403480629262180,v/m1vw10zy74w/map,6.0607227332,-2.65499361729,0.165,0.0,0.0,-0.485441762551,0.874269006183,0,48.7762947083,60.0240783691,93.9863204956,4.65408039093
1647403480787187614,183,1647403480787187614,r200141368/base_front_laser_link,0,1647403480787187614,v/m1vw10zy74w/map,6.06648819857,-2.70358251668,0.165,0.0,0.0,-0.498017305677,0.867167090731,0,52.2855033875,59.9820213318,94.010848999,4.67627716064
1647403480945373815,184,1647403480945373815,r200141368/base_front_laser_link,0,1647403480945373815,v/m1vw10zy74w/map,6.06604201644,-2.75009696634,0.165,0.0,0.0,-0.511585797931,0.859232198742,0,56.9711380005,59.9657440186,93.97215271,4.66880321503
1647403481104180082,185,1647403481104180082,r200141368/base_front_laser_link,0,1647403481104180082,v/m1vw10zy74w/map,6.07394823739,-2.80509603563,0.165,0.0,0.0,-0.528050567453,0.849212928665,0,55.3211975098,59.940776825,93.9465942383,4.66860532761
1647403482208175176,186,1647403482208175176,r200141368/base_front_laser_link,0,1647403482208175176,v/m1vw10zy74w/map,5.91547164335,-3.03778244569,0.165,0.0,0.0,-0.66001664212,0.751250978119,0,54.740852356,59.9129676819,93.9275894165,4.67154026031
1647403482364399030,187,1647403482364399030,r200141368/base_front_laser_link,0,1647403482364399030,v/m1vw10zy74w/map,5.92290652497,-3.03712751923,0.165,0.0,0.0,-0.656310251548,0.754491122356,0,54.5575218201,59.8844833374,93.9106140137,4.67537641525
1647403482601376175,188,1647403482601376175,r200141368/base_front_laser_link,0,1647403482601376175,v/m1vw10zy74w/map,5.95225559341,-3.03207726598,0.165,0.0,0.0,-0.640953330295,0.76757985147,0,54.3051872253,59.8549613953,93.8966217041,4.6805524826
1647403486144457514,189,1647403486144457514,r200141368/base_front_laser_link,0,1647403486144457514,v/m1vw10zy74w/map,6.0230451888,-3.09957490668,0.165,0.0,0.0,-0.614131371059,0.789203813397,0,55.1999549866,59.8304634094,93.8715209961,4.68035364151
1647403486302347131,190,1647403486302347131,r200141368/base_front_laser_link,0,1647403486302347131,v/m1vw10zy74w/map,6.02415971885,-3.12162090136,0.165,0.0,0.0,-0.616419851851,0.787417656802,0,55.9159011841,59.809967041,93.8397827148,4.67660617828
1647403486460441231,191,1647403486460441231,r200141368/base_front_laser_link,0,1647403486460441231,v/m1vw10zy74w/map,6.02562462802,-3.14620504612,0.165,0.0,0.0,-0.61877380125,0.785569209482,0,57.0650787354,59.7956695557,93.8013305664,4.66855239868
1647403486697447184,192,1647403486697447184,r200141368/base_front_laser_link,0,1647403486697447184,v/m1vw10zy74w/map,6.02884768258,-3.18736351624,0.165,0.0,0.0,-0.622143417715,0.782903294024,0,54.4060287476,59.7677459717,93.7852783203,4.67251253128
1647403486933473438,193,1647403486933473438,r200141368/base_front_laser_link,0,1647403486933473438,v/m1vw10zy74w/map,6.03480489897,-3.23326541234,0.165,0.0,0.0,-0.624484879443,0.781036897558,0,53.6732902527,59.736328125,93.7789916992,4.68088722229
1647403487092251038,194,1647403487092251038,r200141368/base_front_laser_link,0,1647403487092251038,v/m1vw10zy74w/map,6.04152507697,-3.26670932201,0.165,0.0,0.0,-0.624897512261,0.780706794622,0,53.1659698486,59.7026367188,93.7800064087,4.69245624542
1647403487250410076,195,1647403487250410076,r200141368/base_front_laser_link,0,1647403487250410076,v/m1vw10zy74w/map,6.05022696066,-3.30237916344,0.165,0.0,0.0,-0.624541136198,0.780991913656,0,52.5806503296,59.6662979126,93.790222168,4.70797395706
1647403487485660238,196,1647403487485660238,r200141368/base_front_laser_link,0,1647403487485660238,v/m1vw10zy74w/map,6.05411657634,-3.35152236794,0.165,0.0,0.0,-0.624950110839,0.78066469048,0,53.3825874329,59.6344032288,93.7861251831,4.71724081039
1647403487643496346,197,1647403487643496346,r200141368/base_front_laser_link,0,1647403487643496346,v/m1vw10zy74w/map,6.06678391346,-3.39228911105,0.165,0.0,0.0,-0.623172853314,0.782084135431,0,55.1716537476,59.6118621826,93.7596511841,4.71592950821
1647403487721493683,198,1647403487721493683,r200141368/base_front_laser_link,0,1647403487721493683,v/m1vw10zy74w/map,6.07353982626,-3.41335577364,0.165,0.0,0.0,-0.622185298439,0.782870011181,0,54.6583366394,59.586971283,93.7382507324,4.71709346771
1647403487800476381,199,1647403487800476381,r200141368/base_front_laser_link,0,1647403487800476381,v/m1vw10zy74w/map,6.08063948044,-3.43515837761,0.165,0.0,0.0,-0.62113900586,0.783700411764,0,53.8178024292,59.5581245422,93.7267608643,4.72287797928
1647403487957511696,200,1647403487957511696,r200141368/base_front_laser_link,0,1647403487957511696,v/m1vw10zy74w/map,6.09566688676,-3.48053446572,0.165,0.0,0.0,-0.618930525528,0.785445736235,0,55.3871078491,59.5373725891,93.6980743408,4.7202334404
1647403488036478950,201,1647403488036478950,r200141368/base_front_laser_link,0,1647403488036478950,v/m1vw10zy74w/map,6.1036047915,-3.50432458597,0.165,0.0,0.0,-0.617798922506,0.786336118559,0,54.0182914734,59.5100517273,93.6834411621,4.72446250916
1647403488193382903,202,1647403488193382903,r200141368/base_front_laser_link,0,1647403488193382903,v/m1vw10zy74w/map,6.12002844414,-3.5528244579,0.165,0.0,0.0,-0.615479497626,0.788152896335,0,54.0976066589,59.4833908081,93.6675109863,4.72803926468
1647403488351472647,203,1647403488351472647,r200141368/base_front_laser_link,0,1647403488351472647,v/m1vw10zy74w/map,6.13341992474,-3.59604838929,0.165,0.0,0.0,-0.61678949672,0.787128145053,0,55.9731063843,59.4661827087,93.6345214844,4.72277879715
1647403488508790035,204,1647403488508790035,r200141368/base_front_laser_link,0,1647403488508790035,v/m1vw10zy74w/map,6.15064807735,-3.64946336092,0.165,0.0,0.0,-0.614746869279,0.788724468184,0,51.4578552246,59.427116394,93.659942627,4.74427509308
1647403488586383870,205,1647403488586383870,r200141368/base_front_laser_link,0,1647403488586383870,v/m1vw10zy74w/map,6.15943594818,-3.67676944023,0.165,0.0,0.0,-0.613771288121,0.789483885762,0,54.2394828796,59.4019355774,93.6413497925,4.74647140503
1647403488744520014,206,1647403488744520014,r200141368/base_front_laser_link,0,1647403488744520014,v/m1vw10zy74w/map,6.17744771964,-3.73408904154,0.165,0.0,0.0,-0.612056831651,0.790813780121,0,51.4161453247,59.3633537292,93.6654281616,4.76735877991
1647403488822553371,207,1647403488822553371,r200141368/base_front_laser_link,0,1647403488822553371,v/m1vw10zy74w/map,6.18662819647,-3.76367122777,0.165,0.0,0.0,-0.611282305244,0.79141262518,0,53.7931251526,59.3365745544,93.6510314941,4.77148628235
1647403488981434536,208,1647403488981434536,r200141368/base_front_laser_link,0,1647403488981434536,v/m1vw10zy74w/map,6.20726853882,-3.82143674811,0.165,0.0,0.0,-0.609803573858,0.792552585833,0,54.8949432373,59.315322876,93.6250457764,4.76990747452
1647403489058672149,209,1647403489058672149,r200141368/base_front_laser_link,0,1647403489058672149,v/m1vw10zy74w/map,6.2168427364,-3.85186445484,0.165,0.0,0.0,-0.609178377002,0.793033230699,0,54.049030304,59.2902450562,93.6072616577,4.77233934402
1647403489295388598,210,1647403489295388598,r200141368/base_front_laser_link,0,1647403489295388598,v/m1vw10zy74w/map,6.24403393166,-3.95058633896,0.165,0.0,0.0,-0.60877383988,0.79334381694,0,56.064453125,59.2749595642,93.5733795166,4.76613950729
1647403489451546503,211,1647403489451546503,r200141368/base_front_laser_link,0,1647403489451546503,v/m1vw10zy74w/map,6.26225142318,-4.01807440927,0.165,0.0,0.0,-0.608707056127,0.793395059111,0,56.477558136,59.2617645264,93.5378952026,4.75871181488
1647403489610495580,212,1647403489610495580,r200141368/base_front_laser_link,0,1647403489610495580,v/m1vw10zy74w/map,6.28820336426,-4.08573469083,0.165,0.0,0.0,-0.608008749069,0.793930325064,0,56.8613967896,59.2504920959,93.5014648438,4.75032329559
1647403489689498871,213,1647403489689498871,r200141368/base_front_laser_link,0,1647403489689498871,v/m1vw10zy74w/map,6.29966911809,-4.12216962909,0.165,0.0,0.0,-0.607765070927,0.79411687966,0,54.1517677307,59.2266693115,93.4825439453,4.75195884705
1647403489845985653,214,1647403489845985653,r200141368/base_front_laser_link,0,1647403489845985653,v/m1vw10zy74w/map,6.31964995178,-4.19635252645,0.165,0.0,0.0,-0.607813341694,0.794079934048,0,55.6705665588,59.2101287842,93.4512557983,4.74704217911
1647403489923511701,215,1647403489923511701,r200141368/base_front_laser_link,0,1647403489923511701,v/m1vw10zy74w/map,6.32974152799,-4.23393977076,0.165,0.0,0.0,-0.607852377109,0.794050053613,0,54.3698883057,59.1877174377,93.4300003052,4.74742698669
1647403490159638418,216,1647403490159638418,r200141368/base_front_laser_link,0,1647403490159638418,v/m1vw10zy74w/map,6.36438480574,-4.34468248704,0.165,0.0,0.0,-0.608479887294,0.793569295499,0,56.2156600952,59.1740226746,93.3961791992,4.74071979523
1647403490317449251,217,1647403490317449251,r200141368/base_front_laser_link,0,1647403490317449251,v/m1vw10zy74w/map,6.38719421023,-4.42769509344,0.165,0.0,0.0,-0.609116128923,0.793081043454,0,55.8435516357,59.158744812,93.3642272949,4.73515987396
1647403490395619680,218,1647403490395619680,r200141368/base_front_laser_link,0,1647403490395619680,v/m1vw10zy74w/map,6.39734626796,-4.46949864881,0.165,0.0,0.0,-0.609627034119,0.792688387243,0,56.6210136414,59.1471557617,93.3293533325,4.7273979187
1647403490553532325,219,1647403490553532325,r200141368/base_front_laser_link,0,1647403490553532325,v/m1vw10zy74w/map,6.41834965097,-4.55555864506,0.165,0.0,0.0,-0.610539447793,0.79198584753,0,57.7162895203,59.1406555176,93.2933883667,4.71757888794
1647403490711679046,220,1647403490711679046,r200141368/base_front_laser_link,0,1647403490711679046,v/m1vw10zy74w/map,6.44509685374,-4.63537364062,0.165,0.0,0.0,-0.610572571354,0.791960311575,0,58.4392051697,59.1374778748,93.2587203979,4.7070813179
1647403490790518910,221,1647403490790518910,r200141368/base_front_laser_link,0,1647403490790518910,v/m1vw10zy74w/map,6.45631519281,-4.68034623707,0.165,0.0,0.0,-0.610881096359,0.791722354182,0,56.9030570984,59.1274147034,93.2238540649,4.69881343842
1647403490947745112,222,1647403490947745112,r200141368/base_front_laser_link,0,1647403490947745112,v/m1vw10zy74w/map,6.4794878293,-4.77195789015,0.165,0.0,0.0,-0.611296629628,0.791401560907,0,58.2770576477,59.1236000061,93.1892929077,4.68856477737
1647403491343462528,223,1647403491343462528,r200141368/base_front_laser_link,0,1647403491343462528,v/m1vw10zy74w/map,6.53559011686,-4.99968201578,0.165,0.0,0.0,-0.61412703064,0.789207190944,0,55.4354972839,59.1071357727,93.1607131958,4.68452596664
1647403491658586987,224,1647403491658586987,r200141368/base_front_laser_link,0,1647403491658586987,v/m1vw10zy74w/map,6.58222681056,-5.19647211987,0.165,0.0,0.0,-0.618554558812,0.785741851866,0,56.2471199036,59.0944252014,93.1282577515,4.67794513702
1647403491973604888,225,1647403491973604888,r200141368/base_front_laser_link,0,1647403491973604888,v/m1vw10zy74w/map,6.61335786636,-5.41605529435,0.165,0.0,0.0,-0.628831152712,0.777541884003,0,56.9464530945,59.0849227905,93.0940933228,4.66972446442
1647403492286947894,226,1647403492286947894,r200141368/base_front_laser_link,0,1647403492286947894,v/m1vw10zy74w/map,6.64483987376,-5.64673713002,0.165,0.0,0.0,-0.63798443666,0.770049257243,0,54.0306549072,59.0626564026,93.0769805908,4.6714425087
1647403492444855497,227,1647403492444855497,r200141368/base_front_laser_link,0,1647403492444855497,v/m1vw10zy74w/map,6.6613621701,-5.76497153486,0.165,0.0,0.0,-0.641399397022,0.767207151622,0,57.4057540894,59.0553894043,93.0426864624,4.66243314743
1647403492601583812,228,1647403492601583812,r200141368/base_front_laser_link,0,1647403492601583812,v/m1vw10zy74w/map,6.68040513113,-5.88734900894,0.165,0.0,0.0,-0.643583237298,0.76537612758,0,52.603679657,59.0272140503,93.0422897339,4.67169189453
1647403492837392820,229,1647403492837392820,r200141368/base_front_laser_link,0,1647403492837392820,v/m1vw10zy74w/map,6.7176439568,-6.07511931508,0.165,0.0,0.0,-0.646073775347,0.763274968022,0,55.6328849792,59.0124588013,93.0130081177,4.66685056686
1647403492994866098,230,1647403492994866098,r200141368/base_front_laser_link,0,1647403492994866098,v/m1vw10zy74w/map,6.73227753369,-6.21055923744,0.165,0.0,0.0,-0.648883380877,0.760887874802,0,57.1469841003,59.0043830872,92.9793167114,4.65831136703
1647403493153751052,231,1647403493153751052,r200141368/base_front_laser_link,0,1647403493153751052,v/m1vw10zy74w/map,6.75377562163,-6.34043418484,0.165,0.0,0.0,-0.648359779117,0.761334090149,0,55.4341659546,58.9889945984,92.9513626099,4.65412378311
1647403493388953856,232,1647403493388953856,r200141368/base_front_laser_link,0,1647403493388953856,v/m1vw10zy74w/map,6.80410668953,-6.54319753966,0.165,0.0,0.0,-0.643944645287,0.765072084059,0,53.9469146729,58.9673538208,92.9347991943,4.65581464767
1647403493466635042,233,1647403493466635042,r200141368/base_front_laser_link,0,1647403493466635042,v/m1vw10zy74w/map,6.82198348734,-6.6075734162,0.165,0.0,0.0,-0.640613341201,0.767863625311,0,55.7044868469,58.9534072876,92.9055328369,4.65070724487
1647403493546095250,234,1647403493546095250,r200141368/base_front_laser_link,0,1647403493546095250,v/m1vw10zy74w/map,6.8431176883,-6.67379940639,0.165,0.0,0.0,-0.636138692858,0.771574729659,0,55.0788345337,58.936920166,92.8798294067,4.64763689041
1647403493703595296,235,1647403493703595296,r200141368/base_front_laser_link,0,1647403493703595296,v/m1vw10zy74w/map,6.89695902441,-6.80918270807,0.165,0.0,0.0,-0.623569577147,0.78176785714,0,57.3187294006,58.930065155,92.846862793,4.6389336586
1647403493781726473,236,1647403493781726473,r200141368/base_front_laser_link,0,1647403493781726473,v/m1vw10zy74w/map,6.92787227614,-6.87300651367,0.165,0.0,0.0,-0.615419332687,0.788199876272,0,58.5320739746,58.9283866882,92.8158874512,4.62916707993
1647403493939575336,237,1647403493939575336,r200141368/base_front_laser_link,0,1647403493939575336,v/m1vw10zy74w/map,7.00437984587,-6.99644797927,0.165,0.0,0.0,-0.593407396466,0.80490226849,0,54.4196205139,58.9094429016,92.7953186035,4.62862682343
1647403494018727410,238,1647403494018727410,r200141368/base_front_laser_link,0,1647403494018727410,v/m1vw10zy74w/map,7.04726382463,-7.05555643248,0.165,0.0,0.0,-0.58105043511,0.813867551791,0,55.7299041748,58.8961372375,92.7665481567,4.62346935272
1647403494175695848,239,1647403494175695848,r200141368/base_front_laser_link,0,1647403494175695848,v/m1vw10zy74w/map,7.14064860579,-7.16723498285,0.165,0.0,0.0,-0.55404383954,0.832487491718,0,56.9827804565,58.8881645203,92.7344818115,4.61543941498
