%time,field.header.seq,field.header.stamp,field.header.frame_id,field.pose.header.seq,field.pose.header.stamp,field.pose.header.frame_id,field.pose.pose.position.x,field.pose.pose.position.y,field.pose.pose.position.z,field.pose.pose.orientation.x,field.pose.pose.orientation.y,field.pose.pose.orientation.z,field.pose.pose.orientation.w,field.label,field.current_error,field.mean,field.threshold,field.std_dev
1646374205004373067,0,1646374205004373067,r200121355/base_front_laser_link,0,1646374205004373067,v/m1vw10zy74w/map,-10.7558251907,2.88938700557,0.165,0.0,0.0,0.999834613178,-0.0181864315088,0,57.7621574402,57.7621574402,nan,nan
1646374205161332196,1,1646374205161332196,r200121355/base_front_laser_link,0,1646374205161332196,v/m1vw10zy74w/map,-10.7667792273,2.89599844973,0.165,0.0,0.0,0.99990938456,-0.0134618969002,0,56.1261138916,56.9441375732,80.4147033691,1.1568570137
1646374205398315780,2,1646374205398315780,r200121355/base_front_laser_link,0,1646374205398315780,v/m1vw10zy74w/map,-10.7907379547,2.91096376924,0.165,0.0,0.0,0.999995431113,-0.00302287166737,0,58.8241233826,57.5707969666,81.6482391357,1.35914576054
1646374205555348592,3,1646374205555348592,r200121355/base_front_laser_link,0,1646374205555348592,v/m1vw10zy74w/map,-10.8090833943,2.92282027715,0.165,0.0,0.0,0.999987492853,0.00500141348043,0,53.6317939758,56.5860481262,83.3679428101,2.26063203812
1646374205713317542,4,1646374205713317542,r200121355/base_front_laser_link,0,1646374205713317542,v/m1vw10zy74w/map,-10.8300738504,2.93540626262,0.165,0.0,0.0,0.999911714882,0.0132876800491,0,57.5909767151,56.7870330811,82.8130874634,2.00868606567
1646374205870276499,5,1646374205870276499,r200121355/base_front_laser_link,0,1646374205870276499,v/m1vw10zy74w/map,-10.8528952263,2.94846415215,0.165,0.0,0.0,0.999766506871,0.021608603338,0,55.7380256653,56.612197876,82.1530761719,1.84695923328
1646374205949186996,6,1646374205949186996,r200121355/base_front_laser_link,0,1646374205949186996,v/m1vw10zy74w/map,-10.8647267283,2.95475051244,0.165,0.0,0.0,0.999675034796,0.0254916614943,0,58.2874183655,56.8515167236,82.2545318604,1.80100643635
1646374206265501922,7,1646374206265501922,r200121355/base_front_laser_link,0,1646374206265501922,v/m1vw10zy74w/map,-10.919547384,2.97266455156,0.165,0.0,0.0,0.99937681433,0.0352984841096,0,56.4829711914,56.8054466248,81.8229217529,1.67249131203
1646374206581280777,8,1646374206581280777,r200121355/base_front_laser_link,0,1646374206581280777,v/m1vw10zy74w/map,-10.9900804336,2.98288262735,0.165,0.0,0.0,0.99932003532,0.0368709507408,0,56.3477630615,56.7545928955,81.4702758789,1.57189333439
1646374206897066073,9,1646374206897066073,r200121355/base_front_laser_link,0,1646374206897066073,v/m1vw10zy74w/map,-11.066696108,2.9925797839,0.165,0.0,0.0,0.999218752428,0.0395206882068,0,58.3898506165,56.9181213379,81.626991272,1.56962311268
1646374207054036611,10,1646374207054036611,r200121355/base_front_laser_link,0,1646374207054036611,v/m1vw10zy74w/map,-11.107677844,3.00319945719,0.165,0.0,0.0,0.999014586568,0.0443830578569,0,56.3651924133,56.867855072,81.362991333,1.49837863445
1646374207212199586,11,1646374207212199586,r200121355/base_front_laser_link,0,1646374207212199586,v/m1vw10zy74w/map,-11.1507888227,3.01899434036,0.165,0.0,0.0,0.998634472761,0.0522416482594,0,55.2546272278,56.733417511,81.241317749,1.50263428688
1646374207527438311,12,1646374207527438311,r200121355/base_front_laser_link,0,1646374207527438311,v/m1vw10zy74w/map,-11.2420672246,3.06612495452,0.165,0.0,0.0,0.997100247425,0.0760992548262,0,53.9755249023,56.521270752,81.409362793,1.62936377525
1646374207684545055,13,1646374207684545055,r200121355/base_front_laser_link,0,1646374207684545055,v/m1vw10zy74w/map,-11.2907537267,3.09814444473,0.165,0.0,0.0,0.995921510153,0.0902238638867,0,55.9186134338,56.478225708,81.1993408203,1.57370626926
1646374207841288836,14,1646374207841288836,r200121355/base_front_laser_link,0,1646374207841288836,v/m1vw10zy74w/map,-11.3394280665,3.13137216239,0.165,0.0,0.0,0.994381890025,0.105852051424,0,56.0480804443,56.4495506287,81.0111160278,1.52052295208
1646374208078568222,15,1646374208078568222,r200121355/base_front_laser_link,0,1646374208078568222,v/m1vw10zy74w/map,-11.4142598914,3.18986827952,0.165,0.0,0.0,0.991208775578,0.132307079243,0,57.9447898865,56.5430030823,81.09034729,1.51578080654
1646374208235308503,16,1646374208235308503,r200121355/base_front_laser_link,0,1646374208235308503,v/m1vw10zy74w/map,-11.4638593714,3.23474793417,0.165,0.0,0.0,0.988392825096,0.151919792324,0,58.3128700256,56.6471099854,81.2345123291,1.52913475037
1646374208393129383,17,1646374208393129383,r200121355/base_front_laser_link,0,1646374208393129383,v/m1vw10zy74w/map,-11.5156180224,3.28705005276,0.165,0.0,0.0,0.984963426094,0.172762985785,0,55.0625495911,56.5590820312,81.1483917236,1.52977120876
1646374208630121959,18,1646374208630121959,r200121355/base_front_laser_link,0,1646374208630121959,v/m1vw10zy74w/map,-11.5885106317,3.37229825451,0.165,0.0,0.0,0.978248715275,0.207435414196,0,55.3889770508,56.4974975586,81.0296325684,1.5107114315
1646374208867182786,19,1646374208867182786,r200121355/base_front_laser_link,0,1646374208867182786,v/m1vw10zy74w/map,-11.6552307751,3.4716898648,0.165,0.0,0.0,0.969665498461,0.244435719761,0,56.6583786011,56.5055389404,80.9181137085,1.4708584547
1646374209024146220,20,1646374209024146220,r200121355/base_front_laser_link,0,1646374209024146220,v/m1vw10zy74w/map,-11.6966717655,3.54557413702,0.165,0.0,0.0,0.962036857839,0.272919556204,0,59.3122749329,56.6391944885,81.3161010742,1.55896925926
1646374209259192108,21,1646374209259192108,r200121355/base_front_laser_link,0,1646374209259192108,v/m1vw10zy74w/map,-11.7504008054,3.67948970678,0.165,0.0,0.0,0.945540926365,0.325503235882,0,58.1216049194,56.706577301,81.3682174683,1.55387926102
1646374209417100596,22,1646374209417100596,r200121355/base_front_laser_link,0,1646374209417100596,v/m1vw10zy74w/map,-11.7676526139,3.78144645808,0.165,0.0,0.0,0.929892989419,0.367830162207,0,62.7645759583,56.9699668884,82.8948059082,1.97494661808
1646374209653315990,23,1646374209653315990,r200121355/base_front_laser_link,0,1646374209653315990,v/m1vw10zy74w/map,-11.7645193622,3.95103140855,0.165,0.0,0.0,0.898248859779,0.439487185144,0,60.2293739319,57.1057777405,83.2345123291,2.0429110527
1646374209811263118,24,1646374209811263118,r200121355/base_front_laser_link,0,1646374209811263118,v/m1vw10zy74w/map,-11.753964505,4.07125408713,0.165,0.0,0.0,0.872877180275,0.487939984173,0,60.8144073486,57.254119873,83.6531600952,2.1330139637
1646374210047101126,25,1646374210047101126,r200121355/base_front_laser_link,0,1646374210047101126,v/m1vw10zy74w/map,-11.7026938484,4.24795116208,0.165,0.0,0.0,0.829674658062,0.558247222805,0,60.7207565308,57.3874549866,83.9806137085,2.19771957397
1646374210205164122,26,1646374210205164122,r200121355/base_front_laser_link,0,1646374210205164122,v/m1vw10zy74w/map,-11.6642130763,4.35875421038,0.165,0.0,0.0,0.799541090442,0.600611392411,0,61.6976509094,57.547088623,84.4746017456,2.30917096138
1646374210362143343,27,1646374210362143343,r200121355/base_front_laser_link,0,1646374210362143343,v/m1vw10zy74w/map,-11.6267387198,4.4695447856,0.165,0.0,0.0,0.772264636653,0.635300976683,0,57.4538993835,57.543762207,84.3419799805,2.26607346535
1646374210521179621,28,1646374210521179621,r200121355/base_front_laser_link,0,1646374210521179621,v/m1vw10zy74w/map,-11.5895341713,4.56923386189,0.165,0.0,0.0,0.747441509399,0.664327622508,0,54.8254966736,57.4500274658,84.2953491211,2.28177237511
1646374210757003479,29,1646374210757003479,r200121355/base_front_laser_link,0,1646374210757003479,v/m1vw10zy74w/map,-11.5267977341,4.71749338014,0.165,0.0,0.0,0.713555458944,0.700598748936,0,60.4126815796,57.5487823486,84.4680175781,2.30641031265
1646374210836152067,30,1646374210836152067,r200121355/base_front_laser_link,0,1646374210836152067,v/m1vw10zy74w/map,-11.5036576918,4.76879750215,0.165,0.0,0.0,0.702696143932,0.711490076743,0,60.7002067566,57.6504440308,84.6620941162,2.33721661568
1646374210915046720,31,1646374210915046720,r200121355/base_front_laser_link,0,1646374210915046720,v/m1vw10zy74w/map,-11.4771402949,4.82108217034,0.165,0.0,0.0,0.690804261493,0.723041819194,0,62.7359275818,57.8093643188,85.2155151367,2.46871638298
1646374211071238858,32,1646374211071238858,r200121355/base_front_laser_link,0,1646374211071238858,v/m1vw10zy74w/map,-11.4252005056,4.91090654389,0.165,0.0,0.0,0.669372049775,0.742927357808,0,58.101020813,57.8182029724,85.1093063354,2.43036699295
1646374211230088266,33,1646374211230088266,r200121355/base_front_laser_link,0,1646374211230088266,v/m1vw10zy74w/map,-11.3709955233,4.99630943268,0.165,0.0,0.0,0.64806710407,0.761583238144,0,59.423412323,57.8654136658,85.0925369263,2.40904092789
1646374211387151959,34,1646374211387151959,r200121355/base_front_laser_link,0,1646374211387151959,v/m1vw10zy74w/map,-11.3140033345,5.08805926789,0.165,0.0,0.0,0.627787197023,0.778385017362,0,60.2416000366,57.933303833,85.1545944214,2.4070956707
1646374211465246789,35,1646374211465246789,r200121355/base_front_laser_link,0,1646374211465246789,v/m1vw10zy74w/map,-11.2864396202,5.13805052257,0.165,0.0,0.0,0.617086986103,0.786894943168,0,57.9969215393,57.9350738525,85.052520752,2.37248301506
1646374211623512378,36,1646374211623512378,r200121355/base_front_laser_link,0,1646374211623512378,v/m1vw10zy74w/map,-11.2203605767,5.2183074509,0.165,0.0,0.0,0.594126655048,0.804371504817,0,60.4739494324,58.003692627,85.1324234009,2.37624430656
1646374211860112017,37,1646374211860112017,r200121355/base_front_laser_link,0,1646374211860112017,v/m1vw10zy74w/map,-11.1066213126,5.33993615117,0.165,0.0,0.0,0.550933411317,0.834549205437,0,61.3662414551,58.0921783447,85.3118209839,2.40654826164
1646374212017100705,38,1646374212017100705,r200121355/base_front_laser_link,0,1646374212017100705,v/m1vw10zy74w/map,-11.0123596612,5.39904967844,0.165,0.0,0.0,0.516535565681,0.856265735264,0,58.1106262207,58.0926513672,85.2166748047,2.37467384338
1646374212175174167,39,1646374212175174167,r200121355/base_front_laser_link,0,1646374212175174167,v/m1vw10zy74w/map,-10.9097334164,5.45771038238,0.165,0.0,0.0,0.47805019507,0.878332517327,0,61.6956062317,58.182723999,85.4195175171,2.41226363182
1646374212569640721,40,1646374212569640721,r200121355/base_front_laser_link,0,1646374212569640721,v/m1vw10zy74w/map,-10.6144857703,5.54039464615,0.165,0.0,0.0,0.361594245032,0.93233556296,0,60.7126502991,58.244430542,85.4878311157,2.41446685791
1646374212884945048,41,1646374212884945048,r200121355/base_front_laser_link,0,1646374212884945048,v/m1vw10zy74w/map,-10.3623402074,5.52782007516,0.165,0.0,0.0,0.251314030618,0.967905603876,0,59.5044288635,58.274433136,85.4526901245,2.39275240898
1646374213121822141,42,1646374213121822141,r200121355/base_front_laser_link,0,1646374213121822141,v/m1vw10zy74w/map,-10.1813360401,5.46667902934,0.165,0.0,0.0,0.169354819354,0.985555145673,0,60.609588623,58.3287353516,85.5010375977,2.39076566696
1646374213437149901,43,1646374213437149901,r200121355/base_front_laser_link,0,1646374213437149901,v/m1vw10zy74w/map,-9.97553686997,5.38683011629,0.165,0.0,0.0,0.0809179984749,0.996720762061,0,59.7315559387,58.3606185913,85.4773635864,2.37224817276
1646374213593936866,44,1646374213593936866,r200121355/base_front_laser_link,0,1646374213593936866,v/m1vw10zy74w/map,-9.87883748718,5.34316554429,0.165,0.0,0.0,0.04754200353,0.998869239641,0,59.6612663269,58.3895225525,85.4489364624,2.35313725471
1646374213830163370,45,1646374213830163370,r200121355/base_front_laser_link,0,1646374213830163370,v/m1vw10zy74w/map,-9.7286468972,5.28365189686,0.165,0.0,0.0,0.00657859625021,0.999978360802,0,63.1495361328,58.4930000305,85.7841491699,2.43038344383
1646374213988098606,46,1646374213988098606,r200121355/base_front_laser_link,0,1646374213988098606,v/m1vw10zy74w/map,-9.63359908438,5.25449837535,0.165,0.0,0.0,-0.0124313966121,0.999922727204,0,62.0325660706,58.5683097839,85.9442367554,2.45864200592
1646374214224056124,47,1646374214224056124,r200121355/base_front_laser_link,0,1646374214224056124,v/m1vw10zy74w/map,-9.4842189866,5.21281787489,0.165,0.0,0.0,-0.0337301145621,0.999430977793,0,59.8958892822,58.5959701538,85.9156112671,2.43988180161
1646374214382068927,48,1646374214382068927,r200121355/base_front_laser_link,0,1646374214382068927,v/m1vw10zy74w/map,-9.39105758644,5.19230711051,0.165,0.0,0.0,-0.0427546494782,0.999085601912,0,58.4320640564,58.5926246643,85.8359603882,2.41444611549
1646374214619043229,49,1646374214619043229,r200121355/base_front_laser_link,0,1646374214619043229,v/m1vw10zy74w/map,-9.25025541552,5.15689766003,0.165,0.0,0.0,-0.0525169880239,0.998620030827,0,57.784942627,58.5764694214,85.7537002563,2.39241027832
1646374214776070057,50,1646374214776070057,r200121355/base_front_laser_link,0,1646374214776070057,v/m1vw10zy74w/map,-9.15699874192,5.14380623767,0.165,0.0,0.0,-0.054570920207,0.998509897131,0,57.1898536682,58.549282074,85.6782150269,2.37631106377
1646374214934038616,51,1646374214934038616,r200121355/base_front_laser_link,0,1646374214934038616,v/m1vw10zy74w/map,-9.05605310652,5.12581815484,0.165,0.0,0.0,-0.0564226321659,0.998406974424,0,59.0314102173,58.5585517883,85.6201019287,2.35384821892
1646374215171165479,52,1646374215171165479,r200121355/base_front_laser_link,0,1646374215171165479,v/m1vw10zy74w/map,-8.91873185487,5.11503039073,0.165,0.0,0.0,-0.0550126200835,0.998485659202,0,59.8492507935,58.5829048157,85.5964202881,2.33783745766
1646374215328085674,53,1646374215328085674,r200121355/base_front_laser_link,0,1646374215328085674,v/m1vw10zy74w/map,-8.82516876705,5.10809755027,0.165,0.0,0.0,-0.0528451125627,0.998602720845,0,60.464263916,58.6177444458,85.6071090698,2.32978701591
1646374215565857956,54,1646374215565857956,r200121355/base_front_laser_link,0,1646374215565857956,v/m1vw10zy74w/map,-8.67904681461,5.10082362221,0.165,0.0,0.0,-0.0473020370067,0.998880632155,0,60.6869049072,58.6553688049,85.6301193237,2.32491612434
1646374215801961400,55,1646374215801961400,r200121355/base_front_laser_link,0,1646374215801961400,v/m1vw10zy74w/map,-8.53698294889,5.09560252536,0.165,0.0,0.0,-0.0421713571541,0.999110392617,0,57.5720863342,58.6360244751,85.5607070923,2.30822730064
1646374215960116234,56,1646374215960116234,r200121355/base_front_laser_link,0,1646374215960116234,v/m1vw10zy74w/map,-8.4564982115,5.08768738285,0.165,0.0,0.0,-0.0409888452275,0.999159604151,0,57.8011131287,58.6213760376,85.4919662476,2.2901968956
1646374216197010970,57,1646374216197010970,r200121355/base_front_laser_link,0,1646374216197010970,v/m1vw10zy74w/map,-8.31472095162,5.08548827231,0.165,0.0,0.0,-0.0351567918183,0.999381808914,0,55.9609642029,58.5755081177,85.4657287598,2.29674005508
1646374216352875878,58,1646374216352875878,r200121355/base_front_laser_link,0,1646374216352875878,v/m1vw10zy74w/map,-8.2176509581,5.0892968391,0.165,0.0,0.0,-0.0318733602356,0.999491915379,0,55.5263557434,58.5238265991,85.4574279785,2.31120061874
1646374216589717336,59,1646374216589717336,r200121355/base_front_laser_link,0,1646374216589717336,v/m1vw10zy74w/map,-8.0760310036,5.09037328234,0.165,0.0,0.0,-0.027038398225,0.999634395677,0,54.0914993286,58.4499549866,85.5356292725,2.3618927002
1646374216747745009,60,1646374216747745009,r200121355/base_front_laser_link,0,1646374216747745009,v/m1vw10zy74w/map,-7.98157713653,5.08967374162,0.165,0.0,0.0,-0.0242242627763,0.99970654949,0,56.0735778809,58.4109954834,85.496421814,2.3618080616
1646374216983790461,61,1646374216983790461,r200121355/base_front_laser_link,0,1646374216983790461,v/m1vw10zy74w/map,-7.83492826624,5.09610803949,0.165,0.0,0.0,-0.0200637741925,0.999798702222,0,59.3288917542,58.4258003235,85.4616088867,2.34526801109
1646374217219930887,62,1646374217219930887,r200121355/base_front_laser_link,0,1646374217219930887,v/m1vw10zy74w/map,-7.69333157961,5.09626992519,0.165,0.0,0.0,-0.0164443152588,0.999864783106,0,59.2023124695,58.4381256104,85.4231262207,2.32833385468
1646374217298748700,63,1646374217298748700,r200121355/base_front_laser_link,0,1646374217298748700,v/m1vw10zy74w/map,-7.64102359522,5.09692948936,0.165,0.0,0.0,-0.016083902958,0.999870645667,0,57.9755783081,58.4309005737,85.362411499,2.31050467491
1646374217614850250,64,1646374217614850250,r200121355/base_front_laser_link,0,1646374217614850250,v/m1vw10zy74w/map,-7.45853751694,5.09575355054,0.165,0.0,0.0,-0.0132205491361,0.999912604721,0,58.1420097351,58.4264564514,85.3044433594,2.29266285896
1646374217693177486,65,1646374217693177486,r200121355/base_front_laser_link,0,1646374217693177486,v/m1vw10zy74w/map,-7.4114592017,5.09612258888,0.165,0.0,0.0,-0.0121535158009,0.999926143299,0,57.6867256165,58.4152488708,85.24559021,2.27678012848
1646374217772014545,66,1646374217772014545,r200121355/base_front_laser_link,0,1646374217772014545,v/m1vw10zy74w/map,-7.36501307757,5.0998467676,0.165,0.0,0.0,-0.00995846258482,0.999950413282,0,57.3658065796,58.3995857239,85.1888885498,2.26310038567
1646374217929965505,67,1646374217929965505,r200121355/base_front_laser_link,0,1646374217929965505,v/m1vw10zy74w/map,-7.27855610453,5.10603747635,0.165,0.0,0.0,-0.00682590699759,0.999976703225,0,56.1454353333,58.3664360046,85.1545944214,2.26272058487
1646374218086904912,68,1646374218086904912,r200121355/base_front_laser_link,0,1646374218086904912,v/m1vw10zy74w/map,-7.18433139575,5.10672377328,0.165,0.0,0.0,-0.00556568520089,0.999984511454,0,53.8759765625,58.3013572693,85.231842041,2.31016182899
1646374218324888472,69,1646374218324888472,r200121355/base_front_laser_link,0,1646374218324888472,v/m1vw10zy74w/map,-7.04165497628,5.11043875217,0.165,0.0,0.0,-0.00430802469247,0.999990720419,0,56.979434967,58.2824707031,85.1788635254,2.29879665375
1646374218718808006,70,1646374218718808006,r200121355/base_front_laser_link,0,1646374218718808006,v/m1vw10zy74w/map,-6.80648939241,5.1088844751,0.165,0.0,0.0,-0.00399759930767,0.999992009568,0,57.2891235352,58.2684783936,85.1245574951,2.28536009789
1646374218874941732,71,1646374218874941732,r200121355/base_front_laser_link,0,1646374218874941732,v/m1vw10zy74w/map,-6.70489606434,5.10625538098,0.165,0.0,0.0,-0.00521729628834,0.999986389817,0,56.9500846863,58.2501678467,85.0737380981,2.27452206612
1646374219268788462,72,1646374219268788462,r200121355/base_front_laser_link,0,1646374219268788462,v/m1vw10zy74w/map,-6.46099928263,5.11192430201,0.165,0.0,0.0,-0.00256400284347,0.999996712939,0,55.8282051086,58.2169914246,85.0461654663,2.27639007568
1646374219426925662,73,1646374219426925662,r200121355/base_front_laser_link,0,1646374219426925662,v/m1vw10zy74w/map,-6.36192591385,5.11856189882,0.165,0.0,0.0,-0.00127739475996,0.999999184131,0,53.0464820862,58.1471214294,85.1649627686,2.33928179741
1646374219820860434,74,1646374219820860434,r200121355/base_front_laser_link,0,1646374219820860434,v/m1vw10zy74w/map,-6.12823634541,5.1156567866,0.165,0.0,0.0,-0.00143597661926,0.999998968985,0,59.6535110474,58.1672058105,85.1569747925,2.3299241066
1646374220214879913,75,1646374220214879913,r200121355/base_front_laser_link,0,1646374220214879913,v/m1vw10zy74w/map,-5.89142159137,5.11516022031,0.165,0.0,0.0,-0.00139686063155,0.99999902439,0,55.9719314575,58.1383209229,85.1223144531,2.32799839973
1646374220530869619,76,1646374220530869619,r200121355/base_front_laser_link,0,1646374220530869619,v/m1vw10zy74w/map,-5.70351563732,5.11542423752,0.165,0.0,0.0,-0.000678589729533,0.999999769758,0,58.0364761353,58.1369972229,85.0749816895,2.31266093254
1646374220765828199,77,1646374220765828199,r200121355/base_front_laser_link,0,1646374220765828199,v/m1vw10zy74w/map,-5.56279128813,5.11536999593,0.165,0.0,0.0,-0.000591273865182,0.999999825198,0,56.9813690186,58.1221809387,85.0261306763,2.30131745338
1646374220844885017,78,1646374220844885017,r200121355/base_front_laser_link,0,1646374220844885017,v/m1vw10zy74w/map,-5.51385771852,5.11779793565,0.165,0.0,0.0,0.00153035726491,0.999998829003,0,55.8925094604,58.0939559937,84.9946746826,2.30023765564
1646374220923853957,79,1646374220923853957,r200121355/base_front_laser_link,0,1646374220923853957,v/m1vw10zy74w/map,-5.46551306016,5.11770225868,0.165,0.0,0.0,0.00148660116607,0.999998895008,0,55.4121894836,58.0604362488,84.9760818481,2.30521512032
1646374221238867804,80,1646374221238867804,r200121355/base_front_laser_link,0,1646374221238867804,v/m1vw10zy74w/map,-5.27622637355,5.11853249031,0.165,0.0,0.0,0.00165124250875,0.999998636698,0,55.7386207581,58.0317726135,84.9475021362,2.30524277687
1646374221317832296,81,1646374221317832296,r200121355/base_front_laser_link,0,1646374221317832296,v/m1vw10zy74w/map,-5.22359184563,5.11130706971,0.165,0.0,0.0,-0.00199727811493,0.999998005438,0,57.4076805115,58.0241622925,84.900177002,2.2920050621
1646374221474571131,82,1646374221474571131,r200121355/base_front_laser_link,0,1646374221474571131,v/m1vw10zy74w/map,-5.13009774842,5.11319919489,0.165,0.0,0.0,-0.000751328018441,0.999999717753,0,55.0702857971,57.988571167,84.8914031982,2.30094504356
1646374221711971804,83,1646374221711971804,r200121355/base_front_laser_link,0,1646374221711971804,v/m1vw10zy74w/map,-4.98780802656,5.11348497,0.165,0.0,0.0,-0.000436362533575,0.999999904794,0,54.056678772,57.9417648315,84.9225540161,2.32693052292
1646374221868726941,84,1646374221868726941,r200121355/base_front_laser_link,0,1646374221868726941,v/m1vw10zy74w/map,-4.89531469724,5.11459127139,0.165,0.0,0.0,0.00169213558204,0.999998568338,0,54.3938331604,57.9000244141,84.9345169067,2.34483218193
1646374221947822403,85,1646374221947822403,r200121355/base_front_laser_link,0,1646374221947822403,v/m1vw10zy74w/map,-4.84777230481,5.11454797378,0.165,0.0,0.0,0.00184462050635,0.999998298686,0,54.2745857239,57.8578681946,84.9485321045,2.36355400085
1646374222184620828,86,1646374222184620828,r200121355/base_front_laser_link,0,1646374222184620828,v/m1vw10zy74w/map,-4.70600258825,5.11555878513,0.165,0.0,0.0,0.00214114751472,0.999997707741,0,54.6852836609,57.8213996887,84.944190979,2.37426257133
1646374222342702655,87,1646374222342702655,r200121355/base_front_laser_link,0,1646374222342702655,v/m1vw10zy74w/map,-4.60695887274,5.1101164892,0.165,0.0,0.0,0.00190285180975,0.999998189576,0,56.4248733521,57.8055305481,84.9013366699,2.36526751518
1646374222420804809,88,1646374222420804809,r200121355/base_front_laser_link,0,1646374222420804809,v/m1vw10zy74w/map,-4.56353310772,5.11636846197,0.165,0.0,0.0,0.00479837534138,0.999988487731,0,51.8107681274,57.7381744385,85.046546936,2.43612504005
1646374222577856633,89,1646374222577856633,r200121355/base_front_laser_link,0,1646374222577856633,v/m1vw10zy74w/map,-4.46930071528,5.11738091749,0.165,0.0,0.0,0.00486763966356,0.999988152972,0,54.7714347839,57.7052116394,85.0327148438,2.44250249863
1646374222736755435,90,1646374222736755435,r200121355/base_front_laser_link,0,1646374222736755435,v/m1vw10zy74w/map,-4.37434100237,5.11841342669,0.165,0.0,0.0,0.0049360814084,0.999987817476,0,55.9178848267,57.6855697632,84.9939041138,2.43611073494
1646374222815662744,91,1646374222815662744,r200121355/base_front_laser_link,0,1646374222815662744,v/m1vw10zy74w/map,-4.32692143937,5.11889908132,0.165,0.0,0.0,0.00494771196852,0.999987759998,0,56.7020683289,57.6748771667,84.9494552612,2.42485761642
1646374223051639926,92,1646374223051639926,r200121355/base_front_laser_link,0,1646374223051639926,v/m1vw10zy74w/map,-4.18607621138,5.11271676223,0.165,0.0,0.0,0.00573975134234,0.999983527492,0,57.2894554138,57.6707344055,84.9066543579,2.41197419167
1646374223208479087,93,1646374223208479087,r200121355/base_front_laser_link,0,1646374223208479087,v/m1vw10zy74w/map,-4.09213487717,5.11404885268,0.165,0.0,0.0,0.00590094712224,0.99998258926,0,52.6900062561,57.6177482605,84.9778289795,2.45336008072
1646374223365536936,94,1646374223365536936,r200121355/base_front_laser_link,0,1646374223365536936,v/m1vw10zy74w/map,-3.99765845102,5.11530786939,0.165,0.0,0.0,0.00678168881407,0.999977004084,0,49.043006897,57.5274887085,85.3095245361,2.59401297569
1646374223444740312,95,1646374223444740312,r200121355/base_front_laser_link,0,1646374223444740312,v/m1vw10zy74w/map,-3.96128844295,5.11215089158,0.165,0.0,0.0,0.00693186898465,0.999975974308,0,51.3534126282,57.4631729126,85.4316329956,2.65615296364
1646374223602494701,96,1646374223602494701,r200121355/base_front_laser_link,0,1646374223602494701,v/m1vw10zy74w/map,-3.86684923349,5.11357232817,0.165,0.0,0.0,0.00700289384718,0.999975479438,0,51.1330451965,57.3979148865,85.5559082031,2.71932983398
1646374223759580267,97,1646374223759580267,r200121355/base_front_laser_link,0,1646374223759580267,v/m1vw10zy74w/map,-3.77286343227,5.11496368955,0.165,0.0,0.0,0.00705111623186,0.999975140571,0,50.1033744812,57.3234825134,85.7349853516,2.80383372307
1646374223838765351,98,1646374223838765351,r200121355/base_front_laser_link,0,1646374223838765351,v/m1vw10zy74w/map,-3.72527920071,5.11563957398,0.165,0.0,0.0,0.00705428900672,0.999975118194,0,50.5186920166,57.2547454834,85.8710632324,2.87210607529
1646374223916568812,99,1646374223916568812,r200121355/base_front_laser_link,0,1646374223916568812,v/m1vw10zy74w/map,-3.68314898206,5.11928487598,0.165,0.0,0.0,0.00849470176557,0.99996391937,0,51.8472099304,57.2006721497,85.9255065918,2.90827846527
1646374224074514984,100,1646374224074514984,r200121355/base_front_laser_link,0,1646374224074514984,v/m1vw10zy74w/map,-3.58806664256,5.12116331505,0.165,0.0,0.0,0.00873853518684,0.999961818272,0,54.5288848877,57.1742172241,85.8918762207,2.90588736534
1646374224310699061,101,1646374224310699061,r200121355/base_front_laser_link,0,1646374224310699061,v/m1vw10zy74w/map,-3.44707284739,5.12378735379,0.165,0.0,0.0,0.00883863859052,0.999960938471,0,52.730342865,57.1306495667,85.9049072266,2.92475342751
1646374224626635541,102,1646374224626635541,r200121355/base_front_laser_link,0,1646374224626635541,v/m1vw10zy74w/map,-3.25812542193,5.12430123652,0.165,0.0,0.0,0.0108165847228,0.999941499036,0,58.9594078064,57.1484031677,85.8962631226,2.91595411301
1646374225020623626,103,1646374225020623626,r200121355/base_front_laser_link,0,1646374225020623626,v/m1vw10zy74w/map,-3.02796234099,5.12864346672,0.165,0.0,0.0,0.0118958065682,0.99992924239,0,62.3915901184,57.1988182068,86.0397033691,2.94695997238
1646374225335795657,104,1646374225335795657,r200121355/base_front_laser_link,0,1646374225335795657,v/m1vw10zy74w/map,-2.83919294589,5.1331318999,0.165,0.0,0.0,0.011891877977,0.999929289119,0,57.5851554871,57.2024993896,86.0015029907,2.93300008774
1646374225572506828,105,1646374225572506828,r200121355/base_front_laser_link,0,1646374225572506828,v/m1vw10zy74w/map,-2.68862117846,5.14117355093,0.165,0.0,0.0,0.0148076616841,0.999890360567,0,59.1930389404,57.2212791443,85.997467041,2.92539572716
1646374225966558918,106,1646374225966558918,r200121355/base_front_laser_link,0,1646374225966558918,v/m1vw10zy74w/map,-2.45825407697,5.1445040547,0.165,0.0,0.0,0.0143834580044,0.999896552717,0,57.1395950317,57.2205162048,85.9552383423,2.91157484055
1646374226125481994,107,1646374226125481994,r200121355/base_front_laser_link,0,1646374226125481994,v/m1vw10zy74w/map,-2.362690336,5.1452759546,0.165,0.0,0.0,0.0131235611413,0.999913882363,0,55.165309906,57.2014846802,85.9155197144,2.90467739105
1646374226361651987,108,1646374226361651987,r200121355/base_front_laser_link,0,1646374226361651987,v/m1vw10zy74w/map,-2.22108197014,5.14601234064,0.165,0.0,0.0,0.0112762965449,0.999936420547,0,53.6674804688,57.1690635681,85.9019012451,2.91094636917
1646374226596643469,109,1646374226596643469,r200121355/base_front_laser_link,0,1646374226596643469,v/m1vw10zy74w/map,-2.06567363549,5.1518020162,0.165,0.0,0.0,0.0115341245071,0.999933479773,0,50.0498733521,57.1043434143,86.0323638916,2.97600769997
1646374226755586300,110,1646374226755586300,r200121355/base_front_laser_link,0,1646374226755586300,v/m1vw10zy74w/map,-1.97041690598,5.15186766922,0.165,0.0,0.0,0.0101710197211,0.999948273841,0,51.2463150024,57.0515670776,86.0941009521,3.01417732239
1646374227069511914,111,1646374227069511914,r200121355/base_front_laser_link,0,1646374227069511914,v/m1vw10zy74w/map,-1.79621857806,5.14364516816,0.165,0.0,0.0,0.00792265786373,0.999968615254,0,52.8995475769,57.0144958496,86.0928268433,3.02610945702
1646374227228028765,112,1646374227228028765,r200121355/base_front_laser_link,0,1646374227228028765,v/m1vw10zy74w/map,-1.70144999565,5.14481177255,0.165,0.0,0.0,0.00771460703092,0.999970241976,0,52.7059364319,56.9763679504,86.0955047607,3.0397131443
1646374227464362813,113,1646374227464362813,r200121355/base_front_laser_link,0,1646374227464362813,v/m1vw10zy74w/map,-1.55955132787,5.14303035212,0.165,0.0,0.0,0.00585752422568,0.999982844558,0,51.8544120789,56.931438446,86.1234970093,3.06401920319
1646374227622353591,114,1646374227622353591,r200121355/base_front_laser_link,0,1646374227622353591,v/m1vw10zy74w/map,-1.46874380306,5.14814908228,0.165,0.0,0.0,0.00689038257423,0.999976261032,0,53.2468109131,56.8993988037,86.1089172363,3.06983995438
1646374227936592889,115,1646374227936592889,r200121355/base_front_laser_link,0,1646374227936592889,v/m1vw10zy74w/map,-1.28327790087,5.14239938766,0.165,0.0,0.0,0.00542191463926,0.999985301313,0,55.8532600403,56.8903808594,86.0643997192,3.05800676346
1646374228095411989,116,1646374228095411989,r200121355/base_front_laser_link,0,1646374228095411989,v/m1vw10zy74w/map,-1.19446481232,5.13894181326,0.165,0.0,0.0,0.00486352349839,0.999988173,0,54.9517822266,56.8738098145,86.0240097046,3.05006742477
1646374228252489474,117,1646374228252489474,r200121355/base_front_laser_link,0,1646374228252489474,v/m1vw10zy74w/map,-1.10025671037,5.13992814044,0.165,0.0,0.0,0.00490876864033,0.999987951923,0,55.9794197083,56.866230011,85.9805908203,3.03812074661
1646374228488459609,118,1646374228488459609,r200121355/base_front_laser_link,0,1646374228488459609,v/m1vw10zy74w/map,-0.959666270441,5.13613257999,0.165,0.0,0.0,0.00365388135262,0.999993324553,0,57.9908714294,56.8756828308,85.9566116333,3.02697610855
1646374228646425980,119,1646374228646425980,r200121355/base_front_laser_link,0,1646374228646425980,v/m1vw10zy74w/map,-0.864924446514,5.13696610208,0.165,0.0,0.0,0.00374496465098,0.999992987595,0,58.4538764954,56.8888320923,85.9418487549,3.0176718235
1646374228803406772,120,1646374228803406772,r200121355/base_front_laser_link,0,1646374228803406772,v/m1vw10zy74w/map,-0.770857001099,5.13779253644,0.165,0.0,0.0,0.00382391341118,0.999992688816,0,59.1617469788,56.9076156616,85.9441223145,3.01216745377
1646374229040392338,121,1646374229040392338,r200121355/base_front_laser_link,0,1646374229040392338,v/m1vw10zy74w/map,-0.626710175311,5.1449083076,0.165,0.0,0.0,0.00498171568782,0.999987591177,0,56.4389038086,56.9037742615,85.9037628174,2.99999475479
1646374229276389915,122,1646374229276389915,r200121355/base_front_laser_link,0,1646374229276389915,v/m1vw10zy74w/map,-0.485455653883,5.14643901229,0.165,0.0,0.0,0.00505858212317,0.999987205292,0,54.5010032654,56.8842391968,85.8707962036,2.99551939964
1646374229433472389,123,1646374229433472389,r200121355/base_front_laser_link,0,1646374229433472389,v/m1vw10zy74w/map,-0.389197150023,5.14053001784,0.165,0.0,0.0,0.00461236611348,0.999989362983,0,54.253112793,56.8630218506,85.841003418,2.99265980721
1646374229670394024,124,1646374229670394024,r200121355/base_front_laser_link,0,1646374229670394024,v/m1vw10zy74w/map,-0.247157997772,5.14223096997,0.165,0.0,0.0,0.00485518560872,0.999988213517,0,51.9841117859,56.8239898682,85.8610229492,3.01234412193
1646374229906518312,125,1646374229906518312,r200121355/base_front_laser_link,0,1646374229906518312,v/m1vw10zy74w/map,-0.104073405001,5.14973692999,0.165,0.0,0.0,0.00682675286291,0.999976697451,0,50.0832138062,56.7704925537,85.9498291016,3.05977845192
1646374230064448174,126,1646374230064448174,r200121355/base_front_laser_link,0,1646374230064448174,v/m1vw10zy74w/map,-0.00986557198452,5.15112279108,0.165,0.0,0.0,0.00688997311076,0.999976263854,0,49.2598609924,56.711353302,86.0702514648,3.11963295937
1646374230379274808,127,1646374230379274808,r200121355/base_front_laser_link,0,1646374230379274808,v/m1vw10zy74w/map,0.180979334436,5.15803980775,0.165,0.0,0.0,0.00872982591882,0.999961894344,0,55.7170143127,56.7035865784,86.029296875,3.10856938362
1646374230773239332,128,1646374230773239332,r200121355/base_front_laser_link,0,1646374230773239332,v/m1vw10zy74w/map,0.426234374074,5.15792632526,0.165,0.0,0.0,0.00845119430025,0.99996428802,0,52.4868049622,56.6708984375,86.0266418457,3.11858129501
1646374230930703417,129,1646374230930703417,r200121355/base_front_laser_link,0,1646374230930703417,v/m1vw10zy74w/map,0.518738570389,5.15654571096,0.165,0.0,0.0,0.00804130599387,0.999967668176,0,55.5335235596,56.662147522,85.9863586426,3.10807132721
1646374231166622599,130,1646374231166622599,r200121355/base_front_laser_link,0,1646374231166622599,v/m1vw10zy74w/map,0.657406949135,5.15887661917,0.165,0.0,0.0,0.0081024422689,0.999967174676,0,55.5863418579,56.6539344788,85.9464950562,3.09752058983
1646374231324273501,131,1646374231324273501,r200121355/base_front_laser_link,0,1646374231324273501,v/m1vw10zy74w/map,0.743909468496,5.16576012616,0.165,0.0,0.0,0.0101772556998,0.999948210392,0,56.3563041687,56.6516799927,85.909034729,3.08578419685
1646374231482246373,132,1646374231482246373,r200121355/base_front_laser_link,0,1646374231482246373,v/m1vw10zy74w/map,0.819174413801,5.16744218755,0.165,0.0,0.0,0.0102717369589,0.999947244318,0,53.8374252319,56.6305198669,85.8817520142,3.08374381065
1646374231718218143,133,1646374231718218143,r200121355/base_front_laser_link,0,1646374231718218143,v/m1vw10zy74w/map,0.915886409442,5.16953574989,0.165,0.0,0.0,0.0103386820806,0.999946554398,0,54.2155990601,56.6124992371,85.850112915,3.07920408249
1646374231954313299,134,1646374231954313299,r200121355/base_front_laser_link,0,1646374231954313299,v/m1vw10zy74w/map,0.999344164968,5.17541303564,0.165,0.0,0.0,0.0126285623326,0.999920256527,0,52.364654541,56.581035614,85.8492355347,3.08940124512
1646374232112225157,135,1646374232112225157,r200121355/base_front_laser_link,0,1646374232112225157,v/m1vw10zy74w/map,1.05147255789,5.17625955715,0.165,0.0,0.0,0.0123147788059,0.999924170236,0,54.1417503357,56.5630989075,85.8182067871,3.08503675461
1646374232270091623,136,1646374232270091623,r200121355/base_front_laser_link,0,1646374232270091623,v/m1vw10zy74w/map,1.1008539099,5.17617727962,0.165,0.0,0.0,0.0114619924576,0.999934309207,0,51.8382225037,56.5286102295,85.8288116455,3.10006833076
1646374232507183852,137,1646374232507183852,r200121355/base_front_laser_link,0,1646374232507183852,v/m1vw10zy74w/map,1.18076052567,5.17834969302,0.165,0.0,0.0,0.0112882171563,0.999936286047,0,50.244052887,56.4830703735,85.8872299194,3.13472080231
1646374232664203351,138,1646374232664203351,r200121355/base_front_laser_link,0,1646374232664203351,v/m1vw10zy74w/map,1.21353328192,5.17195854098,0.165,0.0,0.0,0.00643659526978,0.999979284906,0,49.8946990967,56.43567276,85.9544906616,3.17293953896
1646374232900109281,139,1646374232900109281,r200121355/base_front_laser_link,0,1646374232900109281,v/m1vw10zy74w/map,1.27669722159,5.15107282584,0.165,0.0,0.0,-0.00772727116898,0.999970144194,0,48.1347312927,56.3763771057,86.0916061401,3.23841023445
1646374233057476533,140,1646374233057476533,r200121355/base_front_laser_link,0,1646374233057476533,v/m1vw10zy74w/map,1.31688893322,5.13266646752,0.165,0.0,0.0,-0.0194770401228,0.999810304462,0,46.3568496704,56.305316925,86.3112869263,3.33532357216
1646374233294204131,141,1646374233294204131,r200121355/base_front_laser_link,0,1646374233294204131,v/m1vw10zy74w/map,1.37419921348,5.10228123742,0.165,0.0,0.0,-0.0378326180147,0.999284090244,0,46.8877487183,56.2389984131,86.4874420166,3.41614818573
1646374233530902667,142,1646374233530902667,r200121355/base_front_laser_link,0,1646374233530902667,v/m1vw10zy74w/map,1.42224544986,5.06495254014,0.165,0.0,0.0,-0.0560877779189,0.998425841597,0,47.3437576294,56.1767921448,86.630065918,3.48442387581
1646374233687824167,143,1646374233687824167,r200121355/base_front_laser_link,0,1646374233687824167,v/m1vw10zy74w/map,1.45659808203,5.04536615285,0.165,0.0,0.0,-0.0664105563012,0.997792382218,0,52.1131134033,56.1485748291,86.614654541,3.48869347572
1646374233924176970,144,1646374233924176970,r200121355/base_front_laser_link,0,1646374233924176970,v/m1vw10zy74w/map,1.50612323206,5.01715310448,0.165,0.0,0.0,-0.0803807140996,0.996764235314,0,47.8476905823,56.0913238525,86.7240600586,3.54424405098
1646374234475136206,145,1646374234475136206,r200121355/base_front_laser_link,0,1646374234475136206,v/m1vw10zy74w/map,1.60576008259,4.97676041443,0.165,0.0,0.0,-0.0949917677406,0.995478058051,0,45.5149421692,56.0188827515,86.9354248047,3.63884568214
1646374234712128931,146,1646374234712128931,r200121355/base_front_laser_link,0,1646374234712128931,v/m1vw10zy74w/map,1.62268499063,4.97970747901,0.165,0.0,0.0,-0.0909288860497,0.995857388225,0,52.557510376,55.9953384399,86.9080886841,3.63758277893
1646374234870228447,147,1646374234870228447,r200121355/base_front_laser_link,0,1646374234870228447,v/m1vw10zy74w/map,1.62772726453,4.99434407746,0.165,0.0,0.0,-0.0806290441197,0.996744178435,0,50.9188766479,55.9610366821,86.908416748,3.64912581444
1646374235027220670,148,1646374235027220670,r200121355/base_front_laser_link,0,1646374235027220670,v/m1vw10zy74w/map,1.633040934,5.02168673796,0.165,0.0,0.0,-0.0618270632174,0.998086877107,0,49.8180656433,55.9198112488,86.9341049194,3.67143130302
1646374235264435594,149,1646374235264435594,r200121355/base_front_laser_link,0,1646374235264435594,v/m1vw10zy74w/map,1.63821415619,5.08289405869,0.165,0.0,0.0,-0.0202323330283,0.9997953054,0,54.9165000916,55.9131202698,86.8931427002,3.66000723839
1646374235421344841,150,1646374235421344841,r200121355/base_front_laser_link,0,1646374235421344841,v/m1vw10zy74w/map,1.63932221888,5.12983671764,0.165,0.0,0.0,0.0116111937447,0.999932587818,0,54.2763595581,55.9022827148,86.852935791,3.65021800995
1646374235579208972,151,1646374235579208972,r200121355/base_front_laser_link,0,1646374235579208972,v/m1vw10zy74w/map,1.6368391358,5.17768449502,0.165,0.0,0.0,0.0440817321453,0.999027927984,0,51.0788764954,55.8705482483,86.8478088379,3.65908622742
1646374235658225980,152,1646374235658225980,r200121355/base_front_laser_link,0,1646374235658225980,v/m1vw10zy74w/map,1.63432338742,5.19991445973,0.165,0.0,0.0,0.0592215776607,0.998244862115,0,50.1977272034,55.8334693909,86.8607330322,3.67575287819
1646374235815106458,153,1646374235815106458,r200121355/base_front_laser_link,0,1646374235815106458,v/m1vw10zy74w/map,1.64052569834,5.22147148094,0.165,0.0,0.0,0.0766698253644,0.997056536952,0,50.5379524231,55.7990837097,86.8645477295,3.68848824501
1646374235972215722,154,1646374235972215722,r200121355/base_front_laser_link,0,1646374235972215722,v/m1vw10zy74w/map,1.64039522302,5.2272297407,0.165,0.0,0.0,0.0799168680987,0.996801531998,0,50.7895126343,55.7667655945,86.8621063232,3.69844698906
1646374236209090610,155,1646374236209090610,r200121355/base_front_laser_link,0,1646374236209090610,v/m1vw10zy74w/map,1.63462661605,5.2250183126,0.165,0.0,0.0,0.0818807013547,0.996642137753,0,50.6014251709,55.7336540222,86.8625183105,3.70962166786
1646374236524346230,156,1646374236524346230,r200121355/base_front_laser_link,0,1646374236524346230,v/m1vw10zy74w/map,1.61703564093,5.28895821594,0.165,0.0,0.0,0.126484143617,0.991968629249,0,52.6386451721,55.7139396667,86.8318023682,3.70595359802
1646374236918958520,157,1646374236918958520,r200121355/base_front_laser_link,0,1646374236918958520,v/m1vw10zy74w/map,1.58675582177,5.40233954956,0.165,0.0,0.0,0.205065372991,0.978748278568,0,52.8682823181,55.695930481,86.799118042,3.70106267929
1646374237234961156,158,1646374237234961156,r200121355/base_front_laser_link,0,1646374237234961156,v/m1vw10zy74w/map,1.54298665349,5.48177200285,0.165,0.0,0.0,0.265067068688,0.964229977286,0,49.9737548828,55.659942627,86.8113479614,3.71713638306
1646374237550067705,159,1646374237550067705,r200121355/base_front_laser_link,0,1646374237550067705,v/m1vw10zy74w/map,1.48464314782,5.55463346182,0.165,0.0,0.0,0.324942705322,0.94573370367,0,51.368270874,55.6331176758,86.7959060669,3.72092986107
1646374237785078441,160,1646374237785078441,r200121355/base_front_laser_link,0,1646374237785078441,v/m1vw10zy74w/map,1.43431831229,5.61115997652,0.165,0.0,0.0,0.369186778373,0.929355218781,0,49.3509788513,55.5940971375,86.820640564,3.74217987061
1646374238180116731,161,1646374238180116731,r200121355/base_front_laser_link,0,1646374238180116731,v/m1vw10zy74w/map,1.34663009049,5.69182694368,0.165,0.0,0.0,0.44184611847,0.897090858048,0,48.7817001343,55.5520477295,86.8582687378,3.76874041557
1646374238494936626,162,1646374238494936626,r200121355/base_front_laser_link,0,1646374238494936626,v/m1vw10zy74w/map,1.27255184574,5.74115545104,0.165,0.0,0.0,0.497157119234,0.867660532002,0,48.8825836182,55.5111312866,86.8908309937,3.79323387146
1646374238809838283,163,1646374238809838283,r200121355/base_front_laser_link,0,1646374238809838283,v/m1vw10zy74w/map,1.18945727374,5.77895736405,0.165,0.0,0.0,0.549982663637,0.835176071077,0,51.0641899109,55.4840126038,86.8764877319,3.79748988152
1646374239045043332,164,1646374239045043332,r200121355/base_front_laser_link,0,1646374239045043332,v/m1vw10zy74w/map,1.12451843378,5.80069659506,0.165,0.0,0.0,0.587317704722,0.809356481237,0,51.7496681213,55.4613838196,86.8525009155,3.79704022408
1646374239201971293,165,1646374239201971293,r200121355/base_front_laser_link,0,1646374239201971293,v/m1vw10zy74w/map,1.0845831847,5.80791553105,0.165,0.0,0.0,0.609518479324,0.792771860855,0,54.1235313416,55.4533233643,86.8141403198,3.78694057465
1646374239438064227,166,1646374239438064227,r200121355/base_front_laser_link,0,1646374239438064227,v/m1vw10zy74w/map,1.0250352157,5.81923263667,0.165,0.0,0.0,0.640492062842,0.76796478919,0,54.8682937622,55.4498176575,86.7771835327,3.77578830719
1646374242667010781,167,1646374242667010781,r200121355/base_front_laser_link,0,1646374242667010781,v/m1vw10zy74w/map,0.919104302787,5.81898674285,0.165,0.0,0.0,0.696629414008,0.71743115317,0,56.9217338562,55.4585800171,86.7571182251,3.76617884636
1646374243063065806,168,1646374243063065806,r200121355/base_front_laser_link,0,1646374243063065806,v/m1vw10zy74w/map,0.917931561318,5.8204348465,0.165,0.0,0.0,0.697220645987,0.716856590128,0,59.7917404175,55.4842224121,86.7933731079,3.76971840858
1646374243298946987,169,1646374243298946987,r200121355/base_front_laser_link,0,1646374243298946987,v/m1vw10zy74w/map,0.91415227636,5.83712827346,0.165,0.0,0.0,0.699249552974,0.714877655732,0,55.5582733154,55.4846572876,86.7603149414,3.75855302811
1646374243535893608,170,1646374243535893608,r200121355/base_front_laser_link,0,1646374243535893608,v/m1vw10zy74w/map,0.908256352461,5.87696165277,0.165,0.0,0.0,0.702437633033,0.711745299738,0,55.9489631653,55.4873733521,86.7303237915,3.7476503849
1646374243770973076,171,1646374243770973076,r200121355/base_front_laser_link,0,1646374243770973076,v/m1vw10zy74w/map,0.904272992206,5.92337107021,0.165,0.0,0.0,0.704578579151,0.709625975991,0,58.0604782104,55.50233078,86.7278060913,3.74182367325
1646374243929109357,172,1646374243929109357,r200121355/base_front_laser_link,0,1646374243929109357,v/m1vw10zy74w/map,0.903295615295,5.95526677209,0.165,0.0,0.0,0.705142698394,0.70906542357,0,58.5821838379,55.5201339722,86.7349472046,3.738270998
1646374244164999771,173,1646374244164999771,r200121355/base_front_laser_link,0,1646374244164999771,v/m1vw10zy74w/map,0.898707318246,5.99454613753,0.165,0.0,0.0,0.705967330161,0.708244399021,0,56.0943450928,55.5234336853,86.7065505981,3.72770524025
1646374244322773160,174,1646374244322773160,r200121355/base_front_laser_link,0,1646374244322773160,v/m1vw10zy74w/map,0.898919555987,6.02581389856,0.165,0.0,0.0,0.705914691616,0.708296864429,0,55.2609710693,55.5219345093,86.6730270386,3.71703100204
1646374244559013317,175,1646374244559013317,r200121355/base_front_laser_link,0,1646374244559013317,v/m1vw10zy74w/map,0.899246457936,6.07253496776,0.165,0.0,0.0,0.705835830746,0.708375451321,0,55.479549408,55.5216941833,86.6408843994,3.70639705658
1646374244716854792,176,1646374244716854792,r200121355/base_front_laser_link,0,1646374244716854792,v/m1vw10zy74w/map,0.899469540806,6.10410873951,0.165,0.0,0.0,0.705784102928,0.708426989925,0,56.4980621338,55.5272102356,86.6169509888,3.69658112526
1646374244873837017,177,1646374244873837017,r200121355/base_front_laser_link,0,1646374244873837017,v/m1vw10zy74w/map,0.899609213365,6.13564091834,0.165,0.0,0.0,0.70577366913,0.708437384645,0,57.412147522,55.5377998352,86.6042938232,3.68883061409
1646374245109959844,178,1646374245109959844,r200121355/base_front_laser_link,0,1646374245109959844,v/m1vw10zy74w/map,0.899812142424,6.18241556372,0.165,0.0,0.0,0.705761350095,0.708449657147,0,55.7535514832,55.5390052795,86.57447052,3.67848944664
1646374245189988841,179,1646374245189988841,r200121355/base_front_laser_link,0,1646374245189988841,v/m1vw10zy74w/map,0.899887237705,6.19821732095,0.165,0.0,0.0,0.70575427678,0.708456703551,0,55.4605369568,55.5385704041,86.543182373,3.66820454597
1646374245425802618,180,1646374245425802618,r200121355/base_front_laser_link,0,1646374245425802618,v/m1vw10zy74w/map,0.894264343125,6.2398542998,0.165,0.0,0.0,0.707538410753,0.706674887986,0,60.0344467163,55.5634078979,86.5831069946,3.67323350906
1646374245661806363,181,1646374245661806363,r200121355/base_front_laser_link,0,1646374245661806363,v/m1vw10zy74w/map,0.893934635685,6.28664740862,0.165,0.0,0.0,0.707630571903,0.706582602184,0,57.7918167114,55.5756530762,86.5760345459,3.66679477692
1646374245818827279,182,1646374245818827279,r200121355/base_front_laser_link,0,1646374245818827279,v/m1vw10zy74w/map,0.893741668832,6.31809610533,0.165,0.0,0.0,0.707699210748,0.706513854858,0,57.3643875122,55.5854263306,86.5627212524,3.65909719467
1646374245897860723,183,1646374245897860723,r200121355/base_front_laser_link,0,1646374245897860723,v/m1vw10zy74w/map,0.893676846642,6.33395972223,0.165,0.0,0.0,0.707717351816,0.706495682887,0,59.0886802673,55.6044654846,86.5791091919,3.65821385384
1646374246213599565,184,1646374246213599565,r200121355/base_front_laser_link,0,1646374246213599565,v/m1vw10zy74w/map,0.893518562907,6.39653398397,0.165,0.0,0.0,0.707739829728,0.70647316539,0,55.5622825623,55.6042366028,86.5490188599,3.64826083183
1646374246370865669,185,1646374246370865669,r200121355/base_front_laser_link,0,1646374246370865669,v/m1vw10zy74w/map,0.893496643844,6.42799135062,0.165,0.0,0.0,0.707723555662,0.706489468259,0,56.7938079834,55.6106338501,86.5289306641,3.63943266869
1646374246607777668,186,1646374246607777668,r200121355/base_front_laser_link,0,1646374246607777668,v/m1vw10zy74w/map,0.89322440499,6.47517996791,0.165,0.0,0.0,0.707812568997,0.706400288201,0,54.8817901611,55.6067352295,86.4968185425,3.63002729416
1646374246764738546,187,1646374246764738546,r200121355/base_front_laser_link,0,1646374246764738546,v/m1vw10zy74w/map,0.888903156517,6.50852885789,0.165,0.0,0.0,0.708900991492,0.705308006662,0,53.4941253662,55.5954971313,86.466255188,3.62358570099
1646374247000650978,188,1646374247000650978,r200121355/base_front_laser_link,0,1646374247000650978,v/m1vw10zy74w/map,0.884174588103,6.54683476634,0.165,0.0,0.0,0.709473465932,0.704732148507,0,57.0556983948,55.603225708,86.4497146606,3.6154961586
1646374247158830974,189,1646374247158830974,r200121355/base_front_laser_link,0,1646374247158830974,v/m1vw10zy74w/map,0.881670247366,6.57830524347,0.165,0.0,0.0,0.710546394788,0.703650354121,0,56.205242157,55.6063919067,86.4249420166,3.60618305206
1646374247237876758,190,1646374247237876758,r200121355/base_front_laser_link,0,1646374247237876758,v/m1vw10zy74w/map,0.880352269433,6.5940709173,0.165,0.0,0.0,0.711096911262,0.703094007082,0,58.8134269714,55.6231842041,86.4356613159,3.60415863991
1646374247316651858,191,1646374247316651858,r200121355/base_front_laser_link,0,1646374247316651858,v/m1vw10zy74w/map,0.879266741635,6.6098642467,0.165,0.0,0.0,0.711524723765,0.702661061587,0,55.1918449402,55.6209373474,86.4054794312,3.59484601021
1646374247394524889,192,1646374247394524889,r200121355/base_front_laser_link,0,1646374247394524889,v/m1vw10zy74w/map,0.878200589198,6.62556928197,0.165,0.0,0.0,0.71193506689,0.702245299402,0,54.588973999,55.6155891418,86.3743133545,3.58624172211
1646374247473743294,193,1646374247473743294,r200121355/base_front_laser_link,0,1646374247473743294,v/m1vw10zy74w/map,0.877668995006,6.64148603615,0.165,0.0,0.0,0.712082571746,0.702095727815,0,57.0622215271,55.623046875,86.3583831787,3.57844638824
1646374247631015670,194,1646374247631015670,r200121355/base_front_laser_link,0,1646374247631015670,v/m1vw10zy74w/map,0.87628254668,6.67315115067,0.165,0.0,0.0,0.712518869497,0.701652948836,0,57.1804504395,55.6310348511,86.3438949585,3.57095384598
1646374247788826331,195,1646374247788826331,r200121355/base_front_laser_link,0,1646374247788826331,v/m1vw10zy74w/map,0.87565419597,6.70457182574,0.165,0.0,0.0,0.712586688127,0.701584073297,0,57.9861488342,55.6430511475,86.3403167725,3.56575608253
1646374247866851511,196,1646374247866851511,r200121355/base_front_laser_link,0,1646374247866851511,v/m1vw10zy74w/map,0.875411683169,6.72002864659,0.165,0.0,0.0,0.71258756637,0.70158318128,0,57.5572967529,55.6527671814,86.3305511475,3.55926203728
1646374247945911941,197,1646374247945911941,r200121355/base_front_laser_link,0,1646374247945911941,v/m1vw10zy74w/map,0.875238418798,6.73573773507,0.165,0.0,0.0,0.712553934576,0.701617338954,0,57.9725570679,55.6644821167,86.3266143799,3.55404257774
1646374248103809444,198,1646374248103809444,r200121355/base_front_laser_link,0,1646374248103809444,v/m1vw10zy74w/map,0.874920575008,6.76733859426,0.165,0.0,0.0,0.712474179407,0.701698328114,0,57.2850456238,55.6726264954,86.3133773804,3.54691720009
1646374248419604405,199,1646374248419604405,r200121355/base_front_laser_link,0,1646374248419604405,v/m1vw10zy74w/map,0.871577879815,6.82314616941,0.165,0.0,0.0,0.713048864516,0.701114339329,0,59.4598464966,55.6915626526,86.3359069824,3.54811477661
1646374248577771867,200,1646374248577771867,r200121355/base_front_laser_link,0,1646374248577771867,v/m1vw10zy74w/map,0.871037055064,6.85449350898,0.165,0.0,0.0,0.713054264331,0.701108847554,0,56.5940818787,55.6960525513,86.3154678345,3.53980588913
1646374248814744560,201,1646374248814744560,r200121355/base_front_laser_link,0,1646374248814744560,v/m1vw10zy74w/map,0.870264483888,6.90124146829,0.165,0.0,0.0,0.713046577736,0.701116665027,0,56.9235534668,55.702129364,86.2982635498,3.53204536438
1646374257166431747,202,1646374257166431747,r200121355/base_front_laser_link,0,1646374257166431747,v/m1vw10zy74w/map,0.903973973308,8.13569391198,0.165,0.0,0.0,0.703854064428,0.710344603688,0,55.2659645081,55.6999816895,86.2702560425,3.52342486382
1646374291273143728,203,1646374291273143728,r200121355/base_front_laser_link,0,1646374291273143728,v/m1vw10zy74w/map,0.892876316313,8.32551319266,0.165,0.0,0.0,0.708107939553,0.706104203317,0,50.1718063354,55.6728820801,86.2808303833,3.53598284721
1646374291667300428,204,1646374291667300428,r200121355/base_front_laser_link,0,1646374291667300428,v/m1vw10zy74w/map,0.892875701097,8.32573027766,0.165,0.0,0.0,0.708107939581,0.706104203289,0,50.6284713745,55.648273468,86.2828445435,3.54485702515
1646374292061247272,205,1646374292061247272,r200121355/base_front_laser_link,0,1646374292061247272,v/m1vw10zy74w/map,0.892620255941,8.32444686432,0.165,0.0,0.0,0.708232061618,0.705979707142,0,48.8167076111,55.6151123047,86.3193817139,3.56809043884
1646374292297043344,206,1646374292297043344,r200121355/base_front_laser_link,0,1646374292297043344,v/m1vw10zy74w/map,0.892565183534,8.32201796407,0.165,0.0,0.0,0.708262199416,0.705949471902,0,48.8879318237,55.5826148987,86.3526077271,3.58999848366
1646374292612195261,207,1646374292612195261,r200121355/base_front_laser_link,0,1646374292612195261,v/m1vw10zy74w/map,0.892256378107,8.29631368519,0.165,0.0,0.0,0.708452964649,0.705758029979,0,48.6281967163,55.5491790771,86.390083313,3.61363363266
1646374292928232201,208,1646374292928232201,r200121355/base_front_laser_link,0,1646374292928232201,v/m1vw10zy74w/map,0.891727154908,8.23151109313,0.165,0.0,0.0,0.70884059724,0.705368703377,0,52.7490539551,55.5357818604,86.3661880493,3.6101360321
1646374293165289749,209,1646374293165289749,r200121355/base_front_laser_link,0,1646374293165289749,v/m1vw10zy74w/map,0.890885781545,8.18032630782,0.165,0.0,0.0,0.709386335484,0.704819854309,0,52.0681152344,55.5192680359,86.3475570679,3.60942983627
1646374293323074536,210,1646374293323074536,r200121355/base_front_laser_link,0,1646374293323074536,v/m1vw10zy74w/map,0.890739832322,8.14921368825,0.165,0.0,0.0,0.709553497442,0.704651569407,0,51.8705024719,55.5019760132,86.3307037354,3.6095764637
1646374293638021232,211,1646374293638021232,r200121355/base_front_laser_link,0,1646374293638021232,v/m1vw10zy74w/map,0.889038371902,8.0887230638,0.165,0.0,0.0,0.71062150221,0.70357450252,0,52.8946495056,55.4896774292,86.3060684204,3.60546255112
1646374293874263557,212,1646374293874263557,r200121355/base_front_laser_link,0,1646374293874263557,v/m1vw10zy74w/map,0.890033066859,8.04397582588,0.165,0.0,0.0,0.710356946431,0.703841607648,0,54.096786499,55.4831390381,86.2777862549,3.59821510315
1646374294110139485,213,1646374294110139485,r200121355/base_front_laser_link,0,1646374294110139485,v/m1vw10zy74w/map,0.89347418934,7.99880104861,0.165,0.0,0.0,0.708872392226,0.705336750453,0,57.1371612549,55.4908676147,86.2654800415,3.59153866768
1646374294347273591,214,1646374294347273591,r200121355/base_front_laser_link,0,1646374294347273591,v/m1vw10zy74w/map,0.899646438016,7.95190084634,0.165,0.0,0.0,0.705944761428,0.708266894478,0,55.0590209961,55.4888572693,86.2386322021,3.58325839043
1646374294583220326,215,1646374294583220326,r200121355/base_front_laser_link,0,1646374294583220326,v/m1vw10zy74w/map,0.916358838009,7.89699107322,0.165,0.0,0.0,0.698709425098,0.715405576774,0,58.1483192444,55.5011711121,86.2396469116,3.57949233055
1646374294820199217,216,1646374294820199217,r200121355/base_front_laser_link,0,1646374294820199217,v/m1vw10zy74w/map,0.913222035933,7.83683000924,0.165,0.0,0.0,0.703038140726,0.711152144541,0,55.7227478027,55.5021934509,86.2158737183,3.57122850418
1646374295135339643,217,1646374295135339643,r200121355/base_front_laser_link,0,1646374295135339643,v/m1vw10zy74w/map,0.90927268483,7.77296021115,0.165,0.0,0.0,0.704617264399,0.709587563807,0,55.6796607971,55.5030059814,86.1920394897,3.5630106926
1646374295372290491,218,1646374295372290491,r200121355/base_front_laser_link,0,1646374295372290491,v/m1vw10zy74w/map,0.902649635351,7.72476209721,0.165,0.0,0.0,0.707729832325,0.706483180576,0,53.9919052124,55.4961051941,86.1649932861,3.55629563332
1646374295530213764,219,1646374295530213764,r200121355/base_front_laser_link,0,1646374295530213764,v/m1vw10zy74w/map,0.898265785811,7.69291964407,0.165,0.0,0.0,0.709896998293,0.704305510283,0,51.0248260498,55.4757804871,86.1586303711,3.56094956398
1646374295766227013,220,1646374295766227013,r200121355/base_front_laser_link,0,1646374295766227013,v/m1vw10zy74w/map,0.892619396405,7.64539369217,0.165,0.0,0.0,0.712860546131,0.701305811875,0,48.4783325195,55.4441184998,86.1957931519,3.58389210701
1646374295924198288,221,1646374295924198288,r200121355/base_front_laser_link,0,1646374295924198288,v/m1vw10zy74w/map,0.896227497331,7.59389773401,0.165,0.0,0.0,0.708098491139,0.706113678417,0,52.2243881226,55.4296150208,86.1765136719,3.58229827881
1646374296003105155,222,1646374296003105155,r200121355/base_front_laser_link,0,1646374296003105155,v/m1vw10zy74w/map,0.892291688081,7.57121885199,0.165,0.0,0.0,0.71043226341,0.703765585338,0,54.7818412781,55.4267120361,86.1501617432,3.57448410988
1646374296239233771,223,1646374296239233771,r200121355/base_front_laser_link,0,1646374296239233771,v/m1vw10zy74w/map,0.888141543734,7.52493592775,0.165,0.0,0.0,0.712687699881,0.701481462648,0,55.8667678833,55.4286766052,86.1284179688,3.56658172607
1646374296477018570,224,1646374296477018570,r200121355/base_front_laser_link,0,1646374296477018570,v/m1vw10zy74w/map,0.884918743551,7.4780650031,0.165,0.0,0.0,0.714633882428,0.699498687695,0,57.9245262146,55.4397697449,86.1272659302,3.56249952316
1646374296713110280,225,1646374296713110280,r200121355/base_front_laser_link,0,1646374296713110280,v/m1vw10zy74w/map,0.884716750858,7.43143922868,0.165,0.0,0.0,0.715230669709,0.698888466858,0,62.5660858154,55.4713020325,86.2294311523,3.58604335785
1646374296871069104,226,1646374296871069104,r200121355/base_front_laser_link,0,1646374296871069104,v/m1vw10zy74w/map,0.886259428135,7.39975433657,0.165,0.0,0.0,0.714842523239,0.699285468867,0,59.4583702087,55.4888648987,86.2524871826,3.58787322044
1646374297186186398,227,1646374297186186398,r200121355/base_front_laser_link,0,1646374297186186398,v/m1vw10zy74w/map,0.893477274782,7.33681386046,0.165,0.0,0.0,0.71196445668,0.702215502837,0,57.6629371643,55.4984016418,86.2469711304,3.58285593987
1646374297423021875,228,1646374297423021875,r200121355/base_front_laser_link,0,1646374297423021875,v/m1vw10zy74w/map,0.897489500911,7.30714462056,0.165,0.0,0.0,0.71276808275,0.701399786294,0,58.5602340698,55.5117721558,86.25390625,3.58071112633
1646374297502043934,229,1646374297502043934,r200121355/base_front_laser_link,0,1646374297502043934,v/m1vw10zy74w/map,0.899353395032,7.29160345739,0.165,0.0,0.0,0.711993011009,0.702186550907,0,56.6577911377,55.5167541504,86.2378005981,3.57368350029
1646374297737131148,230,1646374297737131148,r200121355/base_front_laser_link,0,1646374297737131148,v/m1vw10zy74w/map,0.904775624465,7.24447407195,0.165,0.0,0.0,0.709647304634,0.704557097065,0,55.9807624817,55.5187606812,86.2168731689,3.56603693962
1646374297974162750,231,1646374297974162750,r200121355/base_front_laser_link,0,1646374297974162750,v/m1vw10zy74w/map,0.909700129186,7.19721177302,0.165,0.0,0.0,0.707380651242,0.706832805017,0,57.8505210876,55.5288124084,86.2136154175,3.56160140038
1646374298212128672,232,1646374298212128672,r200121355/base_front_laser_link,0,1646374298212128672,v/m1vw10zy74w/map,0.913263223613,7.14994225059,0.165,0.0,0.0,0.705631428806,0.708579061701,0,55.1613349915,55.5272369385,86.1892318726,3.55399870872
1646374298527129035,233,1646374298527129035,r200121355/base_front_laser_link,0,1646374298527129035,v/m1vw10zy74w/map,0.914094448891,7.08707441942,0.165,0.0,0.0,0.705067774246,0.709139925346,0,54.4515686035,55.5226402283,86.1638183594,3.54706096649
1646374299393869884,234,1646374299393869884,r200121355/base_front_laser_link,0,1646374299393869884,v/m1vw10zy74w/map,0.909724725584,6.95883928208,0.165,0.0,0.0,0.707452761076,0.70676063193,0,55.4522857666,55.5223388672,86.1407699585,3.53947663307
1646374299631199312,235,1646374299631199312,r200121355/base_front_laser_link,0,1646374299631199312,v/m1vw10zy74w/map,0.909978362697,6.95876101422,0.165,0.0,0.0,0.707332694021,0.706880796152,0,54.7945709229,55.5192565918,86.1160202026,3.53225564957
1646374299866909973,236,1646374299866909973,r200121355/base_front_laser_link,0,1646374299866909973,v/m1vw10zy74w/map,0.909742408009,6.95096470221,0.165,0.0,0.0,0.707447957636,0.706765440041,0,56.2313041687,55.5222587585,86.0974655151,3.52506756783
1646374300025151112,237,1646374300025151112,r200121355/base_front_laser_link,0,1646374300025151112,v/m1vw10zy74w/map,0.907408807496,6.93460359777,0.165,0.0,0.0,0.708582595475,0.705627880253,0,54.3025627136,55.5171356201,86.0726699829,3.5185110569
1646374300262912176,238,1646374300262912176,r200121355/base_front_laser_link,0,1646374300262912176,v/m1vw10zy74w/map,0.902418787975,6.88589229005,0.165,0.0,0.0,0.71113984242,0.703050584612,0,55.5663909912,55.5173416138,86.0506820679,3.51111292839
1646374300419042127,239,1646374300419042127,r200121355/base_front_laser_link,0,1646374300419042127,v/m1vw10zy74w/map,0.900856288925,6.84452308015,0.165,0.0,0.0,0.712134692633,0.702042861618,0,55.758190155,55.5183448792,86.0297241211,3.50379443169
